     2.11           OBSERVATION DATA    M (MIXED)           RINEX VERSION / TYPE
teqc  2018Mar15                         20180319 14:17:32UTCPGM / RUN BY / DATE
Linux 2.6.32-573.12.1.x86_64|x86_64|gcc -static|Linux 64|=+ COMMENT
END OF STATIC MODE OBSERVATION                              COMMENT
BIT 2 OF LLI FLAGS DATA COLLECTED UNDER A/S CONDITION       COMMENT
-Unknown-                                                   MARKER NAME
4625                                                        MARKER NUMBER
-Unknown-           -Unknown-                               OBSERVER / AGENCY
5127468778          TRIMBLE             4.63                REC # / TYPE / VERS
47477114                            NONE                    ANT # / TYPE
  2086182.6667 -4805304.3910  3626142.0507                  APPROX POSITION XYZ
        0.0000        0.0000        0.0000                  ANTENNA: DELTA H/E/N
     1     1                                                WAVELENGTH FACT L1/2
     7    L1    L2    C1    P1    P2    S1    S2            # / TYPES OF OBSERV
    18                                                      LEAP SECONDS
 SNR is mapped to RINEX snr flag value [0-9]                COMMENT
  L1 & L2: min(max(int(snr_dBHz/6), 0), 9)                  COMMENT
  2018     3    11    14    22   12.0000000     GPS         TIME OF FIRST OBS
                                                            END OF HEADER
 18  3 11 14 22 12.0000000  0 19R05R06G14G22R07R14R15R16R23R24R22G03
                                G12G01G17G32G19G24G25
                  96327575.802 3  23168657.836                    23168660.098
                        22.300
                  85683048.909 5  20644671.711                    20644672.113
                        34.100
 122040396.349 7  95096492.09744  23223530.617                    23223536.750
        42.100          25.600
 124012533.894 7  96633178.95744  23598808.547                    23598809.031
        44.400          26.800
                  92267152.777 6  22160931.281                    22160933.141
                        39.600
                  84905365.136 6  20478899.055                    20478901.898
                        38.300
                  81410771.563 5  19587750.203                    19587753.262
                        34.900
                                  23246385.234

                  84249503.089 5  20249431.328                    20249435.711
                        35.500
                  88141001.904 4  21192188.086                    21192188.215
                        29.600
                  97467256.459 5  23475729.109                    23475730.484
                        34.600
 126231596.709 6  98362313.94844  24021075.055                    24021080.750
        40.600          24.300
 113188096.799 7  88198526.47345  21538977.742                    21538981.094
        47.400          33.300
 122459541.725 7  95423100.25644  23303292.336                    23303298.199
        42.600          26.200
 116164768.486 8  90518010.43645  22105421.445                    22105424.715
        50.900          34.900
 116697964.143 7  90933522.03645  22206889.867                    22206895.863
        47.300          33.300
 112731908.316 7  87843050.35145  21452168.391                    21452169.496
        46.900          34.900
 114492703.207 8  89215115.56345  21787237.648                    21787242.367
        50.300          35.700
 129165692.535 6 100648662.52343  24579423.813                    24579429.328
        41.600          23.000
 18  3 11 14 22 13.0000000  0 19R05R06G14G22R07R14R15R16R23R24R22G03
                                G12G01G17G32G19G24G25
                  96331212.599 3  23169531.359                    23169534.473
                        21.100
                  85683864.174 5  20644868.656                    20644868.816
                        34.900
 122038449.276 7  95094974.90044  23223160.453                    23223166.164
        42.700          25.900
 124011494.119 7  96632368.73144  23598610.852                    23598610.949
        44.700          26.500
                  92264877.918 6  22160384.797                    22160387.262
                        39.900
                  84907827.061 6  20479493.633                    20479495.230
                        38.500
                  81410449.646 5  19587672.156                    19587675.977
                        34.600
                                  23245627.531

                  84250420.496 6  20249652.398                    20249656.191
                        36.200
                  88138812.661 4  21191660.531                    21191661.691
                        28.700
                  97470950.695 5  23476619.211                    23476620.477
                        34.300
 126229215.833 6  98360458.74544  24020621.922                    24020627.426
        41.300          25.700
 113186032.604 7  88196918.02245  21538585.242                    21538588.539
        47.900          33.500
 122462267.266 7  95425224.05144  23303811.234                    23303816.734
        42.900          25.000
 116166081.022 8  90519033.20345  22105670.797                    22105674.059
        51.200          35.500
 116697771.035 7  90933371.56245  22206852.820                    22206859.055
        47.100          33.600
 112731740.106 7  87842919.28245  21452136.859                    21452137.902
        47.500          35.100
 114495248.448 8  89217098.86845  21787721.578                    21787726.766
        50.400          35.400
 129162089.096 6 100645854.65643  24578737.992                    24578743.605
        41.400          23.400
 18  3 11 14 22 14.0000000  0 19R05R06G14G22R07R14R15R16R23R24R22G03
                                G12G01G17G32G19G24G25
                                  23170406.734

                  85684680.191 5  20645064.547                    20645065.527
                        34.200
 122036502.692 7  95093458.08944  23222789.672                    23222795.383
        42.500          25.600
 124010454.978 7  96631559.00444  23598413.383                    23598412.930
        45.100          26.800
                  92262603.558 6  22159838.938                    22159840.941
                        39.600
                  84910289.501 6  20480085.867                    20480089.766
                        38.500
                  81410128.374 5  19587595.422                    19587598.727
                        35.100
                  96576609.40915  23244868.828                    23244871.645
                        31.900
                  84251338.640 6  20249872.633                    20249877.063
                        36.000
                  88136623.993 4  21191135.180                    21191135.668
                        28.500
                  97474645.182 5  23477509.938                    23477510.418
                        35.500
 126226835.400 7  98358603.86544  24020170.055                    24020174.477
        42.800          26.200
 113183968.990 8  88195310.02845  21538192.961                    21538195.527
        49.000          33.100
 122464993.354 7  95427348.27444  23304329.664                    23304335.605
        42.900          25.100
 116167394.167 8  90520056.44546  22105920.805                    22105924.125
        51.200          36.200
 116697578.602 7  90933221.61845  22206816.789                    22206822.539
        46.900          34.100
 112731572.667 7  87842788.81345  21452104.914                    21452105.820
        47.600          35.300
 114497794.248 8  89219082.61145  21788205.953                    21788211.156
        50.300          35.000
 129158485.844 6 100643046.93144  24578052.609                    24578057.859
        41.500          24.400
 18  3 11 14 22 15.0000000  0 19R05R06G14G22R07R14R15R16R23R24R22G03
                                G12G01G17G32G19G24G25
                                  23171282.438

                  85685496.962 5  20645261.703                    20645262.512
                        34.900
 122034556.634 7  95091941.67244  23222419.852                    23222424.809
        42.200          26.200
 124009416.421 7  96630749.73544  23598215.289                    23598215.641
        44.700          27.800
                  92260329.720 6  22159292.203                    22159294.891
                        39.100
                  84912752.469 6  20480681.242                    20480684.035
                        38.400
                  81409807.783 5  19587518.680                    19587520.961
                        35.000
                  96573458.37915  23244110.469                    23244112.934
                        32.700
                  84252257.551 6  20250093.492                    20250097.695
                        36.000
                  88134435.876 4  21190609.234                    21190609.387
                        28.700
                  97478339.895 5  23478398.305                    23478400.805
                        35.700
 126224455.526 7  98356749.41044  24019717.367                    24019721.855
        43.300          25.100
 113181905.952 8  88193702.47445  21537800.813                    21537803.195
        49.100          33.100
 122467720.063 7  95429472.95144  23304848.672                    23304854.484
        43.400          26.600
 116168707.989 8  90521080.22045  22106171.164                    22106174.535
        51.400          35.800
 116697386.901 7  90933072.23845  22206780.336                    22206786.141
        47.100          34.300
 112731406.037 7  87842658.98345  21452073.227                    21452074.004
        47.800          34.700
 114500340.651 8  89221066.83245  21788690.008                    21788695.977
        50.100          35.300
 129154882.798 7 100640239.37243  24577366.820                    24577372.109
        42.000          22.900
 18  3 11 14 22 16.0000000  0 19R05R06G14G22R07R14R15R16R23R24R22G03
                                G12G01G17G32G19G24G25
                                  23172157.242

                  85686314.425 5  20645459.094                    20645459.039
                        35.000
 122032610.991 7  95090425.57744  23222049.453                    23222054.563
        42.500          26.100
 124008378.400 7  96629940.89244  23598017.859                    23598017.992
        44.600          27.400
                  92258056.330 6  22158746.195                    22158748.359
                        39.300
                  84915215.885 6  20481277.547                    20481277.711
                        38.400
                  81409487.783 5  19587441.969                    19587444.953
                        35.100
                  96570307.953 5  23243352.664                    23243354.230
                        33.100
                  84253177.109 5  20250314.703                    20250318.898
                        35.800
                  88132248.199 4  21190082.430                    21190083.672
                        27.000
                  97482034.790 6  23479288.508                    23479290.234
                        36.000
 126222075.998 7  98354895.21644  24019264.875                    24019269.043
        43.400          25.600
 113179843.427 8  88192095.30845  21537408.445                    21537410.461
        49.400          33.700
 122470447.254 7  95431598.03544  23305368.336                    23305373.473
        43.600          27.300
 116170022.337 8  90522104.40246  22106421.211                    22106424.438
        51.500          36.000
 116697195.816 7  90932923.34145  22206743.938                    22206749.699
        46.300          34.100
 112731240.080 7  87842529.66945  21452041.570                    21452042.527
        47.300          35.000
 114502887.555 8  89223051.43345  21789174.328                    21789180.375
        49.500          35.300
 129151279.840 7 100637431.87543  24576681.102                    24576686.742
        42.300          22.600
 18  3 11 14 22 17.0000000  0 19R05R06G14G22R07R14R15R16R23R24R22G03
                                G12G01G17G32G19G24G25
                                  23173030.211

                  85687132.640 5  20645655.305                    20645655.859
                        35.200
 122030665.882 7  95088909.89444  23221679.508                    23221683.609
        43.100          26.100
 124007340.983 7  96629132.51844  23597820.523                    23597820.633
        44.500          27.200
                  92255783.415 6  22158200.203                    22158202.359
                        39.100
                  84917679.852 6  20481869.195                    20481871.719
                        38.400
                  81409168.461 5  19587364.945                    19587367.574
                        34.800
                  96567157.732 5  23242594.516                    23242596.105
                        33.900
                  84254097.443 5  20250535.430                    20250539.441
                        35.800
                  88130061.117 4  21189557.734                    21189557.488
                        28.400
                  97485729.917 6  23480178.891                    23480180.766
                        36.600
 126219696.958 7  98353041.39744  24018811.445                    24018816.219
        43.100          27.000
 113177781.497 8  88190488.60145  21537015.844                    21537018.082
        49.800          33.900
 122473175.056 7  95433723.59944  23305886.898                    23305892.621
        43.800          27.200
 116171337.349 8  90523129.09946  22106670.914                    22106674.465
        51.300          36.000
 116697005.466 7  90932775.01445  22206707.820                    22206713.379
        46.300          34.500
 112731074.956 7  87842401.00945  21452009.867                    21452010.949
        47.900          34.900
 114505435.016 8  89225036.45845  21789658.906                    21789665.516
        49.100          35.400
 129147677.085 6 100634624.53444  24575995.719                    24576001.348
        41.400          24.700
 18  3 11 14 22 18.0000000  0 19R05R06G14G22R07R14R15R16R23R24R22G03
                                G12G01G17G32G19G24G25
                                  23173905.953

                  85687951.607 5  20645853.117                    20645854.203
                        34.800
 122028721.286 7  95087394.60744  23221309.695                    23221313.188
        42.900          26.500
 124006304.186 7  96628324.62444  23597622.844                    23597623.473
        44.300          27.000
                  92253510.980 6  22157654.859                    22157656.453
                        39.000
                  84920144.311 6  20482462.969                    20482466.375
                        38.300
                  81408849.817 5  19587287.453                    19587290.832
                        34.700
                  96564007.705 5  23241836.078                    23241837.793
                        34.400
                  84255018.529 6  20250756.930                    20250761.129
                        36.000
                  88127874.526 4  21189031.117                    21189031.906
                        28.300
                  97489425.301 6  23481068.633                    23481071.551
                        36.800
 126217318.406 7  98351187.96344  24018358.859                    24018364.262
        42.100          26.600
 113175720.172 8  88188882.36545  21536623.625                    21536625.691
        50.000          34.000
 122475903.457 7  95435849.62544  23306405.664                    23306411.891
        43.200          26.200
 116172653.006 8  90524154.30345  22106921.742                    22106925.016
        51.100          35.700
 116696815.852 7  90932627.26545  22206671.617                    22206677.211
        46.800          33.900
 112730910.593 7  87842272.93845  21451978.867                    21451979.680
        47.600          35.200
 114507983.066 8  89227021.93945  21790144.250                    21790150.199
        49.100          35.500
 129144074.539 6 100631817.35544  24575309.898                    24575315.871
        41.300          25.300
 18  3 11 14 22 19.0000000  0 19R05R06G14G22R07R14R15R16R23R24R22G03
                                G12G01G17G32G19G24G25
                                  23174780.414

                  85688771.291 5  20646049.523                    20646051.012
                        34.100
 122026777.176 7  95085879.69544  23220939.648                    23220942.453
        42.700          24.800
 124005267.956 7  96627517.17044  23597425.766                    23597425.914
        43.900          27.100
                  92251239.004 6  22157109.695                    22157110.520
                        38.400
                  84922609.246 6  20483059.758                    20483060.676
                        38.100
                  81408531.823 5  19587211.438                    19587214.559
                        34.600
                  96560857.813 5  23241078.016                    23241079.523
                        34.400
                  84255940.354 5  20250979.102                    20250982.988
                        35.700
                  88125688.451 4  21188505.797                    21188506.172
                        28.300
                  97493120.927 6  23481959.047                    23481961.320
                        36.800
 126214940.324 6  98349334.90844  24017905.320                    24017911.742
        41.600          26.000
 113173659.375 8  88187276.53945  21536231.172                    21536233.633
        49.600          33.800
 122478632.443 7  95437976.10544  23306925.141                    23306931.195
        42.100          25.800
 116173969.267 8  90525179.98345  22107171.977                    22107175.422
        51.100          35.800
 116696626.920 7  90932480.04245  22206635.961                    22206641.246
        46.900          34.400
 112730747.011 7  87842145.47845  21451947.383                    21451948.910
        47.600          34.600
 114510531.653 8  89229007.84345  21790629.320                    21790634.953
        49.100          35.500
 129140472.151 6 100629010.29644  24574624.195                    24574630.691
        41.600          24.400
 18  3 11 14 22 20.0000000  0 19R05R06G14G22R07R14R15R16R23R24R22G03
                                G12G01G17G32G19G24G25
                                  23175656.523

                  85689591.712 5  20646247.063                    20646248.840
                        34.700
 122024833.541 7  95084365.17044  23220569.477                    23220572.344
        43.500          26.300
 124004232.231 7  96626710.10544  23597228.875                    23597228.906
        43.500          27.600
                  92248967.531 6  22156563.875                    22156564.508
                        38.500
                  84925074.703 6  20483653.266                    20483655.750
                        38.200
                  81408214.468 5  19587134.914                    19587138.074
                        35.300
                  96557708.031 5  23240320.047                    23240321.844
                        35.000
                  84256862.900 6  20251200.813                    20251204.426
                        36.100
                  88123502.905 4  21187980.398                    21187981.063
                        28.400
                  97496816.739 6  23482848.930                    23482851.980
                        37.300
 126212562.663 6  98347482.18944  24017452.531                    24017459.559
        40.400          27.400
 113171599.130 8  88185671.15245  21535838.867                    21535841.703
        49.400          33.400
 122481361.978 7  95440103.01544  23307444.086                    23307451.004
        42.200          26.700
 116175286.144 8  90526206.14045  22107422.359                    22107425.734
        51.100          35.200
 116696438.668 7  90932333.35245  22206600.250                    22206605.926
        47.500          34.200
 112730584.198 7  87842018.61445  21451916.602                    21451917.582
        47.800          35.100
 114513080.769 8  89230994.15745  21791115.078                    21791120.285
        49.100          35.500
 129136869.903 6 100626203.35743  24573939.469                    24573945.332
        41.300          23.200
 18  3 11 14 22 21.0000000  0 19R05R06G14G22R07R14R15R16R23R24R22G03
                                G12G01G17G32G19G24G25
                                  23176532.961

                  85690412.893 5  20646445.203                    20646447.066
                        34.600
 122022890.414 7  95082851.03644  23220199.813                    23220202.551
        43.400          26.700
 124003197.161 7  96625903.55744  23597032.555                    23597032.488
        43.600          27.400
                  92246696.547 6  22156018.547                    22156019.672
                        39.000
                  84927540.674 6  20484247.000                    20484250.020
                        38.100
                  81407897.782 5  19587059.156                    19587061.422
                        35.200
                  96554558.457 5  23239562.086                    23239564.277
                        35.100
                  84257786.208 6  20251422.148                    20251426.121
                        36.100
                  88121317.864 4  21187453.734                    21187455.520
                        28.500
                  97500512.797 6  23483739.797                    23483742.293
                        38.100
 126210185.449 6  98345629.83944  24016999.898                    24017007.391
        40.200          26.000
 113169539.474 8  88184066.22045  21535446.461                    21535449.859
        49.100          33.600
 122484092.114 7  95442230.38844  23307963.477                    23307970.352
        42.600          26.500
 116176603.654 8  90527232.78945  22107673.586                    22107676.684
        51.000          35.500
 116696251.141 8  90932187.22845  22206564.664                    22206570.059
        48.400          33.600
 112730422.145 7  87841892.34745  21451885.414                    21451886.730
        47.900          34.400
 114515630.443 8  89232980.91145  21791600.055                    21791605.570
        49.100          35.500
 129133267.859 6 100623396.57343  24573253.180                    24573259.500
        41.600          23.400
 18  3 11 14 22 22.0000000  0 19R05R06G14G22R07R14R15R16R23R24R22G03
                                G12G01G17G32G19G24G25
                                  23177407.898

                  85691234.804 5  20646643.758                    20646644.793
                        34.400
 122020947.783 7  95081337.28344  23219830.234                    23219832.914
        43.300          27.100
 124002162.654 7  96625097.44744  23596834.844                    23596835.609
        43.900          28.100
                  92244426.054 6  22155472.719                    22155474.063
                        39.500
                  84930007.115 6  20484843.773                    20484845.813
                        37.900
                  81407581.762 5  19586982.719                    19586985.910
                        35.300
                  96551408.982 5  23238805.641                    23238805.598
                        35.600
                  84258710.290 6  20251644.313                    20251649.051
                        36.000
                  88119133.405 4  21186929.414                    21186930.047
                        28.000
                  97504209.083 6  23484629.992                    23484632.688
                        38.100
 126207808.711 6  98343777.85144  24016548.273                    24016555.301
        40.500          24.300
 113167480.375 8  88182461.72845  21535054.656                    21535057.844
        48.700          33.300
 122486822.808 7  95444358.20644  23308482.852                    23308489.859
        42.700          25.600
 116177921.793 8  90528259.93045  22107924.227                    22107927.133
        51.100          35.500
 116696064.299 8  90932041.62445  22206529.328                    22206534.133
        48.900          34.000
 112730260.894 7  87841766.69545  21451855.430                    21451856.195
        47.300          34.600
 114518180.713 8  89234968.12845  21792085.328                    21792090.543
        49.100          35.200
 129129665.964 6 100620589.90843  24572567.789                    24572574.234
        41.300          22.900
 18  3 11 14 22 23.0000000  0 19R05R06G14G22R07R14R15R16R23R24R22G03
                                G12G01G17G32G19G24G25
                  96367616.70313  23178283.219                    23178286.133
                        22.500
                  85692057.497 5  20646841.641                    20646843.266
                        34.500
 122019005.673 7  95079823.93844  23219460.555                    23219462.887
        43.500          27.600
 124001128.772 7  96624291.81844  23596638.070                    23596638.949
        43.200          26.700
                  92242156.065 6  22154927.492                    22154929.066
                        39.400
                  84932474.084 6  20485438.406                    20485439.992
                        38.000
                  81407266.425 5  19586906.828                    19586910.137
                        35.300
                  96548259.707 5  23238048.594                    23238047.883
                        35.300
                  84259635.117 5  20251866.500                    20251871.797
                        35.600
                  88116949.468 4  21186404.445                    21186404.770
                        28.500
                  97507905.599 6  23485520.633                    23485523.613
                        38.700
 126205432.487 6  98341926.26744  24016096.375                    24016103.000
        41.100          26.200
 113165421.865 8  88180857.70345  21534662.891                    21534666.410
        48.000          33.600
 122489554.108 7  95446486.49444  23309002.953                    23309009.879
        42.100          25.900
 116179240.577 8  90529287.57645  22108175.078                    22108178.277
        50.900          35.500
 116695878.206 8  90931896.60845  22206493.516                    22206498.727
        49.100          34.000
 112730100.420 7  87841641.65745  21451824.359                    21451825.453
        46.900          34.400
 114520731.571 8  89236955.81245  21792570.164                    21792576.328
        49.000          34.700
 129126064.319 7 100617783.43544  24571882.625                    24571888.559
        42.100          25.600
 18  3 11 14 22 24.0000000  0 19R05R06G14G22R07R14R15R16R23R24R22G03
                                G12G01G17G32G19G24G25
                  96371256.45013  23179159.008                    23179161.379
                        22.500
                  85692880.920 5  20647041.008                    20647041.965
                        35.000
 122017064.042 7  95078310.97044  23219091.047                    23219093.348
        43.100          26.400
 124000095.469 7  96623486.65144  23596441.523                    23596442.379
        43.200          27.300
                  92239886.544 6  22154382.359                    22154384.492
                        39.400
                  84934941.553 6  20486033.836                    20486035.000
                        38.300
                  81406951.760 5  19586831.148                    19586834.828
                        35.400
                  96545110.579 5  23237291.398                    23237290.664
                        35.500
                  84260560.695 5  20252089.438                    20252093.270
                        35.400
                  88114766.112 4  21185879.578                    21185880.301
                        28.700
                  97511602.354 6  23486410.258                    23486413.844
                        38.900
 126203056.730 6  98340075.03843  24015645.391                    24015650.691
        41.700          23.900
 113163363.915 7  88179254.12045  21534271.328                    21534274.777
        47.500          33.300
 122492286.008 6  95448615.24244  23309522.539                    23309529.328
        41.500          25.900
 116180559.967 8  90530315.69545  22108426.133                    22108429.660
        51.100          35.300
 116695692.785 8  90931752.11445  22206458.078                    22206464.020
        48.900          33.700
 112729940.729 7  87841517.22945  21451794.477                    21451795.340
        47.200          34.700
 114523282.988 8  89238943.92245  21793055.695                    21793061.902
        48.800          35.200
 129122462.766 6 100614977.02844  24571197.656                    24571203.742
        41.700          24.500
 18  3 11 14 22 25.0000000  0 19R05R06G14G22R07R14R15R16R23R24R22G03
                                G12G01G17G32G19G24G25
                  96374895.88813  23180034.977                    23180036.980
                        22.500
                  85693705.073 5  20647239.359                    20647240.496
                        34.700
 122015122.908 7  95076798.39144  23218721.680                    23218724.199
        43.000          27.900
 123999062.712 7  96622681.90544  23596245.102                    23596245.723
        43.200          26.300
                  92237617.531 6  22153837.844                    22153839.426
                        39.500
                  84937409.528 6  20486628.094                    20486630.832
                        38.000
                  81406637.729 5  19586755.930                    19586758.746
                        34.900
                  96541961.658 5  23236532.211                    23236531.938
                        35.900
                  84261487.005 5  20252312.141                    20252316.281
                        35.500
                  88112583.277 4  21185354.484                    21185355.332
                        28.000
                  97515299.354 6  23487301.656                    23487304.441
                        38.900
 126200681.487 7  98338224.19744  24015192.844                    24015198.945
        42.200          26.500
 113161306.516 7  88177650.96145  21533879.938                    21533883.082
        47.200          33.600
 122495018.439 6  95450744.40644  23310043.313                    23310049.258
        41.600          26.000
 116181879.987 8  90531344.30145  22108677.555                    22108680.699
        50.700          35.300
 116695508.078 8  90931608.17945  22206422.688                    22206428.301
        48.500          33.800
 112729781.781 7  87841393.38245  21451764.102                    21451764.992
        47.200          34.600
 114525834.941 8  89240932.44745  21793541.508                    21793547.230
        48.600          35.100
 129118861.447 7 100612170.80544  24570511.836                    24570518.406
        42.200          25.500
 18  3 11 14 22 26.0000000  0 19R05R06G14G22R07R14R15R16R23R24R22G03
                                G12G01G17G32G19G24G25
                  96378536.125 3  23180908.961                    23180912.449
                        22.700
                  85694529.965 5  20647438.227                    20647439.004
                        34.000
 122013182.259 7  95075286.18644  23218352.234                    23218355.031
        43.000          28.000
 123998030.566 7  96621877.63744  23596048.656                    23596049.598
        43.100          27.400
                  92235348.979 6  22153293.344                    22153295.063
                        39.100
                  84939877.988 6  20487222.250                    20487226.469
                        38.100
                  81406324.353 5  19586679.438                    19586684.273
                        34.600
                  96538812.955 5  23235777.453                    23235774.188
                        35.300
                  84262414.029 5  20252533.945                    20252538.883
                        35.300
                  88110400.934 4  21184829.305                    21184830.465
                        29.100
                  97518996.549 6  23488191.984                    23488194.332
                        38.900
 126198306.630 7  98336373.64244  24014740.563                    24014746.598
        42.600          26.800
 113159249.682 7  88176048.24045  21533488.867                    21533491.410
        47.800          32.700
 122497751.435 6  95452874.00144  23310563.383                    23310569.582
        41.400          25.400
 116183200.599 8  90532373.36645  22108928.938                    22108931.676
        51.000          35.500
 116695324.035 8  90931464.75745  22206387.680                    22206393.531
        48.600          33.900
 112729623.608 7  87841270.13345  21451733.672                    21451735.129
        47.400          34.700
 114528387.417 8  89242921.38345  21794027.422                    21794033.273
        48.400          34.600
 129115260.278 7 100609364.69144  24569826.820                    24569833.371
        42.200          25.600
 18  3 11 14 22 27.0000000  0 18R05R06G14G22R07R14R15R23R24R22G03G12
                                G01G17G32G19G24G25
                  96382176.607 3  23181785.406                    23181787.434
                        21.900
                  85695355.601 5  20647636.836                    20647637.797
                        34.600
 122011242.096 7  95073774.37244  23217982.930                    23217986.086
        42.700          27.100
 123996998.987 7  96621073.81144  23595852.414                    23595852.871
        42.800          27.900
                  92233080.906 6  22152748.336                    22152749.219
                        38.600
                  84942346.954 6  20487820.813                    20487821.695
                        38.100
                  81406011.638 5  19586604.875                    19586608.406
                        34.600
                  84263341.777 6  20252758.039                    20252762.164
                        36.000
                  88108219.173 4  21184305.883                    21184305.805
                        27.800
                  97522694.000 6  23489083.125                    23489085.566
                        38.400
 126195932.262 6  98334523.45944  24014288.805                    24014294.805
        41.100          26.200
 113157193.416 8  88174445.96245  21533097.766                    21533100.168
        48.900          32.800
 122500485.037 6  95455004.08044  23311083.406                    23311089.754
        41.700          26.500
 116184521.864 8  90533402.94145  22109180.102                    22109183.340
        50.900          34.400
 116695140.695 8  90931321.88945  22206352.656                    22206358.590
        48.300          34.300
 112729466.197 7  87841147.47945  21451703.906                    21451704.523
        47.800          34.600
 114530940.461 8  89244910.75445  21794513.148                    21794518.828
        48.100          34.800
 129111659.268 7 100606558.72244  24569141.680                    24569148.352
        42.100          25.100
 18  3 11 14 22 28.0000000  0 18R05R06G14G22R07R14R15R23R24R22G03G12
                                G01G17G32G19G24G25
                  96385817.354 3  23182661.750                    23182663.676
                        21.600
                  85696182.020 5  20647836.195                    20647836.770
                        34.300
 122009302.438 7  95072262.95144  23217613.672                    23217616.895
        42.100          27.200
 123995968.020 7  96620270.46244  23595655.805                    23595656.742
        43.100          29.100
                  92230813.335 6  22152203.828                    22152204.453
                        38.500
                  84944816.494 6  20488415.336                    20488417.012
                        38.100
                  81405699.617 5  19586529.813                    19586533.480
                        34.600
                  84264270.292 5  20252980.625                    20252985.000
                        35.700
                  88106037.902 4  21183780.656                    21183781.395
                        27.800
                  97526391.686 6  23489973.930                    23489976.137
                        38.600
 126193558.400 6  98332673.68043  24013836.711                    24013843.172
        39.800          22.600
 113155137.738 8  88172844.14445  21532706.734                    21532709.348
        49.200          33.300
 122503219.182 6  95457134.58244  23311603.781                    23311609.695
        41.600          26.800
 116185843.758 8  90534433.00445  22109431.336                    22109434.945
        51.400          34.500
 116694958.083 8  90931179.59445  22206317.977                    22206323.551
        48.600          34.300
 112729309.574 7  87841025.44945  21451673.945                    21451675.012
        47.800          34.300
 114533494.097 8  89246900.58445  21794999.328                    21795004.875
        48.700          34.900
 129108058.455 7 100603752.88643  24568455.945                    24568462.805
        42.200          23.200
 18  3 11 14 22 29.0000000  0 18R05R06G14G22R07R14R15R23R24R22G03G12
                                G01G17G32G19G24G25
                                  23183536.211

                  85697009.168 5  20648035.984                    20648035.836
                        34.600
 122007363.317 7  95070751.95344  23217245.063                    23217248.297
        42.000          27.000
 123994937.636 7  96619467.57044  23595460.563                    23595460.902
        43.000          27.700
                  92228546.256 6  22151658.758                    22151660.023
                        38.400
                  84947286.541 6  20489010.344                    20489012.293
                        38.100
                  81405388.275 5  19586455.273                    19586458.500
                        34.900
                  84265199.552 5  20253204.016                    20253208.621
                        35.800
                  88103857.221 4  21183257.383                    21183257.121
                        28.500
                  97530089.618 6  23490864.063                    23490867.055
                        38.900
 126191184.971 6  98330824.25744  24013384.531                    24013391.590
        39.000          24.100
 113153082.671 8  88171242.78745  21532315.711                    21532318.043
        49.900          33.200
 122505953.978 6  95459265.59844  23312123.781                    23312130.773
        41.100          25.200
 116187166.298 8  90535463.57245  22109683.320                    22109686.477
        51.400          35.000
 116694776.187 8  90931037.85645  22206283.500                    22206289.516
        48.400          34.300
 112729153.763 7  87840904.03045  21451644.555                    21451645.480
        47.800          34.600
 114536048.303 8  89248890.85545  21795485.805                    21795490.941
        49.200          34.900
 129104457.846 7 100600947.21043  24567770.789                    24567777.625
        42.300          22.500
 18  3 11 14 22 30.0000000  0 18R05R06G14G22R07R14R15R23R24R22G03G12
                                G01G17G32G19G24G25
                                  23184413.039

                  85697837.039 5  20648235.844                    20648236.109
                        34.800
 122005424.642 6  95069241.30644  23216875.695                    23216879.746
        41.800          29.200
 123993907.841 7  96618665.14244  23595264.359                    23595264.715
        42.700          28.900
                  92226279.623 6  22151114.195                    22151114.758
                        38.900
                  84949757.034 6  20489606.992                    20489608.879
                        37.900
                  81405077.552 5  19586380.273                    19586383.555
                        34.700
                  84266129.534 6  20253427.594                    20253432.117
                        36.500
                  88101677.001 4  21182732.430                    21182733.156
                        28.800
                  97533787.751 6  23491754.727                    23491757.625
                        39.300
 126188811.981 6  98328975.19244  24012932.594                    24012939.906
        38.400          25.300
 113151028.118 8  88169641.82645  21531924.266                    21531926.926
        50.100          32.900
 122508689.304 6  95461397.02544  23312644.719                    23312650.719
        40.600          25.300
 116188489.419 8  90536494.59445  22109935.133                    22109938.152
        51.500          34.700
 116694594.968 7  90930896.64345  22206248.648                    22206254.551
        47.800          34.100
 112728998.676 8  87840783.18145  21451614.969                    21451615.844
        48.000          34.700
 114538603.044 8  89250881.55945  21795971.531                    21795976.770
        49.200          34.900
 129100857.400 7 100598141.68343  24567085.906                    24567092.188
        42.400          23.400
 18  3 11 14 22 31.0000000  0 18R05R06G14G22R07R14R15R23R24R22G03G12
                                G01G17G32G19G24G25
                                  23185288.445

                  85698665.634 5  20648434.773                    20648435.531
                        34.400
 122003486.481 6  95067731.05544  23216506.555                    23216511.078
        41.300          27.200
 123992878.609 7  96617863.14644  23595068.680                    23595069.344
        42.000          26.900
                  92224013.479 6  22150569.320                    22150571.410
                        38.700
                  84952228.035 6  20490202.734                    20490204.520
                        37.900
                  81404767.512 5  19586305.875                    19586308.898
                        34.800
                  84267060.232 6  20253651.406                    20253655.785
                        36.300
                  88099497.333 4  21182208.688                    21182208.957
                        28.400
                  97537486.089 6  23492645.734                    23492648.629
                        38.900
 126186439.446 6  98327126.50543  24012480.414                    24012488.590
        38.500          22.900
 113148974.146 8  88168041.32045  21531533.672                    21531536.164
        50.200          32.600
 122511425.219 6  95463528.89644  23313164.805                    23313171.074
        40.500          25.800
 116189813.167 8  90537526.10345  22110186.922                    22110190.090
        51.500          35.200
 116694414.442 7  90930755.97045  22206214.414                    22206220.430
        47.900          33.700
 112728844.354 8  87840662.93245  21451585.578                    21451586.664
        48.300          34.900
 114541158.351 8  89252872.69945  21796457.852                    21796462.875
        49.700          35.100
 129097257.119 6 100595336.27943  24566400.883                    24566407.566
        41.500          22.600
 18  3 11 14 22 32.0000000  0 19R05R06G14G22R07R14R15R16R23R24R22G03
                                G12G01G17G32G19G24G25
                                  23186164.414

                  85699494.936 5  20648634.594                    20648634.961
                        34.400
 122001548.770 6  95066221.16344  23216137.773                    23216142.152
        41.200          26.200
 123991849.954 7  96617061.60644  23594872.680                    23594873.566
        42.400          27.900
                  92221747.810 6  22150026.000                    22150027.156
                        39.400
                  84954699.557 6  20490798.695                    20490800.336
                        38.200
                  81404458.128 5  19586231.094                    19586234.582
                        35.200
                  96519924.89515  23231229.000                    23231227.984
                        30.600
                  84267991.660 6  20253875.008                    20253879.477
                        36.500
                  88097318.223 4  21181685.172                    21181685.023
                        28.000
                  97541184.650 6  23493535.984                    23493539.586
                        38.700
 126184067.387 6  98325278.17443  24012030.313                    24012037.137
        39.600          23.000
 113146920.725 8  88166441.24445  21531142.344                    21531145.688
        49.900          32.400
 122514161.700 6  95465661.21044  23313686.688                    23313692.090
        41.300          26.000
 116191137.524 8  90538558.08545  22110438.891                    22110442.176
        51.800          34.900
 116694234.604 7  90930615.83645  22206180.148                    22206186.008
        47.600          34.700
 112728690.818 8  87840543.28745  21451556.164                    21451557.332
        48.400          35.100
 114543714.223 8  89254864.28145  21796944.469                    21796949.758
        50.200          34.600
 129093657.007 6 100592530.98043  24565715.969                    24565722.270
        41.400          22.600
 18  3 11 14 22 33.0000000  0 19R05R06G14G22R07R14R15R16R23R24R22G03
                                G12G01G17G32G19G24G25
                                  23187040.117

                  85700325.020 5  20648834.203                    20648834.824
                        35.000
 121999611.632 6  95064711.72244  23215769.203                    23215773.813
        41.100          26.800
 123990821.933 7  96616260.55644  23594677.273                    23594677.902
        42.500          27.500
                  92219482.665 6  22149481.563                    22149483.215
                        38.900
                  84957171.600 6  20491395.109                    20491396.898
                        38.300
                  81404149.434 5  19586157.023                    19586160.301
                        34.800
                  96516777.24114  23230469.516                    23230470.480
                        29.900
                  84268923.870 6  20254099.367                    20254103.129
                        36.600
                  88095139.636 4  21181159.945                    21181161.367
                        27.900
                  97544883.514 6  23494428.922                    23494430.430
                        38.400
 126181695.857 6  98323430.24944  24011579.172                    24011585.820
        40.500          24.400
 113144867.923 8  88164841.65445  21530751.594                    21530755.094
        49.300          33.000
 122516898.793 7  95467794.00144  23314207.586                    23314213.098
        42.200          25.800
 116192462.561 8  90539590.59845  22110690.992                    22110694.004
        51.300          35.400
 116694055.531 7  90930476.29945  22206146.203                    22206152.313
        47.300          34.200
 112728538.100 8  87840424.28345  21451527.445                    21451528.355
        48.400          35.200
 114546270.685 8  89256856.32545  21797431.234                    21797436.164
        50.500          34.800
 129090057.116 7 100589725.86543  24565031.141                    24565037.301
        42.100          23.000
 18  3 11 14 22 34.0000000  0 19R05R06G14G22R07R14R15R16R23R24R22G03
                                G12G01G17G32G19G24G25
                                  23187916.398

                  85701155.863 5  20649035.742                    20649034.813
                        34.700
 121997674.969 6  95063202.65544  23215400.695                    23215405.316
        41.200          27.000
 123989794.496 7  96615459.96044  23594481.297                    23594482.633
        42.300          27.600
                  92217218.009 6  22148937.508                    22148939.648
                        39.400
                  84959644.150 6  20491991.477                    20491993.297
                        38.100
                  81403841.410 5  19586083.313                    19586086.328
                        35.100
                  96513629.79614  23229710.469                    23229712.465
                        28.100
                  84269856.803 5  20254323.531                    20254328.008
                        35.800
                  88092961.644 4  21180637.688                    21180637.680
                        27.900
                  97548582.593 6  23495318.766                    23495321.527
                        38.900
 126179324.830 6  98321582.69644  24011128.672                    24011134.805
        41.300          25.900
 113142815.671 8  88163242.49745  21530361.063                    21530364.207
        48.900          33.600
 122519636.440 7  95469927.22944  23314728.859                    23314734.398
        42.200          26.100
 116193788.209 8  90540623.58845  22110943.180                    22110946.313
        51.300          35.500
 116693877.129 7  90930337.29545  22206112.609                    22206118.227
        47.500          34.500
 112728386.142 8  87840305.87645  21451498.195                    21451499.176
        48.700          35.000
 114548827.706 8  89258848.81045  21797917.570                    21797923.055
        50.700          35.000
 129086457.394 7 100586920.88444  24564345.789                    24564351.859
        42.000          25.000
 18  3 11 14 22 35.0000000  0 19R05R06G14G22R07R14R15R16R23R24R22G03
                                G12G01G17G32G19G24G25
                  96411305.69413  23188791.039                    23188794.324
                        23.300
                  85701987.453 5  20649236.289                    20649235.172
                        35.000
 121995738.800 7  95061693.96444  23215033.078                    23215037.094
        42.100          26.700
 123988767.651 7  96614659.82644  23594286.305                    23594287.359
        42.800          27.000
                  92214953.856 6  22148394.781                    22148396.355
                        39.600
                  84962117.191 6  20492587.906                    20492589.418
                        38.100
                  81403534.042 5  19586008.313                    19586012.574
                        34.600
                  96510482.03014  23228953.258                    23228954.895
                        25.800
                  84270790.459 5  20254547.789                    20254552.168
                        35.900
                  88090784.129 4  21180113.898                    21180113.633
                        28.200
                  97552281.893 6  23496209.125                    23496212.164
                        38.100
 126176954.252 6  98319735.48344  24010677.336                    24010683.727
        41.500          24.800
 113140764.009 8  88161643.80745  21529970.695                    21529973.922
        48.700          33.200
 122522374.674 7  95472060.92544  23315249.242                    23315255.551
        42.400          26.000
 116195114.496 8  90541657.07545  22111195.508                    22111198.816
        51.000          35.300
 116693699.447 7  90930198.84345  22206079.109                    22206084.168
        47.700          34.500
 112728234.965 8  87840188.07145  21451469.563                    21451470.637
        48.800          34.900
 114551385.285 8  89260841.73245  21798404.391                    21798409.484
        50.300          34.800
 129082857.840 7 100584116.04743  24563661.406                    24563667.023
        42.200          22.800
 18  3 11 14 22 36.0000000  0 19R05R06G14G22R07R14R15R16R23R24R22G03
                                G12G01G17G32G19G24G25
                  96414948.60013  23189666.422                    23189670.594
                        23.600
                  85702819.765 5  20649435.945                    20649435.801
                        35.000
 121993803.128 7  95060185.65344  23214664.445                    23214669.000
        42.500          26.700
 123987741.389 7  96613860.14944  23594091.367                    23594091.836
        42.500          27.700
                  92212690.184 6  22147850.547                    22147853.070
                        39.800
                  84964590.739 6  20493184.539                    20493186.668
                        38.100
                  81403227.333 5  19585935.258                    19585938.094
                        35.000
                  96507334.894 4  23228196.742                    23228197.078
                        25.000
                  84271724.837 6  20254772.289                    20254776.164
                        36.000
                  88088607.165 4  21179589.711                    21179590.957
                        28.200
                  97555981.434 6  23497100.219                    23497103.953
                        38.100
 126174584.104 6  98317888.59543  24010225.484                    24010232.750
        40.500          22.600
 113138712.891 8  88160045.54345  21529580.508                    21529583.398
        49.300          33.400
 122525113.465 7  95474195.04544  23315770.945                    23315776.586
        42.500          25.500
 116196441.380 8  90542691.02445  22111448.188                    22111450.953
        50.800          35.300
 116693522.428 8  90930060.90945  22206045.258                    22206050.871
        48.400          34.400
 112728084.550 8  87840070.86445  21451441.156                    21451442.023
        49.100          35.000
 114553943.431 8  89262835.10345  21798890.734                    21798896.469
        50.300          34.600
 129079258.468 7 100581311.34443  24562976.297                    24562982.336
        42.300          23.200
 18  3 11 14 22 37.0000000  0 19R05R06G14G22R07R14R15R16R23R24R22G03
                                G12G01G17G32G19G24G25
                  96418591.24813  23190542.703                    23190546.777
                        22.800
                  85703652.829 5  20649637.266                    20649636.762
                        34.300
 121991867.964 7  95058677.74044  23214296.359                    23214300.531
        43.000          27.000
 123986715.710 7  96613060.91744  23593895.656                    23593896.523
        42.800          28.400
                  92210427.012 6  22147306.906                    22147309.125
                        39.400
                  84967064.810 6  20493780.344                    20493782.992
                        38.000
                  81402921.282 5  19585861.820                    19585865.031
                        35.200
                  96504187.922 4  23227438.219                    23227439.648
                        24.300
                  84272659.960 6  20254997.031                    20255001.000
                        36.100
                  88086430.751 4  21179067.820                    21179067.559
                        28.600
                  97559681.194 6  23497991.867                    23497994.629
                        37.500
 126172214.475 6  98316042.11543  24009774.328                    24009781.668
        39.400          23.800
 113136662.347 8  88158447.72745  21529190.477                    21529193.355
        49.300          33.200
 122527852.849 7  95476329.64444  23316291.859                    23316297.895
        42.700          26.400
 116197768.898 8  90543725.46745  22111700.719                    22111703.813
        50.700          35.500
 116693346.169 8  90929923.56745  22206011.797                    22206017.109
        48.700          34.200
 112727934.900 8  87839954.24445  21451412.453                    21451413.496
        49.100          34.900
 114556502.135 8  89264828.90345  21799377.625                    21799383.352
        50.100          34.600
 129075659.262 7 100578506.76544  24562291.492                    24562296.625
        42.200          24.700
 18  3 11 14 22 38.0000000  0 19R05R06G14G22R07R14R15R16R23R24R22G03
                                G12G01G17G32G19G24G25
                  96422234.676 3  23191419.813                    23191423.152
                        23.000
                  85704486.646 5  20649837.758                    20649837.477
                        34.400
 121989933.294 7  95057170.21144  23213928.477                    23213932.227
        42.800          25.400
 123985690.620 7  96612262.14344  23593700.898                    23593701.492
        42.800          27.200
                  92208164.328 6  22146763.070                    22146765.395
                        39.400
                  84969539.349 6  20494379.023                    20494380.285
                        38.000
                  81402615.906 5  19585787.961                    19585791.754
                        34.800
                  96501041.043 3  23226680.211                    23226681.852
                        21.400
                  84273595.822 6  20255221.844                    20255226.547
                        36.500
                  88084254.824 4  21178543.297                    21178544.543
                        29.000
                  97563381.172 6  23498883.234                    23498884.594
                        37.100
 126169845.303 6  98314196.01743  24009323.484                    24009330.410
        38.400          21.800
 113134612.375 8  88156850.35045  21528800.672                    21528803.297
        49.300          33.000
 122530592.825 7  95478464.69944  23316812.820                    23316818.957
        43.200          26.700
 116199097.041 8  90544760.39545  22111953.367                    22111956.461
        50.700          35.400
 116693170.591 8  90929786.74745  22205978.445                    22205983.492
        49.100          34.700
 112727786.033 8  87839838.24345  21451383.719                    21451385.086
        48.500          35.000
 114559061.397 8  89266823.13045  21799864.359                    21799870.117
        50.000          35.300
 129072060.276 7 100575702.36244  24561606.328                    24561612.477
        42.400          24.700
 18  3 11 14 22 39.0000000  0 19R05R06G14G22R07R14R15R16R23R24R22G03
                                G12G01G17G32G19G24G25
                  96425878.291 3  23192297.758                    23192300.031
                        22.500
                  85705321.156 5  20650038.070                    20650038.574
                        34.300
 121987999.078 7  95055663.02544  23213560.039                    23213563.645
        43.200          25.900
 123984666.070 7  96611463.79344  23593506.039                    23593506.398
        42.400          27.800
                  92205902.055 6  22146220.211                    22146221.758
                        39.300
                  84972014.351 6  20494975.258                    20494976.715
                        38.700
                  81402311.145 5  19585714.477                    19585718.152
                        35.700
                                  23225924.172

                  84274532.376 5  20255447.555                    20255451.688
                        35.700
                  88082079.448 4  21178020.328                    21178021.301
                        29.400
                  97567081.357 6  23499774.891                    23499776.887
                        36.400
 126167476.499 6  98312350.19943  24008872.516                    24008879.465
        38.000          23.000
 113132562.925 8  88155253.38945  21528410.586                    21528413.281
        49.600          33.000
 122533333.300 7  95480600.13644  23317334.359                    23317340.676
        42.900          26.700
 116200425.744 8  90545795.76345  22112205.914                    22112209.477
        50.700          35.300
 116692995.646 8  90929650.41345  22205945.078                    22205949.961
        49.400          34.400
 112727637.897 8  87839722.80045  21451355.875                    21451357.043
        48.400          35.200
 114561621.181 8  89268817.76645  21800351.484                    21800357.320
        49.400          35.100
 129068461.374 7 100572898.02744  24560921.734                    24560927.160
        42.700          24.100
 18  3 11 14 22 40.0000000  0 19R05R06G14G22R07R14R15R16R23R24R22G03
                                G12G01G17G32G19G24G25
                  96429522.168 3  23193172.602                    23193175.938
                        22.500
                  85706156.440 5  20650239.414                    20650239.441
                        34.100
 121986065.356 7  95054156.22944  23213191.906                    23213195.727
        43.600          25.500
 123983642.117 7  96610665.91744  23593310.844                    23593311.613
        42.800          28.700
                  92203640.286 6  22145675.773                    22145678.270
                        38.600
                  84974489.873 6  20495571.094                    20495573.727
                        38.100
                  81402007.056 5  19585641.906                    19585644.551
                        35.500
                                  23225166.750

                  84275469.697 5  20255672.344                    20255676.648
                        35.600
                  88079904.607 4  21177496.898                    21177497.871
                        28.800
                  97570781.748 5  23500665.523                    23500667.867
                        35.700
 126165108.162 6  98310504.75943  24008421.797                    24008428.730
        38.400          22.500
 113130514.064 8  88153656.87645  21528020.891                    21528023.137
        49.800          33.100
 122536074.378 7  95482736.04144  23317856.531                    23317862.234
        42.900          27.300
 116201755.086 8  90546831.62745  22112459.250                    22112462.465
        50.700          35.600
 116692821.439 8  90929514.66545  22205912.039                    22205917.262
        48.700          34.000
 112727490.536 8  87839607.96245  21451327.742                    21451328.637
        48.200          35.200
 114564181.512 8  89270812.81545  21800838.148                    21800844.324
        48.700          35.200
 129064862.675 7 100570093.83643  24560237.023                    24560242.664
        42.300          23.600
 18  3 11 14 22 41.0000000  0 19R05R06G14G22R07R14R15R16R23R24R22G03
                                G12G01G17G32G19G24G25
                  96433166.359 3  23194051.039                    23194052.465
                        23.600
                  85706992.455 5  20650440.734                    20650441.262
                        34.600
 121984132.146 7  95052649.82544  23212824.594                    23212828.059
        44.600          26.400
 123982618.764 7  96609868.51044  23593116.313                    23593117.355
        43.300          27.800
                  92201378.968 6  22145133.180                    22145134.953
                        38.600
                  84976965.873 6  20496170.234                    20496171.180
                        38.300
                  81401703.612 5  19585568.516                    19585571.906
                        35.400
                                  23224409.063

                  84276407.740 5  20255898.031                    20255902.668
                        35.800
                  88077730.304 4  21176975.289                    21176975.477
                        28.600
                  97574482.392 5  23501556.539                    23501559.023
                        34.800
 126162740.337 6  98308659.73043  24007972.758                    24007978.086
        39.600          23.000
 113128465.771 8  88152060.80345  21527631.234                    21527633.539
        49.700          32.800
 122538816.020 7  95484872.37844  23318378.344                    23318383.871
        43.200          26.000
 116203085.057 8  90547867.97745  22112712.500                    22112715.492
        50.900          35.000
 116692647.902 8  90929379.43445  22205878.664                    22205884.066
        48.600          34.100
 112727343.958 8  87839493.74345  21451300.250                    21451301.063
        48.400          34.800
 114566742.376 8  89272808.28545  21801325.469                    21801331.637
        48.500          35.300
 129061264.143 7 100567289.78143  24559551.984                    24559557.895
        42.600          23.000
 18  3 11 14 22 42.0000000  0 19R05R06G14G22R07R14R15R16R23R24R22G03
                                G12G01G17G32G19G24G25
                  96436810.810 3  23194927.125                    23194929.109
                        22.500
                  85707829.215 5  20650642.352                    20650642.750
                        34.300
 121982199.396 7  95051143.77944  23212456.773                    23212459.742
        45.000          26.600
 123981595.935 7  96609071.50844  23592921.938                    23592922.645
        43.800          27.400
                  92199118.171 6  22144590.523                    22144591.605
                        39.000
                  84979442.379 6  20496767.023                    20496768.480
                        38.500
                  81401400.837 5  19585496.492                    19585499.250
                        35.600
                                  23223651.375

                  84277346.492 5  20256123.609                    20256127.746
                        35.800
                  88075556.528 4  21176453.164                    21176452.719
                        28.300
                  97578183.236 5  23502448.094                    23502450.207
                        33.600
 126160372.999 6  98306815.06244  24007522.539                    24007527.324
        40.900          24.200
 113126418.027 8  88150465.14745  21527241.281                    21527243.773
        49.400          32.800
 122541558.228 7  95487009.16744  23318899.891                    23318905.613
        43.200          26.700
 116204415.618 8  90548904.79345  22112965.555                    22112968.906
        51.300          35.100
 116692475.066 8  90929244.75445  22205845.984                    22205851.289
        48.800          34.500
 112727198.146 7  87839380.11745  21451272.273                    21451273.535
        47.800          34.800
 114569303.815 8  89274804.20345  21801813.219                    21801819.176
        48.700          35.100
 129057665.778 7 100564485.87343  24558867.453                    24558872.938
        42.500          22.900
 18  3 11 14 22 43.0000000  0 19R05R06G14G22R07R14R15R16R23R24R22G03
                                G12G01G17G32G19G24G25
                  96440455.501 3  23195803.438                    23195805.184
                        22.300
                  85708666.705 5  20650845.117                    20650844.512
                        34.300
 121980267.163 7  95049638.13244  23212088.688                    23212091.707
        45.200          26.700
 123980573.710 7  96608274.97044  23592727.250                    23592727.820
        44.200          27.800
                  92196857.868 6  22144047.258                    22144048.781
                        39.400
                  84981919.414 6  20497362.578                    20497366.281
                        38.100
                  81401098.712 5  19585423.305                    19585426.434
                        35.800
                                  23222894.984

                  84278285.989 5  20256349.688                    20256353.621
                        35.900
                  88073383.224 4  21175929.352                    21175930.477
                        28.800
                  97581884.324 5  23503339.617                    23503341.578
                        32.200
 126158006.076 6  98304970.71343  24007071.492                    24007076.918
        41.400          22.900
 113124370.856 8  88148869.95145  21526851.633                    21526854.313
        48.800          33.300
 122544301.020 7  95489146.40644  23319421.633                    23319427.457
        43.300          25.100
 116205746.811 8  90549942.09145  22113219.031                    22113221.828
        50.900          35.100
 116692302.944 8  90929110.62345  22205813.281                    22205818.848
        48.400          34.300
 112727053.073 7  87839267.07445  21451244.805                    21451245.465
        47.200          35.200
 114571865.782 8  89276800.52345  21802301.227                    21802306.707
        48.600          35.200
 129054067.593 6 100561682.09943  24558182.211                    24558188.102
        41.900          23.800
 18  3 11 14 22 44.0000000  0 19R05R06G14G22R07R14R15R16R23R24R22G03
                                G12G01G17G32G19G24G25
                  96444100.438 3  23196680.156                    23196682.605
                        22.500
                  85709504.926 5  20651046.336                    20651046.152
                        34.400
 121978335.367 7  95048132.83044  23211721.641                    23211724.145
        45.500          25.800
 123979552.028 7  96607478.85144  23592532.664                    23592533.547
        44.700          27.900
                  92194598.021 6  22143505.156                    22143506.266
                        39.800
                  84984396.896 6  20497961.711                    20497963.945
                        38.500
                  81400797.204 5  19585350.508                    19585353.793
                        35.200
                                  23222137.859

                  84279226.180 6  20256575.305                    20256578.965
                        36.000
                  88071210.440 4  21175408.453                    21175408.313
                        29.100
                  97585585.612 5  23504230.094                    23504232.707
                        30.800
 126155639.636 7  98303126.72744  24006620.797                    24006626.762
        42.300          24.100
 113122324.210 8  88147275.15345  21526462.070                    21526464.848
        49.100          32.800
 122547044.303 7  95491284.04344  23319944.172                    23319949.586
        43.700          27.000
 116207078.581 8  90550979.84245  22113472.453                    22113475.516
        50.700          35.200
 116692131.464 8  90928976.99445  22205780.375                    22205786.141
        48.100          33.800
 112726908.758 7  87839154.61245  21451217.648                    21451218.387
        47.500          35.000
 114574428.279 8  89278797.26845  21802788.992                    21802794.250
        48.500          35.500
 129050469.550 6 100558878.43743  24557497.391                    24557503.715
        41.700          23.300
 18  3 11 14 22 45.0000000  0 19R05R06G14G22R07R14R15R16R23R24R22G03
                                G12G01G17G32G19G24G25
                  96447745.706 4  23197556.930                    23197559.082
                        24.600
                  85710343.928 5  20651248.648                    20651248.512
                        34.600
 121976404.158 7  95046627.98044  23211353.398                    23211356.672
        45.500          26.500
 123978530.996 7  96606683.23544  23592338.742                    23592339.438
        44.600          27.900
                  92192338.728 6  22142962.328                    22142964.012
                        40.000
                  84986874.945 6  20498559.477                    20498561.523
                        38.500
                  81400496.428 5  19585278.391                    19585281.063
                        35.800
                                  23221380.875

                  84280167.182 5  20256801.258                    20256805.867
                        35.400
                  88069038.244 5  21174884.820                    21174886.102
                        30.100
                  97589287.184 4  23505122.266                    23505124.289
                        29.300
 126153273.724 6  98301283.14144  24006170.492                    24006176.785
        41.600          24.700
 113120278.201 8  88145680.85945  21526072.523                    21526075.305
        49.300          33.400
 122549788.259 7  95493422.19944  23320466.180                    23320471.719
        43.900          26.400
 116208411.045 8  90552018.13545  22113726.086                    22113729.250
        51.200          35.500
 116691960.751 8  90928843.96645  22205747.703                    22205753.566
        48.000          34.300
 112726765.286 8  87839042.80645  21451190.039                    21451191.063
        48.000          35.100
 114576991.387 8  89280794.48945  21803276.617                    21803281.762
        49.100          35.200
 129046871.757 6 100556074.95544  24556813.258                    24556818.809
        41.700          24.700
 18  3 11 14 22 46.0000000  0 19R05R06G14G22R07R14R15R16R23R24R22G03
                                G12G01G17G32G19G24G25
                  96451391.155 3  23198434.336                    23198436.340
                        23.200
                  85711183.631 5  20651450.844                    20651450.938
                        34.600
 121974473.424 7  95045123.50644  23210986.039                    23210989.129
        45.800          26.400
 123977510.552 7  96605888.08244  23592144.180                    23592145.227
        45.000          26.900
                  92190079.866 6  22142420.617                    22142421.895
                        40.100
                  84989353.463 6  20499156.883                    20499159.160
                        38.300
                  81400196.290 5  19585205.969                    19585209.301
                        35.700
                                  23220623.492

                  84281108.913 5  20257027.977                    20257032.281
                        35.800
                  88066866.594 4  21174363.305                    21174363.273
                        28.100
                  97592988.982 4  23506014.141                    23506014.891
                        26.100
 126150908.236 6  98299439.89644  24005719.617                    24005726.410
        40.900          24.800
 113118232.746 8  88144086.99945  21525683.180                    21525686.152
        49.100          33.800
 122552532.757 7  95495560.77244  23320988.242                    23320994.402
        44.100          26.100
 116209744.114 8  90553056.89945  22113979.383                    22113982.695
        51.000          34.900
 116691790.730 7  90928711.47745  22205715.172                    22205721.273
        47.600          33.600
 112726622.573 8  87838931.59545  21451162.945                    21451164.070
        48.500          35.000
 114579555.030 8  89282792.12845  21803764.984                    21803769.910
        49.800          35.300
 129043274.113 6 100553271.58844  24556128.359                    24556134.129
        41.600          25.000
 18  3 11 14 22 47.0000000  0 19R05R06G14G22R07R14R15R16R23R24R22G03
                                G12G01G17G32G19G24G25
                  96455036.908 3  23199311.516                    23199313.051
                        22.500
                  85712024.094 5  20651653.250                    20651653.262
                        35.200
 121972543.186 7  95043619.41844  23210618.922                    23210621.781
        45.600          25.400
 123976490.677 7  96605093.38744  23591949.930                    23591950.828
        44.700          27.200
                  92187821.489 6  22141877.711                    22141879.266
                        39.800
                  84991832.473 6  20499755.859                    20499757.031
                        38.200
                  81399896.822 5  19585134.609                    19585137.531
                        35.300
                                  23219866.469

                  84282051.405 5  20257253.984                    20257258.914
                        35.400
                  88064695.492 4  21173841.250                    21173841.383
                        28.600
                  97596691.031 4  23506906.063                    23506906.672
                        25.900
 126148543.224 6  98297597.01544  24005269.977                    24005276.063
        40.300          25.200
 113116187.864 8  88142493.59345  21525293.750                    21525297.383
        49.000          33.500
 122555277.855 7  95497699.81444  23321510.258                    23321516.375
        44.100          26.400
 116211077.802 8  90554096.14745  22114233.195                    22114236.590
        50.900          35.000
 116691621.412 7  90928579.54445  22205682.914                    22205689.094
        47.200          33.400
 112726480.652 8  87838820.99745  21451135.711                    21451137.109
        48.000          35.600
 114582119.234 8  89284790.20945  21804252.891                    21804258.035
        50.200          34.700
 129039676.658 7 100550468.37343  24555443.547                    24555449.543
        42.000          22.800
 18  3 11 14 22 48.0000000  0 19R05R06G14G22R07R14R15R16R23R24R22G03
                                G12G01G17G32G19G24G25
                  96458682.909 3  23200187.992                    23200190.238
                        22.700
                  85712865.309 5  20651856.219                    20651855.469
                        35.300
 121970613.440 7  95042115.72044  23210251.594                    23210254.656
        44.900          27.300
 123975471.402 7  96604299.15044  23591756.273                    23591757.355
        44.900          27.900
                  92185563.589 6  22141335.078                    22141337.625
                        39.900
                  84994312.041 6  20500353.047                    20500354.465
                        38.300
                  81399598.035 5  19585061.844                    19585065.020
                        35.200
                  96469572.28814  23219110.344                    23219108.352
                        28.200
                  84282994.613 5  20257480.922                    20257485.266
                        35.900
                  88062524.907 4  21173318.727                    21173319.320
                        28.700
                  97600393.333 4  23507796.922                    23507797.379
                        25.300
 126146178.663 6  98295754.49543  24004820.031                    24004826.246
        39.900          22.900
 113114143.556 8  88140900.63445  21524905.117                    21524908.359
        48.700          33.300
 122558023.515 7  95499839.29144  23322032.273                    23322038.949
        43.100          25.800
 116212412.142 8  90555135.90045  22114487.031                    22114490.160
        50.900          35.300
 116691452.800 7  90928448.15645  22205650.781                    22205656.930
        46.500          33.500
 112726339.504 7  87838711.00045  21451108.922                    21451109.738
        47.900          34.200
 114584684.003 8  89286788.73445  21804741.156                    21804745.926
        50.300          35.200
 129036079.387 7 100547665.31243  24554759.102                    24554765.340
        42.200          22.900
 18  3 11 14 22 49.0000000  0 19R05R06G14G22R07R14R15R16R23R24R22G03
                                G12G01G17G32G19G24G25
                  96462329.183 3  23201065.477                    23201067.215
                        22.700
                  85713707.232 5  20652058.813                    20652058.500
                        35.300
 121968684.190 7  95040612.40044  23209884.063                    23209887.633
        44.200          26.800
 123974452.717 7  96603505.37144  23591562.516                    23591563.465
        44.600          27.200
                  92183306.199 6  22140792.578                    22140795.410
                        39.500
                  84996792.116 6  20500951.008                    20500953.500
                        38.300
                  81399299.904 5  19584990.703                    19584994.000
                        35.300
                  96466426.66914  23218353.438                    23218352.457
                        28.600
                  84283938.551 5  20257707.844                    20257712.438
                        35.900
                  88060354.880 4  21172797.727                    21172798.191
                        29.300
                  97604095.858 4  23508688.688                    23508688.566
                        26.100
 126143814.596 6  98293912.36743  24004369.805                    24004376.371
        40.300          23.000
 113112099.797 8  88139308.10645  21524516.367                    21524519.539
        48.400          33.200
 122560769.762 7  95501979.22544  23322554.133                    23322561.426
        42.200          26.300
 116213747.064 8  90556176.11045  22114741.125                    22114744.578
        51.000          34.800
 116691284.864 7  90928317.29745  22205618.867                    22205625.277
        46.400          33.600
 112726199.107 7  87838601.59345  21451082.320                    21451083.480
        47.500          34.800
 114587249.360 8  89288787.71445  21805228.828                    21805233.785
        50.000          34.900
 129032482.277 7 100544862.37543  24554074.539                    24554080.660
        42.200          22.800
 18  3 11 14 22 50.0000000  0 19R05R06G14G22R07R14R15R16R23R24R22G03
                                G12G01G17G32G19G24G25
                  96465975.731 4  23201942.281                    23201944.223
                        24.600
                  85714549.908 5  20652262.094                    20652261.039
                        35.000
 121966755.416 7  95039109.45744  23209516.805                    23209520.516
        43.900          28.000
 123973434.608 7  96602712.02844  23591368.625                    23591369.723
        45.000          27.700
                  92181049.284 6  22140249.594                    22140252.160
                        39.700
                  84999272.646 6  20501549.938                    20501551.535
                        38.200
                  81399002.440 5  19584918.930                    19584921.762
                        35.500
                  96463281.748 5  23217596.531                    23217596.035
                        30.900
                  84284883.195 5  20257934.852                    20257939.379
                        35.600
                  88058185.353 4  21172275.164                    21172275.875
                        28.500
                  97607798.592 4  23509580.836                    23509580.066
                        28.900
 126141450.967 6  98292070.60043  24003920.719                    24003926.613
        40.900          22.900
 113110056.601 8  88137716.01345  21524127.664                    21524130.430
        48.800          33.500
 122563516.577 7  95504119.60744  23323077.078                    23323084.379
        42.200          24.500
 116215082.622 8  90557216.81245  22114995.508                    22114998.496
        50.900          34.500
 116691117.634 7  90928186.99245  22205587.281                    22205593.023
        46.600          34.100
 112726059.480 7  87838492.78845  21451055.742                    21451056.559
        47.500          34.800
 114589815.254 8  89290787.11045  21805717.008                    21805722.395
        50.200          35.400
 129028885.337 7 100542059.57443  24553389.922                    24553395.910
        42.000          22.800
 18  3 11 14 22 51.0000000  0 18R05R06G14G22R07R14R15R23R24R22G03G12
                                G01G17G32G19G24G25
                  96469622.504 3  23202819.625                    23202820.582
                        23.900
                  85715393.306 5  20652464.742                    20652464.914
                        35.200
 121964827.159 7  95037606.92744  23209150.156                    23209154.125
        43.900          27.200
 123972417.081 7  96601919.14444  23591174.680                    23591175.664
        45.100          27.900
                  92178792.872 6  22139709.180                    22139710.723
                        39.300
                  85001753.675 6  20502148.367                    20502149.809
                        38.100
                  81398705.635 5  19584847.555                    19584851.344
                        35.000
                  84285828.556 5  20258161.445                    20258165.902
                        35.800
                  88056016.391 4  21171753.820                    21171755.004
                        28.800
                  97611501.522 4  23510471.727                    23510471.750
                        29.700
 126139087.818 6  98290229.19843  24003471.805                    24003476.602
        41.200          23.400
 113108013.989 8  88136124.37845  21523739.570                    21523741.660
        49.300          33.500
 122566263.970 6  95506260.42744  23323599.742                    23323607.094
        40.900          25.500
 116216418.781 8  90558257.98045  22115249.375                    22115252.645
        51.100          35.000
 116690951.078 7  90928057.21345  22205555.703                    22205561.605
        46.900          33.700
 112725920.636 7  87838384.58945  21451029.492                    21451030.266
        47.800          35.100
 114592381.685 8  89292786.92645  21806205.383                    21806210.867
        50.300          35.200
 129025288.572 7 100539256.90743  24552705.547                    24552711.352
        42.000          22.900
 18  3 11 14 22 52.0000000  0 18R05R06G14G22R07R14R15R23R24R22G03G12
                                G01G17G32G19G24G25
                  96473269.561 3  23203697.141                    23203698.641
                        21.600
                  85716237.472 5  20652668.203                    20652668.344
                        34.700
 121962899.366 7  95036104.75144  23208783.313                    23208787.203
        43.500          26.400
 123971400.142 7  96601126.72944  23590980.844                    23590982.273
        44.800          27.800
                  92176536.983 6  22139166.969                    22139168.504
                        39.600
                  85004235.210 6  20502746.258                    20502748.199
                        37.900
                  81398409.515 5  19584776.438                    19584779.871
                        34.700
                  84286774.684 5  20258389.789                    20258394.285
                        35.700
                  88053847.979 4  21171232.977                    21171233.711
                        29.500
                  97615204.651 5  23511363.453                    23511363.781
                        31.400
 126136725.179 6  98288388.16543  24003022.336                    24003027.059
        41.200          23.500
 113105971.961 8  88134533.18645  21523350.523                    21523352.949
        49.000          33.700
 122569011.934 6  95508401.68644  23324122.883                    23324130.066
        41.100          25.300
 116217755.597 8  90559299.66345  22115504.172                    22115507.227
        51.100          35.200
 116690785.266 7  90927928.02045  22205524.297                    22205529.840
        47.200          33.700
 112725782.588 7  87838277.01545  21451003.242                    21451004.332
        47.300          35.200
 114594948.689 8  89294787.18845  21806693.734                    21806699.141
        50.100          35.500
 129021692.009 6 100536454.38543  24552020.898                    24552027.652
        41.700          22.200
 18  3 11 14 22 53.0000000  0 18R05R06G14G22R07R14R15R23R24R22G03G12
                                G01G17G32G19G24G25
                  96476916.849 3  23204572.430                    23204575.496
                        21.900
                  85717082.353 5  20652871.938                    20652871.703
                        35.000
 121960972.071 7  95034602.97544  23208416.328                    23208420.531
        42.900          26.800
 123970383.776 7  96600334.75744  23590787.469                    23590788.781
        44.500          27.900
                  92174281.548 6  22138625.688                    22138626.215
                        39.800
                  85006717.207 6  20503345.516                    20503347.602
                        37.900
                  81398114.034 5  19584705.148                    19584708.828
                        34.900
                  84287721.527 5  20258616.719                    20258621.105
                        35.700
                  88051680.046 4  21170710.719                    21170711.828
                        28.200
                  97618908.008 5  23512255.758                    23512256.543
                        33.100
 126134362.955 6  98286547.44644  24002572.352                    24002577.488
        41.400          24.000
 113103930.482 8  88132942.41645  21522962.227                    21522964.824
        49.200          33.700
 122571760.470 6  95510543.38744  23324646.102                    23324652.957
        41.200          25.400
 116219093.002 8  90560341.80545  22115758.242                    22115761.949
        51.100          35.200
 116690620.125 7  90927799.34545  22205493.023                    22205497.977
        47.400          33.500
 112725645.276 7  87838170.01345  21450976.961                    21450978.074
        47.200          35.700
 114597516.268 8  89296787.88945  21807182.703                    21807187.746
        50.100          35.400
 129018095.579 7 100533651.97843  24551336.555                    24551343.289
        42.100          22.800
 18  3 11 14 22 54.0000000  0 18R05R06G14G22R07R14R15R23R24R22G03G12
                                G01G17G32G19G24G25
                  96480564.403 3  23205449.906                    23205452.945
                        23.600
                  85717927.994 5  20653076.234                    20653075.527
                        35.000
 121959045.316 7  95033101.61444  23208049.828                    23208053.859
        42.400          27.400
 123969368.038 7  96599543.28044  23590594.594                    23590595.656
        44.000          28.700
                  92172026.585 6  22138083.734                    22138084.793
                        39.700
                  85009199.756 6  20503943.500                    20503945.789
                        38.100
                  81397819.232 5  19584634.508                    19584637.480
                        34.400
                  84288669.108 6  20258844.609                    20258848.879
                        36.200
                  88049512.687 4  21170191.383                    21170190.805
                        29.800
                  97622611.561 5  23513147.055                    23513148.805
                        34.600
 126132001.245 6  98284707.13244  24002122.867                    24002128.215
        41.200          24.800
 113101889.580 8  88131352.10245  21522573.648                    21522576.238
        48.900          33.400
 122574509.580 6  95512685.55244  23325169.523                    23325176.289
        41.500          26.500
 116220431.039 8  90561384.44145  22116013.078                    22116016.188
        51.300          35.700
 116690455.715 7  90927671.23645  22205462.102                    22205466.777
        47.900          33.600
 112725508.756 7  87838063.63045  21450950.688                    21450951.902
        47.300          35.600
 114600084.396 8  89298789.02845  21807671.383                    21807676.773
        50.000          35.000
 129014499.336 7 100530849.70843  24550652.453                    24550658.727
        42.700          22.600
 18  3 11 14 22 55.0000000  0 18R05R06G14G22R07R14R15R23R24R22G03G12
                                G01G17G32G19G24G25
                  96484212.241 3  23206328.008                    23206330.395
                        22.300
                  85718774.395 5  20653279.750                    20653279.488
                        35.200
 121957119.042 6  95031600.63044  23207683.711                    23207687.418
        41.800          27.100
 123968352.857 7  96598752.23144  23590401.039                    23590402.246
        43.300          28.000
                  92169772.111 6  22137542.492                    22137543.316
                        39.600
                  85011682.818 6  20504542.461                    20504545.211
                        38.500
                  81397525.099 5  19584563.117                    19584566.922
                        34.700
                  84289617.441 6  20259072.445                    20259076.563
                        36.100
                  88047345.840 4  21169669.289                    21169669.563
                        29.600
                  97626315.371 5  23514039.648                    23514041.176
                        35.600
 126129639.990 6  98282867.18343  24001673.164                    24001679.328
        40.500          23.500
 113099849.271 8  88129762.24245  21522185.172                    21522187.875
        49.000          33.300
 122577259.268 7  95514828.16144  23325692.820                    23325699.219
        42.200          25.800
 116221769.719 8  90562427.57345  22116267.594                    22116271.121
        51.200          35.100
 116690292.007 8  90927543.66445  22205431.156                    22205435.875
        48.400          34.400
 112725373.032 7  87837957.86645  21450924.914                    21450926.137
        47.300          35.200
 114602653.092 8  89300790.61745  21808159.938                    21808165.324
        50.000          35.100
 129010903.339 7 100528047.63043  24549968.023                    24549974.762
        43.000          22.500
 18  3 11 14 22 56.0000000  0 18R05R06G14G22R07R14R15R23R24R22G03G12
                                G01G17G32G19G24G25
                  96487860.415 4  23207204.359                    23207207.777
                        24.400
                  85719621.511 5  20653484.281                    20653483.234
                        34.700
 121955193.245 6  95030100.02044  23207317.273                    23207320.750
        41.400          27.000
 123967338.272 7  96597961.64244  23590208.398                    23590209.324
        43.700          27.500
                  92167518.129 6  22137001.375                    22137002.078
                        39.600
                  85014166.373 6  20505141.594                    20505143.855
                        37.900
                  81397231.623 5  19584492.625                    19584496.027
                        34.900
                  84290566.505 6  20259300.664                    20259304.832
                        36.000
                  88045179.539 4  21169148.406                    21169149.262
                        28.800
                  97630019.412 6  23514931.750                    23514933.703
                        36.200
 126127279.197 6  98281027.60044  24001223.383                    24001229.688
        39.200          26.100
 113097809.531 8  88128172.83745  21521797.109                    21521800.156
        49.100          33.700
 122580009.518 7  95516971.22044  23326216.289                    23326222.281
        42.300          26.700
 116223109.021 8  90563471.19145  22116522.680                    22116525.758
        51.100          35.000
 116690129.013 8  90927416.64845  22205400.047                    22205404.898
        48.700          34.400
 112725238.055 7  87837852.68545  21450899.266                    21450900.332
        47.600          34.900
 114605222.354 8  89302792.64545  21808648.414                    21808654.094
        49.300          35.400
 129007307.474 7 100525245.65843  24549284.242                    24549290.516
        42.800          22.300
 18  3 11 14 22 57.0000000  0 19R05R06G14G22R07R14R15R16R23R24R22G03
                                G12G01G17G32G19G24G25
                  96491508.752 3  23208082.547                    23208085.434
                        23.000
                  85720469.380 5  20653688.234                    20653688.316
                        35.000
 121953267.970 6  95028599.81444  23206950.680                    23206954.707
        41.900          26.500
 123966324.299 7  96597171.53244  23590015.398                    23590016.465
        43.800          27.900
                  92165264.652 6  22136458.930                    22136461.246
                        39.500
                  85016650.435 6  20505741.672                    20505742.113
                        37.700
                  81396938.796 5  19584422.156                    19584425.609
                        34.400
                                  23212294.719

                  84291516.313 5  20259529.289                    20259533.137
                        35.600
                  88043013.780 4  21168628.328                    21168628.707
                        27.700
                  97633723.666 6  23515823.750                    23515826.449
                        36.700
 126124918.896 6  98279188.42144  24000774.055                    24000780.906
        38.800          24.300
 113095770.348 8  88126583.86445  21521408.852                    21521411.844
        48.500          33.300
 122582760.383 7  95519114.75844  23326740.000                    23326746.156
        42.000          26.000
 116224448.951 8  90564515.30545  22116777.547                    22116780.871
        51.200          35.600
 116689966.724 8  90927290.18545  22205368.742                    22205374.176
        48.800          34.000
 112725103.880 7  87837748.12745  21450873.789                    21450874.832
        47.400          35.100
 114607792.145 8  89304795.08245  21809137.398                    21809143.457
        48.800          35.100
 129003711.814 7 100522443.84243  24548600.172                    24548606.262
        43.200          22.500
 18  3 11 14 22 58.0000000  0 19R05R06G14G22R07R14R15R16R23R24R22G03
                                G12G01G17G32G19G24G25
                  96495157.388 3  23208959.891                    23208963.469
                        22.500
                  85721317.986 5  20653892.352                    20653893.082
                        34.800
 121951343.216 6  95027100.02744  23206584.695                    23206588.621
        41.500          26.100
 123965310.896 7  96596381.86644  23589822.609                    23589823.383
        44.500          28.100
                  92163011.671 6  22135918.258                    22135920.129
                        39.600
                  85019135.010 6  20506339.570                    20506342.023
                        37.900
                  81396646.631 5  19584351.539                    19584355.281
                        35.000
                                  23211539.086

                  84292466.866 6  20259757.414                    20259761.441
                        36.000
                  88040848.536 4  21168106.789                    21168107.711
                        29.100
                  97637428.162 6  23516716.625                    23516718.902
                        37.000
 126122559.041 6  98277349.60244  24000324.891                    24000331.656
        39.100          24.100
 113093731.739 8  88124995.33845  21521021.023                    21521024.137
        48.400          33.400
 122585511.800 6  95521258.73644  23327263.297                    23327269.223
        41.800          24.800
 116225789.501 8  90565559.89645  22117032.758                    22117035.793
        50.800          35.800
 116689805.140 8  90927164.26745  22205337.938                    22205343.367
        48.500          34.200
 112724970.468 7  87837644.15945  21450848.602                    21450849.262
        47.700          34.600
 114610362.509 8  89306797.96745  21809626.078                    21809632.781
        48.600          35.400
 129000116.347 7 100519642.17643  24547915.688                    24547921.973
        42.700          22.800
 18  3 11 14 22 59.0000000  0 19R05R06G14G22R07R14R15R16R23R24R22G03
                                G12G01G17G32G19G24G25
                  96498806.231 4  23209837.602                    23209840.563
                        25.100
                  85722167.315 5  20654097.578                    20654097.543
                        34.800
 121949418.931 6  95025600.59244  23206218.758                    23206222.168
        41.800          26.800
 123964298.055 7  96595592.63744  23589629.477                    23589630.852
        44.900          26.800
                  92160759.156 6  22135377.313                    22135378.895
                        39.800
                  85021620.046 6  20506938.625                    20506941.832
                        37.700
                  81396355.109 5  19584281.680                    19584284.930
                        34.700
                                  23210781.711

                  84293418.136 5  20259985.563                    20259990.754
                        35.700
                  88038683.858 4  21167587.742                    21167587.582
                        28.900
                  97641132.870 6  23517608.906                    23517611.797
                        37.300
 126120199.641 6  98275511.12844  23999876.992                    23999882.840
        39.800          24.100
 113091693.682 7  88123407.24345  21520632.977                    21520635.852
        47.900          33.100
 122588263.730 6  95523403.10544  23327787.125                    23327793.422
        41.700          27.000
 116227130.645 8  90566604.94845  22117287.875                    22117290.977
        51.100          34.900
 116689644.246 8  90927038.88545  22205307.438                    22205312.742
        48.800          34.700
 112724837.812 7  87837540.78445  21450823.492                    21450824.355
        47.100          34.700
 114612933.416 8  89308801.26745  21810115.836                    21810122.027
        48.800          34.900
 128996521.002 7 100516840.61043  24547231.703                    24547237.859
        42.400          23.200
 18  3 11 14 23  0.0000000  0 19R05R06G14G22R07R14R15R16R23R24R22G03
                                G12G01G17G32G19G24G25
                  96502455.325 3  23210715.859                    23210718.125
                        23.800
                  85723017.382 5  20654302.609                    20654302.223
                        35.000
 121947495.130 7  95024101.52744  23205852.047                    23205856.426
        42.200          26.400
 123963285.824 7  96594803.87944  23589437.219                    23589437.930
        44.700          27.700
                  92158507.140 6  22134835.867                    22134838.617
                        39.600
                  85024105.583 6  20507539.289                    20507541.031
                        38.100
                  81396064.256 5  19584211.781                    19584215.484
                        35.300
                                  23210026.039

                  84294370.127 5  20260215.023                    20260219.387
                        35.600
                  88036519.687 4  21167066.313                    21167067.313
                        28.800
                  97644837.806 6  23518501.234                    23518503.848
                        38.100
 126117840.743 6  98273673.04144  23999428.500                    23999433.930
        40.700          24.200
 113089656.212 8  88121819.60445  21520245.391                    21520248.305
        48.200          32.800
 122591016.313 6  95525547.97544  23328310.211                    23328317.105
        40.900          25.300
 116228472.424 8  90567650.49445  22117543.227                    22117546.684
        51.100          34.900
 116689484.044 8  90926914.04545  22205276.484                    22205282.668
        48.700          34.300
 112724705.925 7  87837438.00245  21450798.289                    21450799.035
        47.500          34.700
 114615504.876 8  89310804.99345  21810605.047                    21810610.945
        48.800          34.900
 128992925.850 7 100514039.18344  24546547.156                    24546553.293
        42.700          24.000
 18  3 11 14 23  1.0000000  0 19R05R06G14G22R07R14R15R16R23R24R22G03
                                G12G01G17G32G19G24G25
                  96506104.738 3  23211594.016                    23211596.117
                        22.300
                  85723868.230 5  20654507.250                    20654507.379
                        34.900
 121945571.899 7  95022602.90144  23205486.688                    23205490.922
        42.000          27.000
 123962274.209 7  96594015.60344  23589244.516                    23589245.176
        44.900          27.500
                  92156255.654 6  22134295.836                    22134297.387
                        38.900
                  85026591.655 6  20508139.008                    20508140.703
                        37.900
                  81395774.102 5  19584142.055                    19584145.270
                        34.700
                                  23209268.836

                  84295322.894 6  20260443.609                    20260448.332
                        36.100
                  88034356.128 4  21166546.414                    21166546.855
                        28.500
                  97648542.998 6  23519394.563                    23519396.840
                        38.200
 126115482.353 6  98271835.32444  23998978.914                    23998985.055
        41.400          24.300
 113087619.324 8  88120232.42745  21519858.039                    21519860.980
        48.600          33.300
 122593769.479 6  95527693.28644  23328834.773                    23328841.023
        41.200          26.200
 116229814.856 8  90568696.55145  22117798.523                    22117801.797
        51.100          35.000
 116689324.590 8  90926789.78845  22205245.977                    22205252.148
        48.000          34.400
 112724574.873 8  87837335.88045  21450773.258                    21450774.238
        48.000          34.900
 114618076.947 8  89312809.19645  21811095.141                    21811100.500
        48.900          34.900
 128989330.940 7 100511237.95943  24545863.180                    24545869.949
        42.600          22.900
 18  3 11 14 23  2.0000000  0 19R05R06G14G22R07R14R15R16R23R24R22G03
                                G12G01G17G32G19G24G25
                  96509754.433 3  23212471.367                    23212473.727
                        22.800
                  85724719.787 5  20654711.789                    20654712.773
                        34.600
 121943649.135 7  95021104.64644  23205120.508                    23205124.195
        42.200          26.900
 123961263.183 7  96593227.79244  23589052.289                    23589053.152
        44.900          27.600
                  92154004.668 6  22133754.773                    22133756.191
                        38.800
                  85029078.242 6  20508737.953                    20508740.203
                        38.000
                  81395484.582 5  19584072.516                    19584076.105
                        34.900
                  96425556.62915  23208512.602                    23208514.852
                        33.400
                  84296276.397 5  20260673.281                    20260676.977
                        35.900
                  88032193.067 4  21166025.891                    21166027.199
                        27.800
                  97652248.406 6  23520287.016                    23520289.785
                        38.600
 126113124.447 6  98269997.97944  23998530.359                    23998536.305
        41.800          25.500
 113085583.011 8  88118645.69645  21519470.773                    21519473.336
        48.800          32.700
 122596523.217 6  95529839.04544  23329359.008                    23329364.789
        41.500          27.300
 116231157.893 8  90569743.08445  22118054.000                    22118057.605
        50.300          35.000
 116689165.814 7  90926666.06145  22205215.594                    22205221.629
        47.800          34.400
 112724444.598 8  87837234.35645  21450748.117                    21450749.441
        48.100          34.800
 114620649.576 8  89314813.84045  21811584.969                    21811589.773
        49.100          35.100
 128985736.195 7 100508436.86043  24545179.141                    24545185.617
        42.900          23.400
 18  3 11 14 23  3.0000000  0 19R05R06G14G22R07R14R15R16R23R24R22G03
                                G12G01G17G32G19G24G25
                  96513404.324 3  23213349.227                    23213351.684
                        22.800
                  85725572.097 5  20654917.313                    20654917.902
                        34.700
 121941726.891 7  95019606.79544  23204754.844                    23204758.723
        42.200          27.300
 123960252.748 7  96592440.45044  23588859.961                    23588860.641
        44.600          27.900
                  92151754.180 6  22133215.047                    22133215.832
                        38.800
                  85031565.336 6  20509339.422                    20509340.629
                        38.000
                  81395195.756 5  19584002.922                    19584006.539
                        34.900
                  96422413.32115  23207757.438                    23207758.238
                        33.700
                  84297230.646 5  20260902.414                    20260906.570
                        35.700
                  88030030.550 4  21165505.195                    21165506.809
                        27.500
                  97655954.054 6  23521180.523                    23521182.055
                        38.700
 126110766.995 6  98268160.99244  23998081.867                    23998087.516
        40.500          25.700
 113083547.292 8  88117059.41845  21519083.422                    21519086.059
        48.800          32.900
 122599277.554 6  95531985.26644  23329883.906                    23329889.270
        41.800          26.900
 116232501.593 8  90570790.12545  22118309.758                    22118313.270
        50.800          34.600
 116689007.751 7  90926542.89645  22205185.500                    22205191.777
        47.000          34.400
 112724315.102 8  87837133.44245  21450723.852                    21450724.402
        48.000          34.400
 114623222.795 8  89316818.93745  21812074.961                    21812079.977
        49.200          35.100
 128982141.634 7 100505635.89743  24544494.797                    24544501.535
        42.800          23.200
 18  3 11 14 23  4.0000000  0 19R05R06G14G22R07R14R15R16R23R24R22G03
                                G12G01G17G32G19G24G25
                  96517054.545 4  23214226.586                    23214229.801
                        25.000
                  85726425.158 5  20655123.094                    20655123.301
                        34.300
 121939805.151 7  95018109.33944  23204389.664                    23204392.961
        42.600          27.100
 123959242.902 7  96591653.54944  23588667.930                    23588668.320
        44.700          27.300
                  92149504.154 6  22132675.328                    22132675.516
                        39.000
                  85034052.951 6  20509937.828                    20509939.605
                        38.100
                  81394907.591 5  19583933.617                    19583936.668
                        35.200
                  96419270.683 5  23207000.430                    23207002.543
                        33.900
                  84298185.641 5  20261132.336                    20261136.523
                        35.600
                  88027868.600 4  21164986.969                    21164986.789
                        28.400
                  97659659.936 6  23522073.445                    23522075.301
                        39.100
 126108410.031 6  98266324.38444  23997633.141                    23997639.539
        39.500          27.100
 113081512.155 8  88115473.59845  21518695.875                    21518698.742
        48.900          33.300
 122602032.442 7  95534131.92244  23330408.625                    23330413.344
        42.800          27.600
 116233845.910 8  90571837.64945  22118565.633                    22118568.777
        50.800          35.500
 116688850.403 7  90926420.29345  22205155.422                    22205161.945
        46.400          34.000
 112724186.382 7  87837033.14045  21450699.219                    21450700.605
        47.600          34.600
 114625796.563 8  89318824.47345  21812564.602                    21812568.984
        50.000          35.300
 128978547.240 7 100502835.07843  24543810.961                    24543817.629
        42.300          23.300
 18  3 11 14 23  5.0000000  0 19R05R06G14G22R07R14R15R16R23R24R22G03
                                G12G01G17G32G19G24G25
                  96520705.006 4  23215105.516                    23215107.191
                        24.200
                  85727279.002 5  20655327.961                    20655329.008
                        34.700
 121937883.962 7  95016612.29044  23204023.445                    23204026.945
        42.900          25.600
 123958233.716 7  96590867.17244  23588476.109                    23588476.398
        44.700          26.900
                  92147254.641 6  22132134.578                    22132135.434
                        39.600
                  85036541.073 6  20510537.445                    20510540.617
                        38.300
                  81394620.122 5  19583864.555                    19583867.996
                        35.300
                  96416128.285 5  23206243.008                    23206246.094
                        33.700
                  84299141.396 5  20261362.055                    20261365.852
                        35.800
                  88025707.199 4  21164466.094                    21164466.930
                        27.900
                  97663366.078 6  23522965.250                    23522967.676
                        39.600
 126106053.570 6  98264488.17244  23997184.180                    23997190.914
        38.600          24.300
 113079477.645 8  88113888.26145  21518308.711                    21518311.664
        49.100          33.700
 122604787.964 7  95536279.07044  23330933.352                    23330937.813
        43.400          27.300
 116235190.893 8  90572885.69745  22118821.750                    22118824.961
        50.900          35.500
 116688693.802 7  90926298.27045  22205125.711                    22205131.566
        46.000          33.600
 112724058.488 7  87836933.47945  21450674.945                    21450676.344
        47.700          34.500
 114628370.943 8  89320830.48645  21813054.531                    21813059.258
        50.300          35.400
 128974953.108 7 100500034.45644  24543127.148                    24543133.469
        42.200          24.100
 18  3 11 14 23  6.0000000  0 19R05R06G14G22R07R14R15R16R23R24R22G03
                                G12G01G17G32G19G24G25
                  96524355.747 4  23215983.555                    23215985.902
                        25.000
                  85728133.584 5  20655534.094                    20655534.961
                        34.200
 121935963.271 7  95015115.64644  23203658.313                    23203661.172
        43.300          27.300
 123957225.077 7  96590081.22044  23588283.367                    23588284.098
        44.500          27.500
                  92145005.586 6  22131594.594                    22131595.305
                        39.600
                  85039029.671 6  20511139.359                    20511140.641
                        37.900
                  81394333.334 5  19583795.375                    19583798.586
                        35.300
                  96412986.025 5  23205486.688                    23205489.680
                        33.300
                  84300097.886 5  20261591.344                    20261595.516
                        35.500
                  88023546.337 4  21163946.555                    21163947.781
                        29.000
                  97667072.437 6  23523858.023                    23523860.203
                        39.800
 126103697.542 6  98262652.32143  23996736.039                    23996743.059
        37.900          23.900
 113077443.693 8  88112303.36345  21517921.508                    21517924.465
        49.400          34.000
 122607544.033 7  95538426.66244  23331458.016                    23331462.551
        44.300          26.500
 116236536.500 8  90573934.22845  22119077.883                    22119080.957
        51.100          35.200
 116688537.878 7  90926176.78245  22205096.242                    22205102.250
        45.900          33.800
 112723931.372 7  87836834.42245  21450650.813                    21450651.973
        47.900          34.700
 114630945.833 8  89322836.89645  21813544.820                    21813549.426
        50.400          35.600
 128971359.125 7 100497233.97544  24542442.797                    24542449.555
        42.500          24.700
 18  3 11 14 23  7.0000000  0 19R05R06G14G22R07R14R15R16R23R24R22G03
                                G12G01G17G32G19G24G25
                  96528006.766 4  23216860.750                    23216863.578
                        24.800
                  85728988.926 5  20655740.789                    20655741.277
                        34.600
 121934043.073 7  95013619.38544  23203292.719                    23203295.871
        43.200          27.000
 123956217.045 7  96589295.73744  23588091.797                    23588092.574
        44.500          27.600
                  92142757.090 6  22131054.461                    22131055.496
                        39.700
                  85041518.821 6  20511738.625                    20511740.855
                        37.600
                  81394047.199 5  19583726.508                    19583729.820
                        35.500
                  96409843.940 5  23204729.766                    23204733.512
                        32.900
                  84301055.130 5  20261821.672                    20261825.824
                        35.300
                  88021386.011 4  21163427.430                    21163428.289
                        28.400
                  97670779.015 6  23524751.023                    23524752.898
                        39.800
 126101342.017 6  98260816.87243  23996287.758                    23996294.879
        38.100          23.600
 113075410.313 8  88110718.91345  21517534.898                    21517537.539
        48.800          33.600
 122610300.684 7  95540574.72344  23331981.984                    23331987.070
        44.200          27.100
 116237882.727 8  90574983.23745  22119333.805                    22119336.906
        51.300          34.800
 116688382.679 7  90926055.85145  22205066.938                    22205072.391
        45.800          33.900
 112723805.036 7  87836735.97345  21450627.039                    21450627.695
        47.500          34.700
 114633521.286 8  89324843.74445  21814034.703                    21814039.633
        50.700          35.000
 128967765.324 7 100494433.61543  24541758.984                    24541765.617
        42.600          22.600
 18  3 11 14 23  8.0000000  0 19R05R06G14G22R07R14R15R16R23R24R22G03
                                G12G01G17G32G19G24G25
                  96531658.073 4  23217740.031                    23217741.988
                        24.200
                  85729844.982 5  20655946.891                    20655947.566
                        34.900
 121932123.382 7  95012123.52144  23202927.516                    23202930.398
        42.900          25.300
 123955209.588 7  96588510.71344  23587900.211                    23587900.402
        43.500          27.000
                  92140509.060 6  22130514.391                    22130516.051
                        39.700
                  85044008.470 6  20512338.922                    20512341.973
                        37.900
                  81393761.726 5  19583657.617                    19583660.648
                        35.300
                  96406702.017 5  23203973.703                    23203977.246
                        32.900
                  84302013.098 5  20262051.859                    20262055.891
                        35.800
                  88019226.220 4  21162908.734                    21162908.867
                        27.800
                  97674485.820 6  23525644.125                    23525645.684
                        39.900
 126098986.953 6  98258981.79044  23995840.242                    23995847.008
        39.400          25.900
 113073377.493 8  88109134.89445  21517148.047                    21517150.645
        49.100          33.400
 122613057.908 7  95542723.22144  23332506.156                    23332512.227
        43.700          27.600
 116239229.577 8  90576032.73845  22119590.039                    22119593.254
        51.100          34.800
 116688228.184 7  90925935.47245  22205037.586                    22205042.953
        46.300          34.000
 112723679.466 7  87836638.12745  21450602.773                    21450603.926
        47.600          34.800
 114636097.281 8  89326851.01745  21814524.750                    21814529.832
        51.000          34.900
 128964171.730 7 100491633.42043  24541075.625                    24541081.824
        42.400          22.900
 18  3 11 14 23  9.0000000  0 19R05R06G14G22R07R14R15R16R23R24R22G03
                                G12G01G17G32G19G24G25
                  96535309.671 4  23218617.328                    23218620.430
                        24.600
                  85730701.814 5  20656153.148                    20656153.789
                        35.200
 121930204.187 7  95010628.02744  23202561.555                    23202565.211
        43.000          25.400
 123954202.781 7  96587726.18844  23587709.047                    23587709.043
        42.700          27.800
                  92138261.553 6  22129974.625                    22129976.500
                        39.900
                  85046498.626 6  20512942.016                    20512942.250
                        37.800
                  81393476.958 5  19583589.180                    19583592.406
                        35.300
                  96403560.233 5  23203218.031                    23203221.445
                        33.700
                  84302971.824 5  20262282.453                    20262286.930
                        35.800
                  88017066.996 4  21162389.391                    21162390.074
                        27.500
                  97678192.891 6  23526536.430                    23526538.754
                        40.100
 126096632.407 6  98257147.09743  23995392.797                    23995399.035
        40.300          22.900
 113071345.285 8  88107551.35445  21516761.258                    21516763.930
        48.800          34.000
 122615815.717 7  95544872.17944  23333030.359                    23333036.398
        43.600          26.500
 116240577.106 8  90577082.76645  22119846.680                    22119849.727
        51.000          35.300
 116688074.415 7  90925815.65045  22205008.703                    22205014.121
        46.500          34.000
 112723554.725 7  87836540.92445  21450578.875                    21450580.246
        47.100          34.900
 114638673.875 8  89328858.75945  21815014.516                    21815020.266
        51.100          34.900
 128960578.332 7 100488833.35943  24540391.539                    24540397.898
        42.600          22.900
 18  3 11 14 23 10.0000000  0 19R05R06G14G22R07R14R15R16R23R24R22G03
                                G12G01G17G32G19G24G25
                  96538961.539 4  23219496.648                    23219498.758
                        26.400
                  85731559.384 5  20656359.680                    20656361.090
                        35.300
 121928285.530 7  95009132.96044  23202196.688                    23202199.727
        43.300          25.300
 123953196.538 7  96586942.10344  23587517.281                    23587517.613
        42.600          27.400
                  92136014.559 6  22129434.703                    22129436.750
                        39.700
                  85048989.288 6  20513540.898                    20513542.441
                        38.100
                  81393192.840 5  19583520.688                    19583524.574
                        35.200
                  96400418.665 5  23202461.313                    23202465.012
                        33.400
                  84303931.304 6  20262512.688                    20262517.301
                        36.100
                  88014908.316 4  21161869.930                    21161870.723
                        28.400
                  97681900.176 6  23527430.156                    23527431.852
                        39.700
 126094278.371 6  98255312.79943  23994944.836                    23994951.488
        40.300          23.900
 113069313.679 8  88105968.28045  21516374.391                    21516377.426
        48.000          33.900
 122618574.138 7  95547021.61544  23333555.492                    23333561.285
        43.100          26.300
 116241925.233 8  90578133.26545  22120103.023                    22120106.117
        51.000          35.200
 116687921.347 7  90925696.37845  22204979.555                    22204985.008
        46.300          33.700
 112723430.744 7  87836444.31145  21450555.742                    21450556.668
        47.000          34.700
 114641251.057 8  89330866.95445  21815504.492                    21815510.324
        50.800          34.900
 128956985.123 7 100486033.45743  24539708.000                    24539714.352
        42.000          22.000
 18  3 11 14 23 11.0000000  0 19R05R06G14G22R07R14R15R16R23R24R22G03
                                G12G01G17G32G19G24G25
                  96542613.563 4  23220374.508                    23220376.734
                        26.200
                  85732417.653 5  20656566.227                    20656567.371
                        35.300
 121926367.318 7  95007638.24644  23201831.703                    23201834.676
        43.700          24.700
 123952190.823 7  96586158.42344  23587325.664                    23587326.117
        43.000          27.400
                  92133768.013 6  22128894.992                    22128897.070
                        39.100
                  85051480.383 6  20514141.500                    20514143.250
                        37.800
                  81392909.349 5  19583452.859                    19583456.027
                        35.200
                  96397277.200 5  23201706.141                    23201708.605
                        32.100
                  84304891.461 6  20262743.711                    20262747.348
                        36.000
                  88012750.106 4  21161351.078                    21161351.922
                        28.800
                  97685607.638 6  23528322.773                    23528324.953
                        39.800
 126091924.712 6  98253478.77344  23994496.859                    23994503.438
        41.100          25.300
 113067282.543 7  88104385.58145  21515987.758                    21515990.938
        47.700          33.700
 122621333.044 7  95549171.42744  23334080.430                    23334086.414
        42.800          26.900
 116243273.938 8  90579184.20745  22120359.813                    22120362.684
        50.500          35.200
 116687768.938 7  90925577.61045  22204950.727                    22204955.688
        46.200          34.500
 112723307.477 7  87836348.26145  21450532.367                    21450533.398
        47.200          34.800
 114643828.722 8  89332875.52945  21815994.898                    21816000.855
        50.500          34.700
 128953392.060 7 100483233.66843  24539024.523                    24539030.430
        42.000          22.200
 18  3 11 14 23 12.0000000  0 19R05R06G14G22R07R14R15R16R23R24R22G03
                                G12G01G17G32G19G24G25
                  96546265.910 4  23221252.680                    23221255.914
                        25.600
                  85733276.690 5  20656773.648                    20656774.684
                        35.000
 121924449.612 7  95006143.91344  23201466.664                    23201469.250
        43.600          25.900
 123951185.735 7  96585375.23944  23587134.891                    23587134.828
        43.200          27.100
                  92131521.967 6  22128356.359                    22128357.211
                        39.200
                  85053972.006 6  20514743.117                    20514744.613
                        38.000
                  81392626.533 5  19583385.117                    19583388.234
                        34.900
                  96394135.919 5  23200949.398                    23200952.664
                        32.400
                  84305852.356 6  20262973.563                    20262978.574
                        36.200
                  88010592.478 4  21160832.469                    21160833.137
                        28.400
                  97689315.352 6  23529215.711                    23529218.215
                        39.700
 126089571.578 6  98251645.14644  23994048.156                    23994055.766
        40.900          25.100
 113065252.026 8  88102803.36545  21515601.313                    21515604.582
        48.200          34.200
 122624092.571 7  95551321.71644  23334604.914                    23334611.617
        42.200          26.600
 116244623.294 8  90580235.65345  22120616.750                    22120619.730
        50.700          35.500
 116687617.275 7  90925459.43245  22204921.531                    22204927.063
        46.800          34.500
 112723185.017 7  87836252.83245  21450508.781                    21450509.938
        47.500          35.200
 114646406.970 8  89334884.54745  21816485.367                    21816491.563
        50.300          34.700
 128949799.156 7 100480434.01843  24538340.570                    24538346.738
        42.500          22.600
 18  3 11 14 23 13.0000000  0 19R05R06G14G22R07R14R15R16R23R24R22G03
                                G12G01G17G32G19G24G25
                  96549918.516 4  23222131.563                    23222133.988
                        25.700
                  85734136.480 5  20656980.734                    20656981.480
                        35.000
 121922532.457 7  95004650.02144  23201101.477                    23201104.605
        43.500          26.900
 123950181.269 7  96584592.53244  23586943.539                    23586943.563
        43.700          28.100
                  92129276.440 6  22127816.633                    22127817.922
                        39.000
                  85056464.211 6  20515342.914                    20515345.676
                        38.600
                  81392344.397 5  19583316.430                    19583320.445
                        35.100
                  96390994.846 5  23200192.570                    23200196.785
                        31.900
                  84306814.011 5  20263205.680                    20263209.902
                        35.900
                  88008435.391 4  21160312.805                    21160314.469
                        29.000
                  97693023.323 6  23530108.797                    23530111.340
                        39.600
 126087218.944 6  98249811.90743  23993600.703                    23993607.645
        40.600          23.900
 113063222.120 8  88101221.61945  21515215.258                    21515218.324
        48.100          33.400
 122626852.700 6  95553472.47044  23335130.102                    23335136.590
        41.800          26.000
 116245973.283 8  90581287.59845  22120873.523                    22120876.617
        50.800          34.900
 116687466.328 7  90925341.80645  22204892.672                    22204898.109
        47.300          34.400
 112723063.353 7  87836158.02745  21450485.500                    21450486.828
        47.400          34.900
 114648985.842 8  89336894.05545  21816976.125                    21816982.449
        49.900          34.600
 128946206.480 7 100477634.54543  24537657.375                    24537663.121
        42.700          21.700
 18  3 11 14 23 14.0000000  0 19R05R06G14G22R07R14R15R16R23R24R22G03
                                G12G01G17G32G19G24G25
                  96553571.364 4  23223009.625                    23223012.309
                        24.300
                  85734997.022 5  20657188.469                    20657189.156
                        34.900
 121920615.761 7  95003156.48744  23200737.242                    23200740.133
        43.300          26.200
 123949177.397 7  96583810.29444  23586752.484                    23586752.633
        43.900          27.100
                  92127031.375 6  22127277.664                    22127277.719
                        38.700
                  85058956.870 6  20515945.070                    20515947.445
                        38.500
                  81392062.925 5  19583248.930                    19583252.258
                        35.400
                  96387853.910 5  23199437.352                    23199440.105
                        31.600
                  84307776.403 5  20263436.664                    20263440.641
                        35.600
                  88006278.880 4  21159796.977                    21159796.574
                        28.200
                  97696731.515 6  23531002.148                    23531003.996
                        39.200
 126084866.767 6  98247979.03244  23993152.203                    23993159.926
        39.800          24.300
 113061192.779 7  88099640.31945  21514829.461                    21514832.238
        47.900          33.300
 122629613.419 6  95555623.67144  23335655.641                    23335662.320
        41.600          26.200
 116247323.904 8  90582340.03445  22121130.484                    22121133.422
        51.100          35.000
 116687316.076 7  90925224.72445  22204864.367                    22204869.809
        47.000          34.100
 112722942.476 7  87836063.83345  21450462.250                    21450463.781
        47.600          35.000
 114651565.253 8  89338903.98045  21817467.430                    21817473.195
        49.600          35.300
 128942613.992 7 100474835.18843  24536973.523                    24536979.305
        42.700          22.000
 18  3 11 14 23 15.0000000  0 19R05R06G14G22R07R14R15R16R23R24R22G03
                                G12G01G17G32G19G24G25
                  96557224.467 4  23223887.914                    23223891.352
                        24.900
                  85735858.272 5  20657395.930                    20657396.488
                        34.800
 121918699.567 7  95001663.35444  23200372.148                    23200375.199
        43.200          27.000
 123948174.053 7  96583028.46644  23586561.305                    23586561.504
        43.900          27.200
                  92124786.776 6  22126737.773                    22126738.996
                        38.800
                  85061449.983 6  20516547.578                    20516548.145
                        38.400
                  81391782.071 5  19583181.297                    19583184.738
                        34.700
                  96384713.151 5  23198681.852                    23198684.387
                        30.200
                  84308739.489 5  20263668.703                    20263672.398
                        35.900
                  88004122.852 4  21159276.984                    21159277.383
                        29.300
                  97700439.893 6  23531895.453                    23531896.961
                        38.500
 126082514.988 6  98246146.47944  23992705.172                    23992712.309
        39.200          24.700
 113059163.988 8  88098059.44445  21514443.063                    21514446.309
        48.000          33.800
 122632374.641 6  95557775.26044  23336180.922                    23336187.266
        41.300          26.300
 116248675.114 8  90583392.93045  22121387.656                    22121390.793
        51.000          35.000
 116687166.500 7  90925108.16345  22204835.633                    22204840.930
        47.300          34.400
 112722822.317 7  87835970.19945  21450439.945                    21450441.027
        47.800          34.800
 114654145.175 8  89340914.30145  21817958.750                    21817964.000
        49.700          35.200
 128939021.631 7 100472035.93943  24536290.023                    24536295.461
        42.600          22.000
 18  3 11 14 23 16.0000000  0 19R05R06G14G22R07R14R15R16R23R24R22G03
                                G12G01G17G32G19G24G25
                  96560877.800 4  23224767.797                    23224769.672
                        24.400
                  85736720.289 5  20657602.992                    20657604.297
                        34.400
 121916783.877 7  95000170.62144  23200008.023                    23200011.270
        43.200          27.000
 123947171.322 7  96582247.12244  23586371.320                    23586371.223
        44.100          28.400
                  92122542.693 6  22126198.477                    22126199.523
                        38.900
                  85063943.634 6  20517146.789                    20517148.996
                        38.300
                  81391501.915 5  19583113.898                    19583117.855
                        34.800
                  96381572.535 4  23197925.398                    23197929.027
                        29.600
                  84309703.342 6  20263900.391                    20263904.379
                        36.200
                  88001967.391 4  21158758.203                    21158759.645
                        29.500
                  97704148.512 6  23532789.148                    23532790.719
                        38.900
 126080163.724 6  98244314.34144  23992257.727                    23992264.684
        39.500          24.600
 113057135.773 8  88096479.02445  21514057.477                    21514059.973
        48.300          33.600
 122635136.503 6  95559927.35244  23336706.594                    23336713.156
        41.200          26.400
 116250026.949 8  90584446.31145  22121644.953                    22121648.000
        50.800          34.800
 116687017.662 7  90924992.18345  22204807.242                    22204812.773
        47.200          33.700
 112722702.999 7  87835877.22845  21450417.117                    21450417.992
        46.800          35.100
 114656725.658 8  89342925.06645  21818449.906                    21818455.102
        50.200          34.900
 128935429.491 7 100469236.86943  24535606.211                    24535612.051
        42.800          22.300
 18  3 11 14 23 17.0000000  0 19R05R06G14G22R07R14R15R16R23R24R22G03
                                G12G01G17G32G19G24G25
                  96564531.432 4  23225645.672                    23225649.188
                        24.900
                  85737583.015 5  20657811.117                    20657812.336
                        35.000
 121914868.645 7  94998678.23244  23199643.063                    23199646.676
        43.400          27.400
 123946169.169 7  96581466.21544  23586180.117                    23586180.027
        43.900          27.200
                  92120299.079 6  22125659.844                    22125661.156
                        39.100
                  85066437.745 6  20517748.898                    20517751.730
                        38.200
                  81391222.395 5  19583047.445                    19583050.324
                        35.100
                  96378432.016 4  23197169.883                    23197172.848
                        28.600
                  84310667.910 5  20264131.875                    20264136.309
                        35.600
                  87999812.458 4  21158240.500                    21158241.234
                        29.800
                  97707857.325 6  23533681.594                    23533684.273
                        38.600
 126077812.930 6  98242482.57344  23991810.602                    23991817.855
        40.900          25.300
 113055108.103 8  88094899.02345  21513671.578                    21513674.012
        48.900          33.200
 122637898.867 6  95562079.83544  23337232.633                    23337238.918
        41.600          26.100
 116251379.383 8  90585500.16245  22121902.438                    22121905.238
        50.800          35.400
 116686869.472 7  90924876.70845  22204779.172                    22204784.625
        47.000          34.200
 112722584.398 7  87835784.80845  21450394.438                    21450395.449
        46.600          35.000
 114659306.678 8  89344936.25945  21818941.133                    21818946.211
        49.900          35.000
 128931837.512 7 100466437.90843  24534922.711                    24534928.574
        43.000          21.500
 18  3 11 14 23 18.0000000  0 19R05R06G14G22R07R14R15R16R23R24R22G03
                                G12G01G17G32G19G24G25
                  96568185.366 3  23226524.273                    23226527.285
                        22.800
                  85738446.522 5  20658018.938                    20658019.953
                        34.600
 121912953.972 7  94997186.27844  23199278.992                    23199282.605
        43.000          26.000
 123945167.642 7  96580685.80244  23585989.398                    23585989.605
        44.100          27.800
                  92118055.989 6  22125121.281                    22125122.371
                        38.900
                  85068932.416 6  20518352.078                    20518353.035
                        38.100
                  81390943.561 5  19582979.961                    19582983.414
                        34.700
                  96375291.737 4  23196413.977                    23196416.965
                        27.400
                  84311633.260 5  20264363.828                    20264367.902
                        35.600
                  87997658.047 4  21157721.641                    21157723.094
                        28.900
                  97711566.381 6  23534574.492                    23534577.594
                        37.900
 126075462.646 6  98240651.20044  23991363.586                    23991370.094
        41.100          25.300
 113053081.072 8  88093319.52645  21513285.516                    21513288.402
        49.500          32.900
 122640661.877 6  95564232.82144  23337758.008                    23337764.770
        41.700          26.400
 116252732.494 8  90586554.53645  22122159.609                    22122162.531
        51.100          34.700
 116686722.032 7  90924761.81445  22204750.859                    22204756.738
        47.000          34.000
 112722466.632 7  87835693.03645  21450371.977                    21450373.301
        46.800          35.600
 114661888.271 8  89346947.89245  21819432.211                    21819437.383
        50.000          35.100
 128928245.727 7 100463639.10443  24534239.383                    24534244.598
        43.000          21.100
 18  3 11 14 23 19.0000000  0 19R05R06G14G22R07R14R15R16R23R24R22G03
                                G12G01G17G32G19G24G25
                  96571839.483 3  23227403.133                    23227406.711
                        23.500
                  85739310.782 5  20658227.828                    20658228.219
                        34.400
 121911039.812 7  94995694.72344  23198914.359                    23198918.094
        43.100          27.000
 123944166.710 7  96579905.85544  23585799.438                    23585799.246
        43.900          28.100
                  92115813.378 6  22124582.305                    22124583.926
                        39.600
                  85071427.579 6  20518952.313                    20518954.855
                        38.100
                  81390665.387 5  19582912.844                    19582916.156
                        34.800
                                  23195659.117

                  84312599.348 5  20264596.320                    20264600.156
                        35.800
                  87995504.196 4  21157205.367                    21157205.270
                        28.300
                  97715275.671 6  23535467.633                    23535470.141
                        37.500
 126073112.850 7  98238820.20344  23990917.117                    23990923.160
        42.000          25.500
 113051054.586 8  88091740.44845  21512900.336                    21512902.895
        49.700          33.600
 122643425.419 6  95566386.22444  23338283.797                    23338290.867
        41.600          25.700
 116254086.222 8  90587609.39345  22122417.445                    22122420.445
        51.000          34.900
 116686575.303 7  90924647.48045  22204722.648                    22204728.582
        46.900          33.700
 112722349.632 7  87835601.87545  21450349.656                    21450350.770
        47.000          35.400
 114664470.457 8  89348959.99145  21819923.531                    21819929.066
        49.600          35.500
 128924654.150 7 100460840.46343  24533555.680                    24533561.266
        42.900          20.900
 18  3 11 14 23 20.0000000  0 19R05R06G14G22R07R14R15R16R23R24R22G03
                                G12G01G17G32G19G24G25
                  96575493.939 4  23228283.508                    23228285.652
                        25.200
                  85740175.765 5  20658435.797                    20658436.902
                        34.500
 121909126.129 7  94994203.54944  23198551.000                    23198554.117
        42.400          27.200
 123943166.346 7  96579126.34544  23585608.773                    23585608.910
        44.000          28.400
                  92113571.264 6  22124043.445                    22124045.746
                        39.200
                  85073923.232 6  20519553.836                    20519557.047
                        38.000
                  81390387.886 5  19582846.016                    19582849.488
                        35.100
                                  23194903.672

                  84313566.159 5  20264828.430                    20264832.688
                        35.900
                  87993350.866 4  21156687.039                    21156687.141
                        28.900
                  97718985.204 6  23536360.266                    23536363.758
                        36.900
 126070763.507 6  98236989.55044  23990469.750                    23990476.426
        41.800          25.700
 113049028.703 8  88090161.83945  21512514.453                    21512517.191
        49.900          33.400
 122646189.579 6  95568540.12243  23338809.961                    23338816.703
        41.600          23.900
 116255440.574 8  90588664.73745  22122674.883                    22122678.234
        51.200          35.000
 116686429.274 7  90924533.69945  22204694.648                    22204700.973
        46.500          33.600
 112722233.420 7  87835511.32545  21450327.617                    21450328.840
        47.300          35.700
 114667053.213 8  89350972.53145  21820414.719                    21820420.313
        49.500          35.500
 128921062.733 7 100458041.94943  24532871.766                    24532877.758
        42.400          21.800
 18  3 11 14 23 21.0000000  0 19R05R06G14G22R07R14R15R16R23R24R22G03
                                G12G01G17G32G19G24G25
                  96579148.597 4  23229161.563                    23229164.734
                        24.300
                  85741041.470 5  20658644.594                    20658645.645
                        34.900
 121907212.927 7  94992712.75044  23198186.609                    23198190.227
        42.400          26.900
 123942166.565 7  96578347.30344  23585418.555                    23585418.656
        43.900          28.500
                  92111329.661 6  22123505.266                    22123507.285
                        39.100
                  85076419.364 6  20520158.000                    20520158.707
                        38.200
                  81390111.002 5  19582779.219                    19582782.809
                        35.300
                                  23194147.703

                  84314533.692 6  20265061.320                    20265064.992
                        36.100
                  87991198.063 4  21156170.477                    21156169.750
                        29.300
                  97722694.945 6  23537254.063                    23537257.344
                        36.000
 126068414.669 6  98235159.28244  23990022.836                    23990029.660
        41.800          24.800
 113047003.355 8  88088583.64645  21512129.070                    21512131.914
        49.800          33.700
 122648954.292 6  95570694.44944  23339336.211                    23339343.168
        41.800          25.400
 116256795.518 8  90589720.53745  22122933.172                    22122936.086
        51.200          35.400
 116686283.929 7  90924420.44745  22204667.523                    22204673.566
        45.800          33.500
 112722117.969 7  87835421.37045  21450305.648                    21450306.793
        46.600          35.200
 114669636.497 8  89352985.47445  21820906.227                    21820911.660
        49.600          35.600
 128917471.512 6 100455243.59943  24532188.461                    24532194.383
        41.500          21.100
 18  3 11 14 23 22.0000000  0 19R05R06G14G22R07R14R15R16R23R24R22G03
                                G12G01G17G32G19G24G25
                  96582803.521 3  23230041.227                    23230043.633
                        23.200
                  85741907.928 5  20658852.859                    20658854.484
                        34.300
 121905300.242 6  94991222.35644  23197822.570                    23197825.996
        41.800          27.300
 123941167.400 7  96577568.73844  23585228.648                    23585228.750
        44.300          27.500
                  92109088.555 6  22122967.289                    22122968.781
                        39.400
                  85078916.031 6  20520758.953                    20520760.832
                        38.700
                  81389834.796 5  19582713.203                    19582716.293
                        35.200
                                  23193391.430

                  84315501.934 5  20265293.586                    20265297.707
                        35.900
                  87989045.835 5  21155652.602                    21155652.492
                        30.100
                  97726404.917 5  23538146.523                    23538151.168
                        34.500
 126066066.270 6  98233329.35144  23989574.992                    23989582.371
        40.800          25.800
 113044978.604 8  88087005.90945  21511743.352                    21511746.727
        49.100          33.800
 122651719.551 6  95572849.19443  23339861.813                    23339868.766
        41.700          23.200
 116258151.108 8  90590776.84645  22123190.766                    22123193.941
        51.200          35.500
 116686139.289 7  90924307.74845  22204640.070                    22204645.594
        46.000          33.600
 112722003.285 7  87835332.01245  21450284.039                    21450285.223
        46.700          35.300
 114672220.346 8  89354998.85545  21821397.922                    21821403.160
        49.200          35.000
 128913880.475 6 100452445.39743  24531505.188                    24531510.926
        41.800          22.000
 18  3 11 14 23 23.0000000  0 19R05R06G14G22R07R14R15R16R23R24R22G03
                                G12G01G17G32G19G24G25
                  96586458.742 3  23230919.984                    23230922.875
                        23.900
                  85742775.131 5  20659062.586                    20659062.785
                        34.200
 121903388.072 6  94989732.36244  23197458.570                    23197462.516
        41.800          27.000
 123940168.842 7  96576790.64644  23585038.578                    23585038.652
        44.600          26.800
                  92106847.956 6  22122429.031                    22122431.246
                        39.300
                  85081413.250 6  20521360.023                    20521362.707
                        38.300
                  81389559.291 5  19582647.039                    19582649.773
                        35.100
                                  23192635.219

                  84316470.949 5  20265526.672                    20265530.680
                        35.500
                  87986894.167 4  21155134.516                    21155135.406
                        29.700
                  97730115.165 5  23539040.070                    23539044.582
                        33.500
 126063718.381 6  98231499.82143  23989128.070                    23989135.777
        40.500          23.300
 113042954.442 8  88085428.64145  21511358.422                    21511361.672
        49.000          33.600
 122654485.429 6  95575004.43744  23340388.234                    23340395.090
        41.500          24.600
 116259507.354 8  90591833.66145  22123448.906                    22123451.941
        51.000          35.200
 116685995.401 7  90924195.63045  22204612.719                    22204618.434
        46.300          33.500
 112721889.438 7  87835243.30545  21450262.305                    21450263.230
        47.000          35.500
 114674804.785 8  89357012.69345  21821889.734                    21821895.324
        49.200          35.100
 128910289.628 7 100449647.31543  24530822.273                    24530827.730
        42.300          22.200
 18  3 11 14 23 24.0000000  0 19R05R06G14G22R07R14R15R16R23R24R22G03
                                G12G01G17G32G19G24G25
                  96590114.234 4  23231800.289                    23231802.004
                        25.200
                  85743643.086 5  20659271.641                    20659272.109
                        34.400
 121901476.427 6  94988242.77144  23197095.102                    23197098.797
        41.600          28.700
 123939170.891 7  96576013.02444  23584848.219                    23584848.449
        43.900          26.800
                  92104607.841 6  22121891.422                    22121892.121
                        38.900
                  85083910.938 6  20521963.609                    20521965.973
                        38.500
                  81389284.449 5  19582581.055                    19582583.844
                        35.200
                                  23191880.477

                  84317440.703 5  20265759.609                    20265763.395
                        35.500
                  87984743.072 4  21154617.953                    21154618.066
                        29.600
                  97733825.643 5  23539933.063                    23539938.051
                        31.200
 126061370.936 6  98229670.62843  23988681.336                    23988688.828
        39.700          22.200
 113040930.862 8  88083851.82645  21510973.477                    21510976.098
        49.100          34.500
 122657251.898 6  95577160.12744  23340914.320                    23340921.348
        41.100          24.700
 116260864.216 8  90592890.95645  22123707.188                    22123710.148
        51.100          35.100
 116685852.201 7  90924084.04345  22204585.320                    22204591.293
        45.900          33.600
 112721776.343 7  87835155.18445  21450240.711                    21450241.941
        46.800          34.700
 114677389.774 8  89359026.95545  21822382.094                    21822386.980
        49.300          35.100
 128906698.997 7 100446849.42843  24530138.953                    24530144.762
        42.400          22.000
 18  3 11 14 23 25.0000000  0 19R05R06G14G22R07R14R15R16R23R24R22G03
                                G12G01G17G32G19G24G25
                  96593769.878 4  23232679.242                    23232681.270
                        25.400
                  85744511.734 5  20659480.773                    20659481.184
                        34.200
 121899565.211 6  94986753.52144  23196732.094                    23196735.262
        41.400          27.700
 123938173.409 7  96575235.76044  23584658.672                    23584658.660
        43.600          27.800
                  92102368.127 6  22121353.570                    22121353.918
                        39.100
                  85086409.051 6  20522566.398                    20522568.207
                        38.300
                  81389010.216 5  19582514.422                    19582518.598
                        34.800
                                  23191124.305

                  84318411.112 5  20265992.711                    20265997.125
                        35.800
                  87982592.431 4  21154100.555                    21154101.547
                        28.600
                  97737536.229 4  23540827.008                    23540831.152
                        29.200
 126059023.907 6  98227841.76643  23988234.922                    23988242.023
        39.500          21.800
 113038907.766 8  88082275.39545  21510588.063                    21510591.078
        48.900          34.200
 122660018.835 6  95579316.18744  23341441.352                    23341447.535
        40.500          25.000
 116262221.616 8  90593948.68145  22123965.453                    22123968.492
        51.100          35.200
 116685709.627 7  90923972.95045  22204558.164                    22204564.066
        46.000          34.000
 112721663.969 7  87835067.62145  21450219.570                    21450220.543
        46.600          34.900
 114679975.242 8  89361041.58845  21822874.023                    21822879.316
        49.700          35.100
 128903108.430 7 100444051.58743  24529455.102                    24529461.305
        42.100          22.600
 18  3 11 14 23 26.0000000  0 19R05R06G14G22R07R14R15R16R23R24R22G03
                                G12G01G17G32G19G24G25
                  96597425.830 4  23233558.617                    23233560.863
                        24.900
                  85745381.121 5  20659690.766                    20659690.273
                        34.000
 121897654.477 6  94985264.64644  23196368.625                    23196371.723
        41.100          27.200
 123937176.561 7  96574458.99144  23584468.563                    23584469.066
        42.300          28.000
                  92100128.943 6  22120814.859                    22120816.461
                        39.100
                  85088907.686 6  20523169.016                    20523170.777
                        38.200
                  81388736.635 5  19582449.289                    19582452.094
                        35.000
                                  23190367.375

                  84319382.297 5  20266226.656                    20266230.551
                        35.900
                  87980442.364 4  21153584.086                    21153584.836
                        29.200
                  97741247.085 4  23541720.805                    23541725.301
                        27.200
 126056677.375 6  98226013.30643  23987788.617                    23987795.148
        39.900          22.500
 113036885.250 8  88080699.41445  21510203.180                    21510206.359
        48.300          34.000
 122662786.389 6  95581472.71544  23341968.414                    23341974.387
        41.100          24.900
 116263579.652 8  90595006.89345  22124223.914                    22124226.984
        51.200          34.900
 116685567.771 7  90923862.41745  22204531.250                    22204537.012
        46.200          33.700
 112721552.356 7  87834980.65645  21450198.242                    21450199.199
        46.300          34.600
 114682561.246 8  89363056.64145  21823366.469                    21823371.391
        49.600          35.200
 128899518.068 6 100441253.89743  24528772.039                    24528778.441
        41.600          22.200
 18  3 11 14 23 27.0000000  0 19R05R06G14G22R07R14R15R16R23R24R22G03
                                G12G01G17G32G19G24G25
                  96601081.992 4  23234437.594                    23234440.031
                        24.600
                  85746251.267 5  20659900.727                    20659900.262
                        34.500
 121895744.310 6  94983776.22044  23196005.125                    23196008.516
        41.800          27.900
 123936180.323 7  96573682.69544  23584279.594                    23584279.527
        42.600          27.600
                  92097890.286 6  22120277.672                    22120278.512
                        39.300
                  85091406.826 6  20523772.367                    20523773.852
                        37.900
                  81388463.767 5  19582383.414                    19582386.730
                        35.200
                                  23189613.008

                  84320354.233 6  20266460.156                    20266463.766
                        36.000
                  87978292.885 4  21153067.852                    21153067.824
                        28.400
                  97744958.189 3  23542614.602                    23542618.246
                        23.500
 126054331.337 6  98224185.22943  23987341.789                    23987348.496
        40.300          22.500
 113034863.346 8  88079123.90545  21509818.969                    21509821.777
        48.400          34.000
 122665554.554 6  95583629.72444  23342496.125                    23342500.898
        41.400          26.300
 116264938.357 8  90596065.62445  22124482.313                    22124485.277
        50.800          34.300
 116685426.643 7  90923752.45645  22204504.656                    22204509.668
        46.500          33.900
 112721441.576 7  87834894.33745  21450177.180                    21450178.207
        46.800          35.200
 114685147.845 8  89365072.15945  21823858.633                    21823863.566
        49.900          35.100
 128895927.938 6 100438456.40943  24528089.141                    24528095.133
        41.800          22.500
 18  3 11 14 23 28.0000000  0 19R05R06G14G22R07R14R15R16R23R24R22G03
                                G12G01G17G32G19G24G25
                  96604738.429 4  23235316.711                    23235319.617
                        25.000
                  85747122.128 5  20660109.641                    20660110.461
                        34.500
 121893834.590 7  94982288.13744  23195641.664                    23195645.527
        42.200          27.000
 123935184.652 7  96572906.85444  23584089.898                    23584090.055
        42.400          26.200
                  92095652.120 6  22119739.945                    22119741.621
                        39.700
                  85093906.444 6  20524374.297                    20524376.863
                        37.600
                  81388191.524 5  19582318.055                    19582321.098
                        34.900
                                  23188856.219

                  84321326.879 5  20266694.008                    20266698.254
                        35.700
                  87976143.907 4  21152550.750                    21152550.938
                        28.200
                  97748669.551 3  23543508.992                    23543511.543
                        22.800
 126051985.758 6  98222357.49543  23986896.273                    23986901.895
        41.300          23.600
 113032841.991 8  88077548.82545  21509434.453                    21509437.133
        48.600          34.000
 122668323.207 6  95585787.09944  23343023.109                    23343027.930
        41.900          25.600
 116266297.644 8  90597124.80945  22124740.992                    22124743.969
        51.000          34.800
 116685286.195 7  90923643.02445  22204478.164                    22204483.219
        47.000          34.000
 112721331.520 7  87834808.58445  21450155.992                    21450156.973
        46.900          35.100
 114687734.959 8  89367088.09045  21824350.672                    21824355.824
        50.100          34.600
 128892337.947 7 100435659.03043  24527405.984                    24527412.375
        42.100          22.300
 18  3 11 14 23 29.0000000  0 19R05R06G14G22R07R14R15R16R23R24R22G03
                                G12G01G17G32G19G24G25
                  96608395.157 4  23236195.719                    23236198.797
                        26.300
                  85747993.741 5  20660320.336                    20660320.168
                        34.500
 121891925.415 7  94980800.47544  23195278.508                    23195282.465
        42.300          28.500
 123934189.592 7  96572131.48544  23583901.016                    23583900.570
        42.600          27.500
                  92093414.458 6  22119203.102                    22119204.496
                        39.900
                  85096406.629 6  20524977.867                    20524979.438
                        37.900
                  81387919.977 5  19582252.844                    19582255.219
                        35.300
                                  23188100.930

                  84322300.282 5  20266927.594                    20266931.676
                        35.600
                  87973995.530 4  21152034.008                    21152034.031
                        29.800
                  97752381.154 3  23544403.531                    23544404.793
                        22.100
 126049640.692 6  98220530.16444  23986450.453                    23986455.926
        41.400          24.400
 113030821.249 8  88075974.22545  21509049.789                    21509052.340
        48.800          33.600
 122671092.509 7  95587944.99844  23343549.328                    23343555.027
        42.600          27.300
 116267657.591 8  90598184.51345  22124999.867                    22125002.883
        50.800          34.700
 116685146.480 7  90923534.15645  22204451.539                    22204456.637
        46.700          34.300
 112721222.290 7  87834723.48045  21450135.391                    21450136.445
        46.500          35.100
 114690322.689 8  89369104.49645  21824843.359                    21824848.383
        50.200          34.300
 128888748.151 7 100432861.79843  24526722.453                    24526728.859
        42.600          22.500
 18  3 11 14 23 30.0000000  0 19R05R06G14G22R07R14R15R16R23R24R22G03
                                G12G01G17G32G19G24G25
                  96612052.127 4  23237076.656                    23237078.492
                        25.600
                  85748866.070 5  20660530.805                    20660530.289
                        34.700
 121890016.710 7  94979313.17544  23194914.922                    23194919.281
        42.900          28.100
 123933195.099 7  96571356.55744  23583711.469                    23583711.488
        43.400          26.900
                  92091177.283 6  22118665.195                    22118667.004
                        39.800
                  85098907.268 6  20525581.102                    20525582.902
                        37.700
                  81387649.075 5  19582186.672                    19582190.195
                        34.800
                                  23187344.922

                  84323274.402 5  20267161.867                    20267165.852
                        35.600
                  87971847.662 4  21151517.992                    21151518.211
                        29.000
                  97756092.989 4  23545297.906                    23545298.426
                        26.600
 126047296.066 6  98218703.16444  23986004.336                    23986009.773
        41.300          24.500
 113028801.058 8  88074400.04845  21508665.266                    21508667.801
        49.100          33.800
 122673862.320 7  95590103.29244  23344076.711                    23344082.633
        42.900          26.800
 116269018.115 8  90599244.66245  22125258.797                    22125261.555
        51.000          34.900
 116685007.451 7  90923425.81645  22204424.906                    22204429.926
        46.600          34.500
 112721113.805 7  87834638.95045  21450114.422                    21450115.535
        46.400          35.300
 114692910.937 8  89371121.31345  21825335.727                    21825340.887
        50.300          34.500
 128885158.542 7 100430064.69443  24526039.453                    24526045.922
        42.200          22.300
 18  3 11 14 23 31.0000000  0 19R05R06G14G22R07R14R15R16R23R24R22G03
                                G12G01G17G32G19G24G25
                  96615709.333 4  23237955.906                    23237957.680
                        25.500
                  85749739.159 5  20660741.156                    20660740.941
                        34.800
 121888108.552 7  94977826.29544  23194552.125                    23194556.199
        43.500          28.300
 123932201.200 7  96570582.09444  23583522.102                    23583521.984
        43.500          27.500
                  92088940.603 6  22118128.680                    22118130.723
                        39.300
                  85101408.435 6  20526184.234                    20526185.691
                        37.800
                  81387378.868 5  19582121.906                    19582125.488
                        34.500
                                  23186589.781

                  84324249.260 5  20267396.438                    20267400.566
                        35.400
                  87969700.307 4  21151000.930                    21151001.688
                        29.800
                  97759805.007 4  23546192.859                    23546191.738
                        28.800
 126044951.971 6  98216876.58643  23985557.992                    23985563.648
        40.300          23.800
 113026781.471 8  88072826.33545  21508281.359                    21508283.707
        48.300          33.400
 122676632.747 7  95592262.06744  23344604.461                    23344609.813
        43.400          27.400
 116270379.309 8  90600305.33645  22125518.055                    22125520.359
        50.800          34.600
 116684869.141 7  90923318.03345  22204398.625                    22204403.996
        46.400          34.200
 112721006.112 7  87834555.04045  21450094.219                    21450095.242
        46.400          35.100
 114695499.734 8  89373138.55745  21825828.266                    21825833.359
        50.100          34.900
 128881569.136 7 100427267.75243  24525356.617                    24525363.027
        42.600          21.300
 18  3 11 14 23 32.0000000  0 19R05R06G14G22R07R14R15R16R23R24R22G03
                                G12G01G17G32G19G24G25
                  96619366.846 4  23238835.672                    23238837.895
                        25.000
                  85750613.023 5  20660951.828                    20660951.387
                        34.300
 121886200.904 7  94976339.81044  23194189.305                    23194193.582
        43.800          27.100
 123931207.929 7  96569808.10744  23583333.234                    23583332.809
        43.600          26.900
                  92086704.432 6  22117591.391                    22117593.773
                        39.800
                  85103910.116 6  20526787.219                    20526789.188
                        37.900
                  81387109.332 5  19582057.180                    19582060.336
                        34.100
                  96331352.89015  23185835.547                    23185840.707
                        32.700
                  84325224.877 5  20267630.938                    20267635.012
                        35.500
                  87967553.547 4  21150484.898                    21150485.629
                        28.900
                  97763517.236 4  23547087.320                    23547086.000
                        29.100
 126042608.351 6  98215050.39443  23985110.828                    23985118.035
        39.300          22.800
 113024762.456 8  88071253.07545  21507896.852                    21507899.504
        48.500          33.100
 122679403.736 7  95594421.28544  23345131.469                    23345137.523
        43.700          26.800
 116271741.137 8  90601366.49745  22125776.883                    22125780.293
        50.900          35.100
 116684731.574 7  90923210.83045  22204372.422                    22204377.945
        46.300          33.900
 112720899.229 7  87834471.75445  21450073.898                    21450074.836
        46.300          35.600
 114698089.140 8  89375156.27345  21826320.516                    21826326.641
        49.600          34.400
 128877979.932 7 100424470.97043  24524673.609                    24524680.078
        42.200          22.200
 18  3 11 14 23 33.0000000  0 19R05R06G14G22R07R14R15R16R23R24R22G03
                                G12G01G17G32G19G24G25
                  96623024.635 4  23239714.820                    23239717.336
                        24.400
                  85751487.632 5  20661161.914                    20661161.805
                        34.500
 121884293.778 7  94974853.73144  23193825.867                    23193830.258
        44.400          27.500
 123930215.274 7  96569034.60844  23583144.219                    23583144.254
        43.900          28.500
                  92084468.765 6  22117054.852                    22117056.492
                        39.700
                  85106412.298 6  20527391.953                    20527392.504
                        37.700
                  81386840.479 5  19581992.789                    19581995.426
                        34.500
                  96328215.13415  23185079.617                    23185085.008
                        33.700
                  84326201.239 5  20267865.500                    20267869.379
                        35.500
                  87965407.295 4  21149969.125                    21149969.422
                        29.500
                  97767229.682 5  23547981.273                    23547980.516
                        31.700
 126040265.187 6  98213224.54643  23984664.406                    23984671.875
        38.900          22.500
 113022744.045 8  88069680.28345  21507512.563                    21507515.566
        48.900          33.600
 122682175.321 7  95596580.97044  23345658.859                    23345665.055
        43.700          25.500
 116273103.612 8  90602428.17045  22126036.164                    22126039.164
        51.000          35.300
 116684594.705 7  90923104.17645  22204346.250                    22204352.336
        46.500          34.500
 112720793.137 7  87834389.08845  21450053.750                    21450054.547
        46.700          35.800
 114700679.115 8  89377174.43945  21826813.195                    21826819.098
        49.300          34.500
 128874390.940 7 100421674.36243  24523990.609                    24523997.309
        42.600          22.900
 18  3 11 14 23 34.0000000  0 19R05R06G14G22R07R14R15R16R23R24R22G03
                                G12G01G17G32G19G24G25
                  96626682.677 4  23240594.430                    23240597.598
                        25.600
                  85752362.985 5  20661373.930                    20661373.406
                        34.500
 121882387.178 7  94973368.05944  23193463.297                    23193467.391
        44.900          27.600
 123929223.251 7  96568261.60344  23582955.266                    23582955.445
        43.600          27.600
                  92082233.620 6  22116517.406                    22116519.582
                        39.300
                  85108915.022 6  20527994.703                    20527995.836
                        37.400
                  81386572.328 5  19581928.094                    19581931.629
                        35.000
                  96325077.605 5  23184325.492                    23184330.379
                        34.700
                  84327178.348 5  20268099.828                    20268104.203
                        35.200
                  87963261.646 4  21149452.508                    21149453.414
                        29.900
                  97770942.373 5  23548876.656                    23548874.500
                        33.300
 126037922.523 6  98211399.12143  23984219.156                    23984225.742
        39.000          22.800
 113020726.231 8  88068107.96345  21507128.359                    21507131.375
        48.800          33.300
 122684947.521 7  95598741.13844  23346185.203                    23346192.438
        43.600          26.000
 116274466.720 8  90603490.32845  22126295.383                    22126298.293
        50.900          35.400
 116684458.572 7  90922998.09945  22204320.398                    22204326.230
        46.600          34.600
 112720687.842 7  87834307.04645  21450033.664                    21450034.566
        46.600          35.300
 114703269.700 8  89379193.07445  21827306.211                    21827312.148
        49.200          34.600
 128870802.158 7 100418877.93543  24523307.766                    24523313.969
        43.000          22.600
 18  3 11 14 23 35.0000000  0 19R05R06G14G22R07R14R15R16R23R24R22G03
                                G12G01G17G32G19G24G25
                  96630340.979 3  23241475.797                    23241478.043
                        23.000
                  85753239.077 5  20661584.133                    20661583.996
                        34.600
 121880481.054 7  94971882.75944  23193100.758                    23193104.820
        45.200          26.000
 123928231.756 7  96567489.00644  23582766.805                    23582766.645
        44.000          28.300
                  92079998.934 6  22115980.367                    22115981.902
                        38.600
                  85111418.225 6  20528597.469                    20528600.328
                        37.300
                  81386304.780 5  19581863.609                    19581867.035
                        35.100
                  96321940.162 5  23183570.508                    23183575.406
                        35.300
                  84328156.207 5  20268335.148                    20268339.605
                        35.500
                  87961116.526 5  21148937.633                    21148937.645
                        30.100
                  97774655.254 5  23549770.781                    23549769.559
                        34.900
 126035580.347 6  98209574.07043  23983773.414                    23983779.781
        39.700          23.200
 113018708.968 8  88066536.06645  21506744.398                    21506747.832
        48.600          34.000
 122687720.261 7  95600901.72444  23346712.445                    23346720.383
        42.100          26.400
 116275830.439 8  90604552.97045  22126555.039                    22126558.027
        50.800          35.300
 116684323.115 7  90922892.54845  22204294.813                    22204299.910
        47.000          34.600
 112720583.290 7  87834225.58445  21450013.734                    21450014.582
        46.400          35.200
 114705860.808 8  89381212.11945  21827799.453                    21827805.328
        48.900          34.900
 128867213.478 7 100416081.55743  24522625.320                    24522631.391
        42.800          21.800
 18  3 11 14 23 36.0000000  0 19R05R06G14G22R07R14R15R16R23R24R22G03
                                G12G01G17G32G19G24G25
                  96633999.513 3  23242354.922                    23242357.172
                        23.200
                  85754115.892 5  20661795.125                    20661795.000
                        34.700
 121878575.410 7  94970397.83144  23192737.813                    23192741.629
        45.300          25.800
 123927240.842 7  96566716.86344  23582578.844                    23582578.625
        44.300          28.500
                  92077764.696 6  22115443.391                    22115445.367
                        38.300
                  85113921.865 6  20529203.008                    20529204.617
                        37.400
                  81386037.896 5  19581799.773                    19581802.957
                        35.200
                  96318802.921 5  23182816.359                    23182820.051
                        35.500
                  84329134.774 5  20268569.977                    20268574.332
                        35.300
                  87958971.929 4  21148421.438                    21148421.801
                        29.300
                  97778368.359 5  23550665.375                    23550664.516
                        35.500
 126033238.607 6  98207749.35143  23983328.766                    23983334.551
        40.600          22.200
 113016692.250 8  88064964.60245  21506360.742                    21506363.723
        48.600          34.100
 122690493.553 6  95603062.72944  23347239.820                    23347248.035
        41.400          26.800
 116277194.756 8  90605616.07545  22126814.781                    22126817.855
        50.900          35.700
 116684188.323 7  90922787.51445  22204269.094                    22204274.863
        46.800          34.300
 112720479.508 7  87834144.72045  21449993.711                    21449994.906
        46.400          35.800
 114708452.444 8  89383231.57345  21828292.648                    21828298.371
        48.800          34.800
 128863625.027 7 100413285.35743  24521942.289                    24521948.090
        42.200          22.600
 18  3 11 14 23 37.0000000  0 19R05R06G14G22R07R14R15R16R23R24R22G03
                                G12G01G17G32G19G24G25
                  96637658.295 4  23243234.789                    23243237.570
                        24.300
                  85754993.466 5  20662007.422                    20662006.340
                        34.600
 121876670.263 7  94968913.29144  23192375.047                    23192378.500
        45.400          26.100
 123926250.521 7  96565945.17944  23582389.125                    23582390.078
        44.100          27.900
                  92075530.974 6  22114906.664                    22114908.227
                        38.200
                  85116426.035 6  20529806.539                    20529807.910
                        37.800
                  81385771.674 5  19581735.555                    19581738.453
                        35.400
                  96315665.813 5  23182060.891                    23182065.172
                        35.300
                  84330114.080 5  20268805.789                    20268809.641
                        35.200
                  87956827.926 5  21147906.508                    21147906.246
                        30.300
                  97782081.695 6  23551559.797                    23551559.145
                        36.000
 126030897.358 6  98205924.99644  23982883.336                    23982889.098
        40.800          24.700
 113014676.090 8  88063393.56345  21505977.227                    21505980.191
        49.100          33.000
 122693267.428 6  95605224.19844  23347768.234                    23347775.566
        40.900          26.700
 116278559.683 8  90606679.65745  22127074.188                    22127077.457
        50.700          34.800
 116684054.267 7  90922683.04645  22204243.172                    22204248.953
        46.700          34.000
 112720376.479 7  87834064.43845  21449974.250                    21449975.195
        46.300          35.300
 114711044.631 8  89385251.45945  21828785.992                    21828791.488
        48.800          34.400
 128860036.755 6 100410489.30543  24521259.094                    24521265.418
        41.400          22.200
 18  3 11 14 23 38.0000000  0 19R05R06G14G22R07R14R15R16R23R24R22G03
                                G12G01G17G32G19G24G25
                  96641317.340 4  23244114.320                    23244117.324
                        24.500
                  85755871.785 5  20662218.164                    20662218.082
                        34.700
 121874765.636 7  94967429.15644  23192012.508                    23192016.086
        44.600          25.800
 123925260.787 7  96565173.95344  23582201.164                    23582201.953
        43.900          27.700
                  92073297.738 6  22114370.703                    22114372.133
                        38.300
                  85118930.705 6  20530409.156                    20530411.863
                        37.900
                  81385506.101 5  19581671.375                    19581674.500
                        35.800
                  96312528.887 5  23181306.906                    23181310.348
                        35.900
                  84331094.115 5  20269040.859                    20269045.969
                        35.300
                  87954684.416 4  21147389.742                    21147390.938
                        29.600
                  97785795.259 6  23552453.617                    23552453.766
                        37.300
 126028556.575 6  98204100.99443  23982437.383                    23982442.945
        41.000          23.400
 113012660.525 8  88061822.99945  21505593.773                    21505596.789
        49.700          34.000
 122696041.885 6  95607386.10244  23348295.836                    23348303.484
        41.400          26.200
 116279925.257 8  90607743.73645  22127334.258                    22127337.461
        50.500          35.000
 116683920.910 7  90922579.13545  22204217.531                    22204223.668
        46.300          34.000
 112720274.236 7  87833984.77245  21449954.641                    21449955.516
        46.300          35.400
 114713637.389 8  89387271.79145  21829279.828                    21829285.117
        48.900          34.400
 128856448.630 6 100407693.35443  24520576.336                    24520582.902
        41.600          21.700
 18  3 11 14 23 39.0000000  0 19R05R06G14G22R07R14R15R16R23R24R22G03
                                G12G01G17G32G19G24G25
                  96644976.647 4  23244995.656                    23244997.891
                        24.000
                  85756750.849 5  20662431.133                    20662429.648
                        34.100
 121872861.490 7  94965945.38844  23191650.133                    23191653.680
        43.800          25.600
 123924271.673 7  96564403.21644  23582012.984                    23582013.605
        44.500          28.500
                  92071065.038 6  22113834.164                    22113835.234
                        38.900
                  85121435.858 6  20531015.281                    20531016.809
                        37.700
                  81385241.228 5  19581607.297                    19581611.008
                        35.000
                  96309392.114 6  23180550.977                    23180555.281
                        36.400
                  84332074.889 5  20269276.875                    20269280.953
                        35.700
                  87952541.456 4  21146875.391                    21146876.133
                        28.700
                  97789509.049 6  23553348.820                    23553348.402
                        37.900
 126026216.271 6  98202277.35943  23981992.563                    23981997.711
        40.900          22.500
 113010645.556 8  88060252.89745  21505210.367                    21505212.813
        49.400          34.200
 122698816.909 7  95609548.45044  23348824.758                    23348831.371
        42.000          25.300
 116281291.451 8  90608808.30445  22127593.930                    22127597.160
        50.900          35.200
 116683788.234 7  90922475.74745  22204192.328                    22204198.473
        45.600          34.000
 112720172.801 7  87833905.73445  21449935.258                    21449936.598
        46.400          35.300
 114716230.710 8  89389292.56445  21829773.242                    21829778.273
        49.500          35.100
 128852860.715 7 100404897.56943  24519894.055                    24519899.930
        42.000          22.300
 18  3 11 14 23 40.0000000  0 19R05R06G14G22R07R14R15R16R23R24R22G03
                                G12G01G17G32G19G24G25
                  96648636.205 4  23245874.289                    23245877.938
                        25.700
                  85757630.651 5  20662642.414                    20662641.898
                        34.600
 121870957.854 7  94964462.02444  23191287.242                    23191291.504
        42.300          24.400
 123923283.128 7  96563632.91744  23581825.195                    23581825.727
        43.700          27.300
                  92068832.792 6  22113298.414                    22113299.453
                        39.000
                  85123941.512 6  20531620.125                    20531620.703
                        37.900
                  81384976.994 5  19581543.609                    19581547.633
                        35.100
                  96306255.540 6  23179797.109                    23179800.320
                        36.300
                  84333056.392 5  20269513.070                    20269517.477
                        35.300
                  87950399.019 4  21146360.977                    21146360.668
                        29.100
                  97793223.037 6  23554242.859                    23554243.520
                        38.400
 126023876.475 6  98200454.13044  23981546.680                    23981552.520
        40.200          25.000
 113008631.141 8  88058683.23045  21504827.383                    21504829.797
        49.800          33.700
 122701592.465 7  95611711.22644  23349352.898                    23349359.074
        42.400          27.000
 116282658.271 8  90609873.36145  22127854.406                    22127857.398
        50.500          35.700
 116683656.284 7  90922372.93245  22204167.102                    22204173.328
        45.400          34.000
 112720072.073 7  87833827.24745  21449916.164                    21449917.344
        46.600          35.200
 114718824.538 8  89391313.73545  21830267.086                    21830272.176
        49.300          34.900
 128849272.982 7 100402101.92443  24519211.000                    24519217.043
        42.000          22.200
 18  3 11 14 23 41.0000000  0 19R05R06G14G22R07R14R15R16R23R24R22G03
                                G12G01G17G32G19G24G25
                  96652296.061 4  23246756.039                    23246758.324
                        25.200
                  85758511.242 5  20662854.586                    20662854.145
                        34.900
 121869054.760 6  94962979.09144  23190924.836                    23190929.047
        40.300          24.700
 123922295.206 7  96562863.11144  23581636.828                    23581637.648
        43.600          27.200
                  92066601.069 6  22112762.156                    22112764.129
                        39.100
                  85126447.723 6  20532222.383                    20532224.887
                        37.700
                  81384713.462 5  19581481.016                    19581484.055
                        34.700
                  96303119.173 6  23179042.031                    23179045.938
                        36.900
                  84334038.647 5  20269749.320                    20269753.293
                        35.800
                  87948257.096 4  21145844.117                    21145846.117
                        29.900
                  97796937.285 6  23555137.492                    23555138.266
                        38.400
 126021537.153 6  98198631.27944  23981100.797                    23981107.723
        39.200          24.900
 113006617.342 8  88057114.03145  21504444.164                    21504446.918
        49.900          33.100
 122704368.663 7  95613874.49744  23349881.078                    23349887.875
        42.700          26.400
 116284025.738 8  90610938.91845  22128114.672                    22128118.020
        50.400          35.500
 116683525.050 7  90922270.67545  22204142.539                    22204148.723
        45.400          34.400
 112719972.224 7  87833749.44545  21449897.594                    21449898.387
        46.400          35.000
 114721418.958 8  89393335.37145  21830760.906                    21830765.941
        49.600          35.100
 128845685.467 7 100399306.46443  24518528.070                    24518534.094
        42.000          20.600
 18  3 11 14 23 42.0000000  0 19R05R06G14G22R07R14R15R16R23R24R22G03
                                G12G01G17G32G19G24G25
                  96655956.155 4  23247636.289                    23247638.840
                        24.900
                  85759392.572 5  20663067.414                    20663066.641
                        35.000
 121867152.167 6  94961496.54744  23190562.039                    23190566.973
        39.000          25.200
 123921307.932 7  96562093.80044  23581449.266                    23581449.762
        44.200          27.700
                  92064369.876 6  22112227.336                    22112227.844
                        39.000
                  85128954.449 6  20532827.078                    20532830.824
                        37.900
                  81384450.631 5  19581417.516                    19581421.063
                        34.800
                  96299982.973 6  23178287.289                    23178291.441
                        36.700
                  84335021.663 6  20269984.977                    20269989.273
                        36.000
                  87946115.813 4  21145331.391                    21145330.781
                        29.900
                  97800651.776 6  23556032.742                    23556033.613
                        38.900
 126019198.346 6  98196808.82843  23980655.867                    23980662.848
        38.600          23.500
 113004604.147 8  88055545.30245  21504060.891                    21504063.281
        50.300          33.200
 122707145.452 7  95616038.23844  23350409.617                    23350415.914
        42.500          25.800
 116285393.866 8  90612004.99245  22128374.883                    22128378.172
        50.500          35.400
 116683394.552 7  90922168.99345  22204117.625                    22204123.145
        45.600          34.600
 112719873.142 7  87833672.23845  21449878.789                    21449879.500
        46.700          34.900
 114724013.984 8  89395357.47845  21831254.398                    21831259.895
        49.200          34.700
 128842098.174 7 100396511.17243  24517845.852                    24517851.754
        42.100          21.500
 18  3 11 14 23 43.0000000  0 19R05R06G14G22R07R14R15R16R23R24R22G03
                                G12G01G17G32G19G24G25
                  96659616.550 4  23248517.086                    23248519.086
                        25.800
                  85760274.631 5  20663279.328                    20663278.914
                        35.000
 121865250.078 6  94960014.40644  23190200.836                    23190204.352
        37.900          25.500
 123920321.220 7  96561324.93244  23581261.813                    23581262.105
        44.500          27.600
                  92062139.171 6  22111691.523                    22111692.441
                        38.900
                  85131461.674 6  20533434.641                    20533434.742
                        38.200
                  81384188.447 5  19581354.656                    19581357.883
                        34.600
                  96296846.998 6  23177530.813                    23177536.254
                        36.400
                  84336005.416 5  20270221.281                    20270225.996
                        35.600
                  87943974.991 4  21144815.195                    21144816.531
                        29.200
                  97804366.472 6  23556926.766                    23556928.395
                        39.100
 126016859.962 6  98194986.72443  23980211.547                    23980217.852
        38.200          23.400
 113002591.524 8  88053977.01745  21503677.898                    21503680.285
        50.000          33.600
 122709922.788 7  95618202.40644  23350938.352                    23350944.551
        42.400          26.100
 116286762.616 8  90613071.54745  22128635.352                    22128638.594
        50.500          35.200
 116683264.763 7  90922067.85545  22204093.398                    22204098.867
        45.800          34.200
 112719774.844 7  87833595.64645  21449859.805                    21449860.828
        46.300          35.000
 114726609.548 8  89397380.00245  21831748.164                    21831753.730
        48.900          34.800
 128838511.044 6 100393715.99843  24517163.109                    24517168.867
        41.900          20.900
 18  3 11 14 23 44.0000000  0 19R05R06G14G22R07R14R15R16R23R24R22G03
                                G12G01G17G32G19G24G25
                  96663277.171 4  23249397.117                    23249399.578
                        26.400
                  85761157.413 5  20663492.438                    20663492.227
                        34.600
 121863348.439 6  94958532.61844  23189839.258                    23189842.324
        37.300          24.200
 123919335.078 7  96560556.51244  23581073.539                    23581074.406
        44.300          27.200
                  92059908.936 6  22111155.805                    22111156.277
                        39.100
                  85133969.360 6  20534037.008                    20534039.344
                        38.300
                  81383926.911 5  19581291.398                    19581294.508
                        34.700
                  96293711.118 6  23176775.922                    23176781.309
                        37.200
                  84336989.893 5  20270458.328                    20270462.012
                        35.900
                  87941834.744 4  21144301.414                    21144301.637
                        29.400
                  97808081.376 6  23557821.711                    23557823.426
                        39.600
 126014522.030 6  98193164.99144  23979766.750                    23979772.762
        38.600          24.700
 113000579.464 8  88052409.16745  21503295.023                    21503297.809
        50.200          33.400
 122712700.654 7  95620366.97944  23351466.891                    23351473.180
        42.100          26.200
 116288131.961 8  90614138.57045  22128895.695                    22128898.711
        50.700          35.500
 116683135.655 7  90921967.25445  22204068.484                    22204073.980
        46.200          34.300
 112719677.296 7  87833519.63845  21449841.445                    21449842.645
        46.300          35.200
 114729205.662 8  89399402.94445  21832242.375                    21832247.422
        49.400          34.900
 128834924.084 6 100390920.97643  24516480.992                    24516486.598
        41.800          21.700
 18  3 11 14 23 45.0000000  0 19R05R06G14G22R07R14R15R16R23R24R22G03
                                G12G01G17G32G19G24G25
                  96666938.066 4  23250277.117                    23250280.371
                        25.200
                  85762040.926 5  20663704.492                    20663704.512
                        34.700
 121861447.337 6  94957051.25944  23189478.281                    23189480.582
        37.800          25.000
 123918349.539 7  96559788.56044  23580886.234                    23580886.738
        44.900          28.300
                  92057679.193 6  22110619.984                    22110620.684
                        38.900
                  85136477.592 6  20534641.734                    20534644.734
                        38.300
                  81383666.033 5  19581228.211                    19581231.887
                        34.900
                  96290575.435 6  23176021.898                    23176026.957
                        36.400
                  84337975.121 6  20270694.852                    20270698.473
                        36.000
                  87939695.019 4  21143786.508                    21143787.457
                        29.500
                  97811796.516 6  23558716.070                    23558718.297
                        39.500
 126012184.617 6  98191343.65044  23979322.547                    23979328.496
        39.300          25.500
 112998567.981 8  88050841.77145  21502912.141                    21502914.434
        50.000          33.800
 122715479.146 6  95622532.04544  23351994.664                    23352002.121
        41.800          24.900
 116289501.938 8  90615206.08545  22129156.813                    22129159.574
        50.800          35.100
 116683007.274 7  90921867.21645  22204044.016                    22204049.594
        46.000          34.100
 112719580.547 7  87833444.25045  21449822.945                    21449823.902
        46.400          35.000
 114731802.362 8  89401426.35345  21832736.695                    21832741.598
        49.600          34.700
 128831337.315 6 100388126.09343  24515798.305                    24515803.855
        41.600          21.300
 18  3 11 14 23 46.0000000  0 19R05R06G14G22R07R14R15R16R23R24R22G03
                                G12G01G17G32G19G24G25
                  96670599.246 4  23251155.867                    23251160.484
                        25.400
                  85762925.183 5  20663917.945                    20663917.031
                        34.400
 121859546.727 6  94955570.29744  23189117.102                    23189118.672
        38.700          26.200
 123917364.608 7  96559021.07844  23580698.523                    23580699.473
        45.200          28.200
                  92055449.975 6  22110084.570                    22110085.332
                        38.600
                  85138986.276 6  20535249.234                    20535249.688
                        38.200
                  81383405.815 5  19581165.953                    19581169.152
                        34.600
                  96287439.883 6  23175266.750                    23175272.250
                        36.000
                  84338961.072 6  20270931.711                    20270936.434
                        36.000
                  87937555.853 4  21143271.391                    21143272.613
                        29.800
                  97815511.878 6  23559610.898                    23559613.297
                        40.100
 126009847.732 6  98189522.71244  23978877.711                    23978883.918
        39.000          24.700
 112996557.089 8  88049274.83645  21502529.195                    21502532.363
        49.500          33.600
 122718258.196 6  95624697.52944  23352523.391                    23352530.813
        41.300          25.700
 116290872.573 8  90616274.11545  22129417.617                    22129420.832
        50.700          35.800
 116682879.603 7  90921767.73245  22204019.930                    22204025.441
        46.000          34.000
 112719484.563 7  87833369.45845  21449804.508                    21449805.367
        46.300          34.900
 114734399.610 8  89403450.18945  21833230.930                    21833236.188
        50.000          35.400
 128827750.698 6 100385331.31643  24515115.766                    24515121.535
        41.800          20.900
 18  3 11 14 23 47.0000000  0 19R05R06G14G22R07R14R15R16R23R24R22G03
                                G12G01G17G32G19G24G25
                  96674260.620 3  23252036.742                    23252040.707
                        23.900
                  85763810.110 5  20664131.313                    20664131.145
                        34.200
 121857646.606 6  94954089.69644  23188755.406                    23188757.438
        39.700          25.600
 123916380.206 7  96558254.01044  23580511.578                    23580512.766
        45.600          28.700
                  92053221.191 6  22109548.875                    22109549.633
                        38.900
                  85141495.438 6  20535852.023                    20535854.945
                        38.600
                  81383146.218 5  19581104.070                    19581106.762
                        35.000
                  96284304.441 5  23174512.398                    23174517.355
                        35.600
                  84339947.725 6  20271168.844                    20271173.340
                        36.000
                  87935417.214 4  21142758.867                    21142758.605
                        28.800
                  97819227.430 6  23560506.117                    23560507.910
                        40.000
 126007511.240 6  98187702.06444  23978433.078                    23978439.172
        39.800          24.800
 112994546.717 8  88047708.31245  21502146.516                    21502149.500
        48.800          33.600
 122721037.802 6  95626863.44244  23353052.547                    23353059.625
        40.300          24.100
 116292243.772 8  90617342.57745  22129678.594                    22129681.574
        51.100          35.600
 116682752.560 7  90921668.74045  22203995.695                    22204001.109
        46.200          33.700
 112719389.312 7  87833295.23945  21449786.438                    21449787.270
        46.400          34.700
 114736997.371 8  89405474.43645  21833724.961                    21833730.078
        49.800          35.400
 128824164.288 6 100382536.69343  24514432.633                    24514438.809
        41.600          20.900
 18  3 11 14 23 48.0000000  0 19R05R06G14G22R07R14R15R16R23R24R22G03
                                G12G01G17G32G19G24G25
                  96677922.276 3  23252918.664                    23252921.648
                        23.900
                  85764695.806 5  20664344.219                    20664344.320
                        34.100
 121855747.014 6  94952609.50444  23188394.242                    23188395.930
        41.200          25.800
 123915396.452 7  96557487.45644  23580324.273                    23580325.238
        45.200          27.900
                  92050992.922 6  22109014.648                    22109014.750
                        39.100
                  85144005.167 6  20536458.156                    20536460.121
                        38.000
                  81382887.326 5  19581041.258                    19581044.648
                        35.000
                  96281169.198 5  23173757.328                    23173763.094
                        34.800
                  84340935.143 6  20271406.258                    20271410.348
                        36.000
                  87933279.105 4  21142243.859                    21142244.629
                        28.100
                  97822943.225 6  23561401.156                    23561403.172
                        39.700
 126005175.282 6  98185881.82544  23977988.688                    23977994.508
        40.300          24.500
 112992536.958 8  88046142.27145  21501764.195                    21501767.293
        48.700          34.100
 122723817.981 6  95629029.80244  23353581.859                    23353588.148
        40.100          25.100
 116293615.628 8  90618411.55245  22129939.680                    22129942.680
        50.800          35.400
 116682626.287 7  90921570.34945  22203971.641                    22203977.184
        46.700          34.200
 112719294.889 7  87833221.66345  21449768.406                    21449769.469
        46.400          34.900
 114739595.755 8  89407499.16345  21834219.430                    21834224.789
        49.600          35.300
 128820578.046 6 100379742.21143  24513750.516                    24513756.043
        40.900          21.100
 18  3 11 14 23 49.0000000  0 19R05R06G14G22R07R14R15R16R23R24R22G03
                                G12G01G17G32G19G24G25
                  96681584.139 4  23253799.586                    23253802.711
                        25.900
                  85765582.254 5  20664557.414                    20664557.699
                        34.300
 121853847.945 7  94951129.70644  23188033.156                    23188034.602
        42.000          27.200
 123914413.265 7  96556721.33344  23580137.313                    23580138.309
        45.100          28.500
                  92048765.172 6  22108478.922                    22108479.578
                        39.300
                  85146515.372 6  20537064.938                    20537065.922
                        37.900
                  81382629.085 5  19580979.039                    19580982.695
                        34.900
                  96278034.182 5  23173003.391                    23173008.359
                        34.700
                  84341923.271 5  20271644.375                    20271648.469
                        35.900
                  87931141.606 4  21141730.305                    21141730.699
                        28.900
                  97826659.254 6  23562295.602                    23562298.199
                        39.900
 126002839.791 6  98184061.94443  23977544.172                    23977550.070
        40.400          23.400
 112990527.771 7  88044576.67945  21501381.820                    21501384.734
        47.500          33.800
 122726598.774 6  95631196.63843  23354112.180                    23354117.699
        40.800          22.800
 116294988.098 8  90619481.00645  22130200.758                    22130203.699
        50.900          35.400
 116682500.719 7  90921472.51245  22203948.023                    22203953.348
        46.800          33.800
 112719201.229 7  87833148.68745  21449750.719                    21449751.711
        46.300          35.300
 114742194.679 8  89409524.31145  21834713.680                    21834719.344
        49.600          35.100
 128816992.021 6 100376947.91143  24513068.422                    24513073.887
        41.100          21.800
 18  3 11 14 23 50.0000000  0 19R05R06G14G22R07R14R15R16R23R24R22G03
                                G12G01G17G32G19G24G25
                  96685246.302 4  23254679.891                    23254683.156
                        25.000
                  85766469.446 5  20664772.680                    20664771.445
                        34.600
 121851949.383 7  94949650.29944  23187671.883                    23187673.488
        42.600          27.200
 123913430.710 7  96555955.71444  23579950.328                    23579951.371
        45.500          28.900
                  92046537.953 6  22107943.977                    22107945.094
                        39.400
                  85149026.099 6  20537669.156                    20537670.496
                        37.800
                  81382371.534 5  19580917.313                    19580920.359
                        35.100
                  96274899.331 5  23172249.016                    23172254.316
                        33.000
                  84342912.164 5  20271881.602                    20271885.781
                        35.600
                  87929004.638 4  21141216.570                    21141217.160
                        29.500
                  97830375.507 6  23563190.367                    23563193.668
                        40.000
 126000504.797 6  98182242.45244  23977099.328                    23977105.906
        39.800          24.700
 112988519.165 7  88043011.54045  21500999.859                    21501002.270
        47.600          33.700
 122729380.172 6  95633363.96644  23354640.945                    23354646.992
        41.800          24.800
 116296361.202 8  90620550.96445  22130461.953                    22130465.191
        51.000          35.000
 116682375.856 7  90921375.21945  22203924.242                    22203929.551
        46.600          34.000
 112719108.377 7  87833076.33945  21449733.070                    21449733.859
        46.300          34.900
 114744794.191 8  89411549.91345  21835208.336                    21835214.129
        49.800          35.100
 128813406.182 6 100374153.74843  24512385.664                    24512391.254
        41.600          21.100
 18  3 11 14 23 51.0000000  0 19R05R06G14G22R07R14R15R16R23R24R22G03
                                G12G01G17G32G19G24G25
                  96688908.735 4  23255561.227                    23255564.023
                        26.300
                  85767357.362 5  20664985.289                    20664985.680
                        34.300
 121850051.303 7  94948171.26544  23187310.219                    23187312.641
        43.300          28.200
 123912448.681 7  96555190.48944  23579763.305                    23579764.461
        45.300          28.900
                  92044311.184 6  22107408.297                    22107410.266
                        39.600
                  85151537.272 6  20538274.461                    20538276.512
                        37.900
                  81382114.605 5  19580855.234                    19580858.086
                        34.900
                  96271764.624 5  23171495.297                    23171499.648
                        32.300
                  84343901.736 5  20272119.445                    20272123.645
                        35.300
                  87926868.168 5  21140703.344                    21140703.102
                        30.000
                  97834091.946 6  23564085.602                    23564088.465
                        39.800
 125998170.245 6  98180423.32844  23976654.258                    23976661.938
        39.600          24.700
 112986511.104 7  88041446.82545  21500617.930                    21500620.496
        47.600          33.800
 122732162.031 7  95635531.64744  23355170.789                    23355176.086
        42.400          25.000
 116297734.907 8  90621621.38645  22130723.188                    22130726.414
        50.900          34.800
 116682251.674 7  90921278.44845  22203900.688                    22203905.965
        46.400          34.200
 112719016.255 7  87833004.55845  21449715.195                    21449716.457
        46.200          34.700
 114747394.229 8  89413575.92345  21835702.641                    21835708.414
        49.500          35.000
 128809820.486 6 100371359.72043  24511703.500                    24511708.723
        41.600          20.900
 18  3 11 14 23 52.0000000  0 19R05R06G14G22R07R14R15R16R23R24R22G03
                                G12G01G17G32G19G24G25
                  96692571.420 4  23256442.477                    23256445.414
                        24.800
                  85768246.082 5  20665199.531                    20665199.684
                        34.800
 121848153.784 7  94946692.66244  23186949.531                    23186951.711
        43.600          28.100
 123911467.318 7  96554425.78744  23579576.516                    23579577.551
        45.000          29.000
                  92042084.939 6  22106874.102                    22106876.250
                        39.600
                  85154048.968 6  20538880.500                    20538882.383
                        38.000
                  81381858.381 5  19580793.156                    19580796.699
                        34.900
                  96268630.112 5  23170740.164                    23170745.664
                        31.400
                  84344892.092 5  20272357.578                    20272361.445
                        35.400
                  87924732.295 4  21140189.758                    21140189.551
                        29.900
                  97837808.665 6  23564981.195                    23564983.594
                        39.600
 125995836.173 6  98178604.58744  23976210.227                    23976217.754
        39.200          25.200
 112984503.676 8  88039882.59745  21500235.938                    21500238.383
        48.200          33.600
 122734944.544 7  95637699.84544  23355700.344                    23355705.422
        42.900          24.500
 116299109.288 8  90622692.33545  22130985.070                    22130988.117
        51.000          35.100
 116682128.232 7  90921182.25545  22203876.914                    22203882.430
        46.500          33.700
 112718924.957 7  87832933.41545  21449698.016                    21449698.977
        46.600          34.700
 114749994.851 8  89415602.37945  21836197.500                    21836203.492
        49.100          34.700
 128806235.034 6 100368565.86543  24511021.164                    24511026.867
        41.800          21.500
 18  3 11 14 23 53.0000000  0 19R05R06G14G22R07R14R15R16R23R24R22G03
                                G12G01G17G32G19G24G25
                  96696234.399 4  23257322.867                    23257326.035
                        24.200
                  85769135.570 5  20665414.484                    20665413.875
                        34.300
 121846256.790 7  94945214.47444  23186587.836                    23186591.102
        43.800          28.800
 123910486.579 7  96553661.56844  23579389.797                    23579391.281
        45.300          28.400
                  92039859.212 6  22106339.539                    22106341.273
                        39.800
                  85156561.192 6  20539485.836                    20539487.832
                        38.000
                  81381602.844 5  19580731.570                    19580734.930
                        35.000
                  96265495.795 4  23169986.375                    23169991.316
                        29.800
                  84345883.236 5  20272595.781                    20272599.613
                        35.600
                  87922596.980 4  21139674.930                    21139675.809
                        29.700
                  97841525.614 6  23565874.969                    23565878.738
                        39.400
 125993502.645 6  98176786.28244  23975766.539                    23975773.875
        39.800          25.600
 112982496.866 8  88038318.84445  21499854.289                    21499856.535
        48.500          33.800
 122737727.596 7  95639868.47744  23356230.398                    23356235.371
        43.400          24.400
 116300484.324 8  90623763.78445  22131246.539                    22131249.563
        51.300          34.700
 116682005.523 7  90921086.63645  22203853.273                    22203858.977
        46.300          34.100
 112718834.482 7  87832862.91745  21449680.813                    21449681.875
        46.300          34.700
 114752596.063 8  89417629.28745  21836692.516                    21836698.445
        48.800          34.900
 128802649.822 6 100365772.18243  24510338.789                    24510344.539
        41.800          21.100
 18  3 11 14 23 54.0000000  0 19R05R06G14G22R07R14R15R16R23R24R22G03
                                G12G01G17G32G19G24G25
                  96699897.625 4  23258204.813                    23258207.531
                        25.300
                  85770025.811 5  20665628.586                    20665627.965
                        34.700
 121844360.316 7  94943736.69644  23186226.766                    23186230.633
        43.800          28.500
 123909506.420 7  96552897.80844  23579203.672                    23579204.570
        45.500          28.900
                  92037633.992 6  22105805.063                    22105806.918
                        40.000
                  85159073.900 6  20540093.703                    20540095.133
                        37.600
                  81381347.985 5  19580670.609                    19580673.988
                        34.400
                  96262361.642 4  23169231.766                    23169237.262
                        28.600
                  84346875.110 5  20272833.875                    20272837.738
                        35.700
                  87920462.216 5  21139162.258                    21139163.430
                        30.100
                  97845242.813 6  23566770.383                    23566774.008
                        39.600
 125991169.575 6  98174968.33544  23975322.891                    23975330.066
        40.400          26.600
 112980490.629 8  88036755.53745  21499472.539                    21499474.746
        48.800          33.600
 122740511.276 7  95642037.59344  23356759.547                    23356764.828
        43.400          24.200
 116301859.988 8  90624835.73345  22131508.430                    22131511.531
        51.200          35.400
 116681883.552 7  90920991.59345  22203830.344                    22203835.832
        46.200          34.400
 112718744.751 7  87832793.00445  21449663.922                    21449664.398
        46.300          34.900
 114755197.828 8  89419656.62345  21837188.016                    21837193.563
        48.900          34.600
 128799064.763 6 100362978.63443  24509657.320                    24509662.516
        41.600          20.900
 18  3 11 14 23 55.0000000  0 19R05R06G14G22R07R14R15R16R23R24R22G03
                                G12G01G17G32G19G24G25
                  96703561.061 4  23259085.563                    23259088.691
                        24.800
                  85770916.758 5  20665843.398                    20665843.141
                        33.800
 121842464.285 7  94942259.27344  23185866.523                    23185870.016
        43.600          29.300
 123908526.805 7  96552134.47344  23579017.289                    23579018.148
        45.200          28.500
                  92035409.227 6  22105270.367                    22105272.793
                        39.600
                  85161587.094 6  20540700.305                    20540700.520
                        37.800
                  81381093.751 5  19580610.258                    19580612.957
                        34.600
                  96259227.634 4  23168478.156                    23168483.680
                        26.100
                  84347867.655 5  20273072.563                    20273076.770
                        35.900
                  87918327.945 4  21138648.680                    21138649.035
                        29.500
                  97848960.176 6  23567664.438                    23567669.465
                        39.200
 125988836.955 6  98173150.72944  23974879.477                    23974886.688
        41.100          24.900
 112978484.938 8  88035192.65645  21499090.633                    21499092.773
        48.900          33.900
 122743295.467 7  95644207.11144  23357289.000                    23357294.730
        42.700          25.400
 116303236.210 8  90625908.11245  22131770.383                    22131773.301
        51.300          35.000
 116681762.193 7  90920897.02645  22203806.922                    22203812.539
        46.200          34.200
 112718655.787 7  87832723.68145  21449647.078                    21449647.918
        46.300          35.000
 114757800.090 8  89421684.35445  21837683.711                    21837689.074
        48.900          34.700
 128795479.853 6 100360185.20443  24508974.117                    24508980.008
        41.500          21.100
 18  3 11 14 23 56.0000000  0 19R05R06G14G22R07R14R15R16R23R24R22G03
                                G12G01G17G32G19G24G25
                  96707224.780 3  23259967.477                    23259969.910
                        23.900
                  85771808.437 5  20666058.000                    20666057.742
                        34.400
 121840568.772 7  94940782.24744  23185505.172                    23185509.328
        43.300          27.400
 123907547.805 7  96551371.61744  23578830.906                    23578832.113
        45.000          27.800
                  92033185.009 6  22104736.891                    22104738.465
                        39.400
                  85164100.809 6  20541304.250                    20541306.480
                        37.800
                  81380840.197 5  19580548.836                    19580551.902
                        35.100
                  96256093.843 3  23167723.305                    23167730.367
                        22.100
                  84348860.952 5  20273311.672                    20273315.961
                        35.800
                  87916194.239 4  21138135.711                    21138137.234
                        29.400
                  97852677.759 6  23568559.688                    23568565.324
                        39.300
 125986504.870 6  98171333.52844  23974436.086                    23974442.691
        41.800          25.600
 112976479.819 8  88033630.22345  21498709.031                    21498711.395
        49.100          34.000
 122746080.228 6  95646377.06544  23357818.508                    23357824.727
        41.600          25.600
 116304613.077 8  90626980.99945  22132032.398                    22132035.301
        50.600          35.500
 116681641.563 7  90920803.02745  22203783.945                    22203789.668
        46.500          34.600
 112718567.606 7  87832654.96945  21449630.070                    21449631.113
        46.500          35.200
 114760402.923 8  89423712.52545  21838179.250                    21838184.367
        49.300          35.500
 128791895.115 7 100357391.89843  24508292.383                    24508297.730
        42.000          21.800
 18  3 11 14 23 57.0000000  0 19R05R06G14G22R07R14R15R16R23R24R22G03
                                G12G01G17G32G19G24G25
                  96710888.754 3  23260847.305                    23260850.508
                        23.300
                  85772700.874 5  20666273.125                    20666273.133
                        34.600
 121838673.769 7  94939305.62444  23185143.789                    23185148.684
        43.200          27.900
 123906569.411 7  96550609.23144  23578644.688                    23578645.840
        45.000          28.400
                  92030961.277 6  22104201.953                    22104203.883
                        39.400
                  85166614.999 6  20541912.328                    20541913.254
                        37.200
                  81380587.325 5  19580487.805                    19580491.086
                        34.400
                                  23166969.328

                  84349855.010 5  20273550.484                    20273553.922
                        35.600
                  87914061.114 4  21137623.109                    21137624.043
                        29.800
                  97856395.584 6  23569454.586                    23569460.809
                        38.600
 125984173.261 7  98169516.69044  23973992.172                    23973999.070
        42.200          25.600
 112974475.311 8  88032068.26445  21498327.625                    21498330.277
        48.900          34.100
 122748865.604 6  95648547.49044  23358348.266                    23358354.309
        41.000          25.500
 116305990.576 8  90628054.37345  22132294.234                    22132297.078
        50.700          35.500
 116681521.677 7  90920709.61345  22203761.633                    22203766.941
        46.400          34.500
 112718480.223 7  87832586.88345  21449613.141                    21449614.328
        46.300          35.300
 114763006.338 8  89425741.15845  21838674.727                    21838679.621
        49.800          35.000
 128788310.634 6 100354598.77543  24507609.898                    24507616.055
        41.700          21.700
 18  3 11 14 23 58.0000000  0 19R05R06G14G22R07R14R15R16R23R24R22G03
                                G12G01G17G32G19G24G25
                  96714552.936 4  23261728.773                    23261731.734
                        25.700
                  85773593.982 5  20666488.305                    20666487.918
                        34.600
 121836779.226 7  94937829.35744  23184783.727                    23184788.449
        42.700          27.900
 123905591.528 7  96549847.24844  23578458.945                    23578459.781
        44.000          28.600
                  92028737.970 6  22103668.516                    22103669.746
                        39.600
                  85169129.630 6  20542519.063                    20542519.582
                        37.800
                  81380335.051 5  19580427.563                    19580430.383
                        34.600
                                  23166213.078

                  84350849.716 5  20273789.000                    20273793.504
                        35.300
                  87911928.445 4  21137110.789                    21137111.246
                        29.900
                  97860113.562 6  23570349.469                    23570355.730
                        38.500
 125981842.050 6  98167700.14844  23973548.172                    23973555.188
        41.300          26.000
 112972471.281 8  88030506.68045  21497945.766                    21497948.824
        48.000          33.400
 122751651.473 6  95650718.28644  23358877.797                    23358884.563
        40.500          26.200
 116307368.630 8  90629128.18345  22132556.531                    22132559.805
        50.700          35.500
 116681402.410 7  90920616.67845  22203738.180                    22203744.582
        46.200          34.000
 112718393.523 7  87832519.32546  21449596.938                    21449597.816
        46.400          36.000
 114765610.193 8  89427770.14245  21839170.117                    21839174.898
        50.300          34.400
 128784726.258 6 100351805.76843  24506927.594                    24506934.066
        41.100          20.900
 18  3 11 14 23 59.0000000  0 19R05R06G14G22R07R14R15R16R23R24R22G03
                                G12G01G17G32G19G24G25
                  96718217.344 4  23262610.719                    23262613.215
                        25.700
                  85774487.844 5  20666703.367                    20666703.305
                        34.900
 121834885.139 7  94936353.44444  23184423.250                    23184428.211
        42.200          28.300
 123904614.230 7  96549085.71644  23578272.422                    23578274.016
        43.900          28.500
                  92026515.144 6  22103134.664                    22103135.871
                        39.300
                  85171644.782 6  20543123.602                    20543126.266
                        37.700
                  81380083.419 5  19580366.555                    19580369.543
                        35.100
                                  23165458.883

                  84351845.151 5  20274028.672                    20274032.426
                        35.800
                  87909796.342 4  21136598.617                    21136599.113
                        28.800
                  97863831.744 6  23571243.617                    23571251.555
                        38.300
 125979511.275 6  98165883.95544  23973104.375                    23973111.973
        41.100          24.800
 112970467.846 7  88028945.56445  21497564.445                    21497567.355
        47.800          33.500
 122754437.898 6  95652889.51544  23359408.258                    23359414.926
        39.800          26.600
 116308747.280 8  90630202.45045  22132818.820                    22132822.164
        50.400          35.000
 116681283.826 7  90920524.27745  22203715.820                    22203721.738
        45.900          34.300
 112718307.614 7  87832452.38645  21449580.773                    21449581.707
        46.600          35.200
 114768214.586 8  89429799.54645  21839665.766                    21839670.688
        50.500          34.900
 128781142.028 6 100349012.87243  24506245.578                    24506252.000
        41.100          20.400
 18  3 11 14 24  0.0000000  0 19R05R06G14G22R07R14R15R16R23R24R22G03
                                G12G01G17G32G19G24G25
                  96721882.096 4  23263491.836                    23263494.859
                        25.800
                  85775382.457 5  20666919.227                    20666919.195
                        34.700
 121832991.599 6  94934877.95744  23184062.500                    23184067.676
        41.600          27.100
 123903637.547 7  96548324.65944  23578086.430                    23578088.266
        44.000          29.000
                  92024292.842 6  22102600.773                    22102601.848
                        38.800
                  85174160.419 6  20543733.031                    20543734.363
                        37.700
                  81379832.484 5  19580306.297                    19580309.527
                        35.100
                                  23164704.172

                  84352841.339 5  20274268.414                    20274272.180
                        35.800
                  87907664.789 4  21136086.031                    21136085.660
                        29.800
                  97867550.174 6  23572140.188                    23572146.688
                        37.400
 125977181.019 6  98164068.15444  23972660.680                    23972668.340
        40.000          24.900
 112968465.000 7  88027384.91045  21497183.242                    21497186.273
        47.900          33.800
 122757224.939 6  95655061.22744  23359939.125                    23359945.453
        40.600          26.300
 116310126.603 8  90631277.25145  22133081.461                    22133084.457
        50.300          35.000
 116681165.994 7  90920432.46345  22203693.539                    22203699.234
        46.000          34.000
 112718222.502 7  87832386.06545  21449564.438                    21449565.348
        46.600          35.400
 114770819.586 8  89431829.42945  21840161.578                    21840166.500
        50.800          34.800
 128777558.021 6 100346220.15443  24505564.539                    24505570.105
        41.200          20.600
 18  3 11 14 24  1.0000000  0 19R05R06G14G22R07R14R15R16R23R24R22G03
                                G12G01G17G32G19G24G25
                  96725547.063 4  23264372.594                    23264375.699
                        24.900
                  85776277.786 5  20667134.914                    20667134.922
                        34.500
 121831098.566 6  94933402.87644  23183701.555                    23183707.613
        40.600          25.800
 123902661.415 7  96547564.04044  23577900.789                    23577902.277
        44.000          28.800
                  92022071.018 6  22102067.125                    22102068.566
                        39.000
                  85176676.577 6  20544339.523                    20544339.426
                        37.800
                  81379582.213 5  19580245.820                    19580249.293
                        35.300
                                  23163949.633

                  84353838.236 5  20274507.625                    20274511.785
                        35.400
                  87905533.751 4  21135573.578                    21135573.969
                        29.500
                  97871268.854 6  23573037.547                    23573042.770
                        37.000
 125974851.230 6  98162252.74344  23972217.164                    23972224.949
        39.200          24.300
 112966462.705 8  88025824.69045  21496802.250                    21496805.457
        48.000          33.700
 122760012.540 6  95657233.36844  23360469.953                    23360476.094
        41.200          26.800
 116311506.487 8  90632352.48445  22133343.750                    22133347.016
        50.200          34.800
 116681048.833 7  90920341.16545  22203671.328                    22203676.676
        45.800          33.400
 112718138.144 7  87832320.33445  21449548.133                    21449549.207
        46.700          35.400
 114773425.087 8  89433859.68745  21840657.453                    21840662.180
        50.700          34.400
 128773974.190 6 100343427.56143  24504882.055                    24504888.016
        41.200          20.100
 18  3 11 14 24  2.0000000  0 19R05R06G14G22R07R14R15R16R23R24R22G03
                                G12G01G17G32G19G24G25
                  96729212.275 4  23265254.320                    23265257.648
                        25.400
                  85777173.875 5  20667349.875                    20667350.668
                        34.400
 121829206.012 6  94931928.17444  23183342.063                    23183347.336
        40.100          25.000
 123901685.887 7  96546803.89644  23577715.563                    23577716.930
        44.200          28.100
                  92019849.722 6  22101533.758                    22101535.121
                        39.700
                  85179193.227 6  20544944.023                    20544946.453
                        37.500
                  81379332.606 5  19580186.063                    19580189.395
                        35.400
                                  23163194.602

                  84354835.885 5  20274747.711                    20274751.348
                        35.700
                  87903403.257 4  21135060.852                    21135061.633
                        29.300
                  97874987.748 6  23573932.922                    23573937.656
                        36.100
 125972521.904 6  98160437.70944  23971773.820                    23971781.535
        39.500          25.300
 112964461.000 8  88024264.93145  21496421.508                    21496424.543
        48.600          33.500
 122762800.688 6  95659405.94544  23361001.586                    23361006.746
        41.900          27.500
 116312887.034 8  90633428.23445  22133606.680                    22133609.723
        50.700          34.600
 116680932.393 7  90920250.43745  22203649.234                    22203654.863
        45.700          33.800
 112718054.581 7  87832255.22745  21449532.648                    21449533.234
        46.800          35.200
 114776031.172 8  89435890.40645  21841153.297                    21841158.324
        50.600          34.700
 128770390.562 6 100340635.13243  24504200.117                    24504206.395
        41.300          21.100
 18  3 11 14 24  3.0000000  0 19R05R06G14G22R07R14R15R16R23R24R22G03
                                G12G01G17G32G19G24G25
                  96732877.778 3  23266136.539                    23266139.590
                        23.300
                  85778070.709 5  20667566.594                    20667566.773
                        34.300
 121827313.995 6  94930453.90044  23182981.523                    23182986.953
        39.800          25.000
 123900710.977 7  96546044.23444  23577529.813                    23577531.035
        43.800          28.800
                  92017628.924 6  22101000.320                    22101001.605
                        39.400
                  85181710.406 6  20545552.617                    20545554.457
                        37.700
                  81379083.672 5  19580126.250                    19580128.754
                        35.400
                                  23162440.117

                  84355834.286 6  20274986.961                    20274991.207
                        36.200
                  87901273.350 4  21134548.875                    21134549.172
                        29.700
                  97878706.843 5  23574830.383                    23574833.766
                        35.300
 125970193.130 6  98158623.10044  23971331.188                    23971338.414
        40.400          25.000
 112962459.896 8  88022705.64145  21496041.188                    21496043.969
        49.000          33.700
 122765589.442 7  95661578.99944  23361531.352                    23361537.500
        42.600          27.300
 116314268.230 8  90634504.49645  22133869.750                    22133872.625
        50.800          34.700
 116680816.692 7  90920160.28645  22203627.188                    22203632.938
        45.800          34.200
 112717971.823 7  87832190.73945  21449516.414                    21449517.398
        46.800          35.500
 114778637.819 8  89437921.56545  21841648.813                    21841654.301
        50.000          35.000
 128766807.148 6 100337842.86643  24503517.766                    24503524.301
        41.400          21.100
 18  3 11 14 24  4.0000000  0 19R05R06G14G22R07R14R15R16R23R24R22G03
                                G12G01G17G32G19G24G25
                  96736543.499 4  23267018.164                    23267020.469
                        26.000
                  85778968.235 5  20667782.727                    20667783.348
                        34.700
 121825422.434 6  94928979.96744  23182622.430                    23182627.051
        39.000          24.200
 123899736.644 7  96545285.01944  23577344.508                    23577346.102
        44.100          28.300
                  92015408.590 6  22100467.086                    22100469.363
                        39.500
                  85184228.069 6  20546160.305                    20546161.586
                        38.100
                  81378835.397 5  19580066.734                    19580069.754
                        35.100
                  96231035.37415  23161687.391                    23161695.813
                        32.500
                  84356833.424 6  20275227.281                    20275231.746
                        36.000
                  87899143.944 4  21134036.656                    21134037.453
                        29.800
                  97882426.165 5  23575727.141                    23575729.461
                        34.800
 125967864.788 6  98156808.81844  23970888.133                    23970895.125
        40.700          25.300
 112960459.367 8  88021146.78945  21495660.617                    21495662.977
        48.200          33.600
 122768378.696 7  95663752.45244  23362062.266                    23362068.633
        42.700          27.400
 116315650.011 8  90635581.20645  22134132.680                    22134135.238
        50.700          35.200
 116680701.687 7  90920070.67345  22203605.266                    22203610.676
        45.800          34.300
 112717889.819 7  87832126.84045  21449501.063                    21449502.184
        46.400          35.400
 114781245.004 8  89439953.14145  21842144.859                    21842150.422
        49.700          35.300
 128763223.896 6 100335050.71543  24502836.625                    24502842.570
        41.500          20.900
 18  3 11 14 24  5.0000000  0 19R05R06G14G22R07R14R15R16R23R24R22G03
                                G12G01G17G32G19G24G25
                  96740209.464 3  23267900.367                    23267902.453
                        23.900
                  85779866.522 5  20667999.625                    20667999.793
                        34.100
 121823531.425 6  94927506.46944  23182262.914                    23182266.828
        39.400          24.500
 123898762.926 7  96544526.28044  23577159.297                    23577159.973
        44.200          28.200
                  92013188.792 6  22099933.664                    22099935.348
                        39.100
                  85186746.217 6  20546766.813                    20546768.605
                        37.900
                  81378587.788 5  19580006.531                    19580009.746
                        35.000
                  96227903.04415  23160933.477                    23160941.320
                        33.600
                  84357833.315 5  20275467.828                    20275471.734
                        35.800
                  87897015.126 5  21133524.578                    21133525.102
                        30.100
                  97886145.727 5  23576623.047                    23576625.215
                        34.000
 125965536.938 6  98154994.90644  23970445.633                    23970452.336
        41.100          26.400
 112958459.413 8  88019588.38045  21495280.258                    21495282.398
        49.100          33.600
 122771168.592 7  95665926.40044  23362592.867                    23362599.426
        42.500          26.000
 116317032.424 8  90636658.41345  22134395.648                    22134398.504
        50.900          35.300
 116680587.361 7  90919981.59145  22203583.508                    22203589.273
        46.200          34.000
 112717808.596 7  87832063.54345  21449485.234                    21449486.516
        46.600          35.200
 114783852.750 8  89441985.15845  21842640.766                    21842646.605
        49.800          34.400
 128759640.819 7 100332258.70343  24502154.789                    24502160.750
        42.100          21.300
 18  3 11 14 24  6.0000000  0 19R05R06G14G22R07R14R15R16R23R24R22G03
                                G12G01G17G32G19G24G25
                  96743875.665 4  23268780.711                    23268784.438
                        25.500
                  85780765.495 5  20668216.266                    20668215.836
                        35.100
 121821640.879 6  94926033.33044  23181903.758                    23181906.938
        40.500          24.500
 123897789.737 7  96543767.94744  23576973.727                    23576975.051
        43.600          28.500
                  92010969.463 6  22099400.516                    22099402.391
                        39.100
                  85189264.818 6  20547374.750                    20547376.348
                        38.300
                  81378340.795 5  19579946.992                    19579950.578
                        34.800
                  96224770.867 5  23160181.109                    23160187.184
                        34.600
                  84358833.885 5  20275708.703                    20275712.742
                        35.800
                  87894886.814 4  21133012.516                    21133013.707
                        29.200
                  97889865.481 5  23577519.211                    23577520.883
                        32.100
 125963209.531 6  98153181.34444  23970002.320                    23970009.398
        40.900          24.900
 112956460.002 8  88018030.38645  21494899.484                    21494901.820
        49.500          33.600
 122773958.941 7  95668100.71844  23363122.727                    23363130.473
        42.100          26.600
 116318415.427 8  90637736.07845  22134659.094                    22134661.766
        51.100          35.400
 116680473.697 7  90919893.02245  22203561.961                    22203567.496
        45.800          34.600
 112717728.082 7  87832000.80745  21449470.516                    21449471.160
        46.800          34.900
 114786461.022 8  89444017.58545  21843137.281                    21843142.957
        49.500          34.500
 128756057.915 7 100329466.82243  24501472.844                    24501478.789
        42.600          21.300
 18  3 11 14 24  7.0000000  0 19R05R06G14G22R07R14R15R16R23R24R22G03
                                G12G01G17G32G19G24G25
                  96747542.173 4  23269663.797                    23269665.715
                        25.400
                  85781665.286 5  20668433.531                    20668432.891
                        34.100
 121819750.864 6  94924560.59344  23181544.031                    23181546.816
        41.400          25.100
 123896817.192 7  96543010.12144  23576789.125                    23576789.977
        43.600          28.900
                  92008750.679 6  22098868.141                    22098869.375
                        39.000
                  85191783.986 6  20547981.422                    20547983.594
                        38.300
                  81378094.505 5  19579888.031                    19579891.586
                        34.600
                  96221638.879 5  23159427.586                    23159433.145
                        35.300
                  84359835.244 5  20275948.445                    20275953.547
                        35.300
                  87892759.114 4  21132501.367                    21132502.348
                        29.900
                  97893585.508 5  23578415.344                    23578417.090
                        30.800
 125960882.679 6  98151368.19444  23969559.719                    23969566.555
        40.600          25.500
 112954461.224 8  88016472.88545  21494519.344                    21494521.672
        49.700          34.100
 122776749.990 6  95670275.56744  23363654.320                    23363661.359
        41.800          26.300
 116319799.070 8  90638814.24145  22134922.109                    22134925.227
        50.800          35.700
 116680360.821 7  90919805.06845  22203540.766                    22203546.141
        45.700          34.000
 112717648.424 7  87831938.73345  21449455.164                    21449456.316
        46.800          35.200
 114789069.883 8  89446050.46445  21843633.555                    21843639.359
        49.300          35.100
 128752475.232 7 100326675.11543  24500791.289                    24500797.199
        42.600          21.700
 18  3 11 14 24  8.0000000  0 19R05R06G14G22R07R14R15R16R23R24R22G03
                                G12G01G17G32G19G24G25
                  96751208.917 4  23270545.734                    23270548.328
                        26.300
                  85782565.823 5  20668650.547                    20668650.563
                        34.900
 121817861.370 7  94923088.25344  23181184.766                    23181186.738
        42.900          25.400
 123895845.232 7  96542252.74644  23576603.906                    23576604.832
        43.200          28.100
                  92006532.361 6  22098335.484                    22098336.094
                        38.900
                  85194303.632 6  20548590.375                    20548591.789
                        38.100
                  81377848.867 5  19579828.758                    19579832.172
                        34.600
                  96218507.063 5  23158675.836                    23158678.934
                        35.800
                  84360837.303 5  20276189.758                    20276193.801
                        35.800
                  87890631.957 4  21131990.688                    21131990.930
                        29.500
                  97897305.750 4  23579311.836                    23579312.254
                        29.300
 125958556.251 6  98149555.38444  23969116.023                    23969124.223
        39.800          24.000
 112952462.997 8  88014915.81445  21494139.016                    21494141.188
        49.500          34.400
 122779541.569 6  95672450.83444  23364185.422                    23364192.516
        41.000          25.100
 116321183.331 8  90639892.89445  22135185.422                    22135188.570
        50.500          35.800
 116680248.604 7  90919717.62545  22203519.297                    22203524.422
        46.000          34.100
 112717569.533 7  87831877.25645  21449440.047                    21449441.227
        46.300          35.400
 114791679.288 8  89448083.76045  21844130.008                    21844135.852
        49.000          34.900
 128748892.726 7 100323883.53843  24500109.648                    24500115.461
        42.200          21.700
 18  3 11 14 24  9.0000000  0 19R05R06G14G22R07R14R15R16R23R24R22G03
                                G12G01G17G32G19G24G25
                  96754875.929 4  23271425.711                    23271430.188
                        24.300
                  85783467.135 5  20668867.656                    20668867.137
                        35.200
 121815972.399 7  94921616.31844  23180825.016                    23180827.426
        43.800          26.600
 123894873.881 7  96541495.85544  23576418.680                    23576420.051
        42.900          27.900
                  92004314.532 6  22097802.867                    22097803.664
                        38.900
                  85196823.775 6  20549198.289                    20549199.219
                        37.900
                  81377603.905 5  19579770.516                    19579773.125
                        35.200
                  96215375.439 6  23157921.570                    23157925.535
                        36.400
                  84361840.123 5  20276431.258                    20276435.023
                        35.400
                  87888505.315 4  21131478.289                    21131479.723
                        29.100
                  97901026.213 4  23580206.969                    23580208.141
                        29.000
 125956230.322 6  98147742.96544  23968673.594                    23968681.234
        39.300          24.200
 112950465.357 8  88013359.21345  21493758.359                    21493761.289
        49.300          33.800
 122782333.743 6  95674626.55244  23364717.273                    23364723.594
        40.900          25.000
 116322568.230 8  90640972.03845  22135448.883                    22135451.930
        50.400          35.100
 116680137.108 7  90919630.74045  22203498.180                    22203503.570
        46.400          34.900
 112717491.417 7  87831816.38145  21449425.492                    21449426.277
        46.300          34.500
 114794289.284 8  89450117.51645  21844626.883                    21844632.469
        49.400          34.900
 128745310.398 7 100321092.11243  24499428.008                    24499433.426
        42.300          21.500
 18  3 11 14 24 10.0000000  0 19R05R06G14G22R07R14R15R16R23R24R22G03
                                G12G01G17G32G19G24G25
                  96758543.184 4  23272308.492                    23272312.352
                        26.500
                  85784369.169 5  20669083.984                    20669084.848
                        34.600
 121814083.894 7  94920144.75044  23180465.758                    23180467.863
        44.500          26.900
 123893903.113 7  96540739.41944  23576234.375                    23576235.738
        43.000          28.600
                  92002097.177 6  22097270.438                    22097271.277
                        38.500
                  85199344.396 6  20549805.266                    20549807.094
                        37.700
                  81377359.579 5  19579710.945                    19579714.645
                        34.900
                  96212243.942 6  23157168.477                    23157171.512
                        36.500
                  84362843.635 5  20276671.805                    20276676.020
                        35.500
                  87886379.224 4  21130967.609                    21130968.152
                        28.500
                  97904746.869 4  23581103.688                    23581103.457
                        29.800
 125953904.804 6  98145930.88143  23968230.984                    23968238.500
        38.300          22.900
 112948468.285 8  88011803.04545  21493378.258                    21493381.070
        49.400          33.800
 122785126.439 6  95676802.66344  23365248.914                    23365255.285
        40.800          27.300
 116323953.708 8  90642051.63445  22135712.398                    22135715.578
        50.800          35.100
 116680026.292 7  90919544.38545  22203477.367                    22203482.367
        46.700          34.600
 112717414.063 7  87831756.11045  21449410.586                    21449411.328
        46.400          34.900
 114796899.770 8  89452151.65345  21845124.227                    21845129.613
        49.300          35.000
 128741728.246 7 100318300.82543  24498746.305                    24498751.711
        42.000          21.700
 18  3 11 14 24 11.0000000  0 19R05R06G14G22R07R14R15R16R23R24R22G03
                                G12G01G17G32G19G24G25
                  96762210.699 4  23273192.453                    23273195.188
                        25.800
                  85785271.956 5  20669301.719                    20669302.457
                        34.600
 121812195.931 7  94918673.60344  23180106.594                    23180108.352
        45.500          26.900
 123892932.934 7  96539983.44444  23576049.641                    23576050.965
        42.400          28.200
                  91999880.342 6  22096737.594                    22096738.586
                        38.800
                  85201865.518 6  20550414.164                    20550415.973
                        37.600
                  81377115.918 5  19579652.766                    19579655.566
                        35.000
                  96209112.646 6  23156413.672                    23156417.922
                        37.200
                  84363847.892 5  20276913.031                    20276917.457
                        35.700
                  87884253.647 4  21130456.156                    21130457.395
                        28.200
                  97908467.771 4  23582000.594                    23581998.648
                        28.500
 125951579.815 6  98144119.22343  23967789.211                    23967795.406
        38.600          23.200
 112946471.795 8  88010247.33945  21492997.914                    21493001.145
        48.600          34.100
 122787919.729 6  95678979.24144  23365780.227                    23365786.535
        41.100          25.600
 116325339.845 8  90643131.73145  22135976.383                    22135979.531
        50.900          35.100
 116679916.208 7  90919458.60645  22203455.844                    22203461.695
        46.800          33.900
 112717337.496 7  87831696.45045  21449396.070                    21449396.848
        46.400          35.000
 114799510.837 8  89454186.24945  21845620.555                    21845626.316
        48.800          34.600
 128738146.302 7 100315509.70743  24498064.250                    24498070.344
        42.500          21.700
 18  3 11 14 24 12.0000000  0 19R05R06G14G22R07R14R15R16R23R24R22G03
                                G12G01G17G32G19G24G25
                  96765878.482 4  23274073.703                    23274077.215
                        24.800
                  85786175.458 5  20669519.992                    20669520.496
                        34.800
 121810308.433 7  94917202.81244  23179747.234                    23179749.258
        45.900          27.300
 123891963.307 7  96539227.88744  23575865.594                    23575866.766
        42.400          28.900
                  91997664.001 6  22096205.281                    22096206.535
                        39.300
                  85204387.151 6  20551022.711                    20551023.453
                        37.800
                  81376872.927 5  19579594.102                    19579596.840
                        34.600
                  96205981.474 6  23155660.391                    23155664.141
                        37.200
                  84364852.850 5  20277155.242                    20277159.168
                        35.600
                  87882128.585 4  21129945.125                    21129946.676
                        29.900
                  97912188.866 5  23582896.578                    23582895.000
                        31.000
 125949255.265 6  98142307.90244  23967346.828                    23967353.102
        39.500          24.800
 112944475.842 8  88008692.05845  21492617.914                    21492621.379
        48.200          33.300
 122790713.554 6  95681156.24544  23366312.039                    23366317.938
        41.400          26.500
 116326726.560 8  90644212.28845  22136240.086                    22136243.641
        50.700          34.900
 116679806.807 7  90919373.34845  22203435.383                    22203441.027
        46.500          33.600
 112717261.667 7  87831637.36445  21449381.477                    21449382.496
        46.700          35.300
 114802122.438 8  89456221.26545  21846117.836                    21846123.266
        48.500          35.100
 128734564.545 7 100312718.73843  24497382.906                    24497388.738
        42.200          22.000
 18  3 11 14 24 13.0000000  0 19R05R06G14G22R07R14R15R16R23R24R22G03
                                G12G01G17G32G19G24G25
                  96769546.434 4  23274956.492                    23274958.633
                        24.200
                  85787079.684 5  20669736.688                    20669737.820
                        35.200
 121808421.408 7  94915732.38844  23179387.617                    23179389.945
        46.100          28.000
 123890994.264 7  96538472.78444  23575680.852                    23575681.895
        42.900          28.300
                  91995448.152 6  22095673.023                    22095673.969
                        39.500
                  85206909.248 6  20551630.445                    20551632.469
                        37.700
                  81376630.577 5  19579536.273                    19579538.758
                        34.800
                  96202850.465 6  23154906.500                    23154910.301
                        36.500
                  84365858.538 5  20277396.617                    20277400.645
                        35.800
                  87880004.095 4  21129435.172                    21129435.773
                        29.000
                  97915910.138 5  23583792.531                    23583790.680
                        31.700
 125946931.196 6  98140496.93743  23966905.297                    23966910.434
        40.600          22.200
 112942480.438 7  88007137.20745  21492238.484                    21492241.402
        47.600          33.600
 122793507.907 7  95683333.66544  23366844.406                    23366850.199
        42.400          25.700
 116328113.875 8  90645293.31045  22136504.516                    22136506.977
        50.800          35.200
 116679698.055 7  90919288.60245  22203414.195                    22203419.898
        46.600          33.500
 112717186.614 7  87831578.88245  21449367.203                    21449368.344
        46.400          35.000
 114804734.563 8  89458256.69245  21846614.609                    21846620.051
        48.800          34.900
 128730982.910 7 100309927.85243  24496701.195                    24496707.371
        42.100          21.700
 18  3 11 14 24 14.0000000  0 19R05R06G14G22R07R14R15R16R23R24R22G03
                                G12G01G17G32G19G24G25
                  96773214.659 4  23275838.867                    23275841.148
                        25.700
                  85787984.683 5  20669955.523                    20669956.207
                        35.200
 121806534.962 7  94914262.42144  23179028.703                    23179031.020
        46.100          27.700
 123890025.862 7  96537718.18144  23575496.258                    23575497.641
        43.000          27.600
                  91993232.838 6  22095140.570                    22095142.500
                        39.400
                  85209431.858 6  20552238.930                    20552240.770
                        37.700
                  81376388.937 5  19579477.852                    19579480.930
                        34.700
                  96199719.698 6  23154154.227                    23154157.348
                        36.800
                  84366865.008 6  20277638.508                    20277642.527
                        36.000
                  87877880.135 4  21128922.797                    21128925.016
                        28.900
                  97919631.680 5  23584689.172                    23584686.633
                        33.400
 125944607.663 6  98138686.37344  23966463.141                    23966468.527
        41.100          24.600
 112940485.690 7  88005582.86445  21491859.227                    21491861.930
        47.700          33.500
 122796302.917 7  95685511.59544  23367376.281                    23367381.992
        42.500          26.000
 116329501.866 8  90646374.86045  22136768.617                    22136771.527
        50.700          35.200
 116679590.098 7  90919204.47945  22203393.930                    22203399.414
        46.600          34.000
 112717112.388 7  87831521.04045  21449353.086                    21449353.957
        46.300          35.400
 114807347.307 8  89460292.59245  21847112.344                    21847117.410
        48.900          35.100
 128727401.526 6 100307137.15043  24496019.336                    24496025.949
        41.100          21.100
 18  3 11 14 24 15.0000000  0 19R05R06G14G22R07R14R15R16R23R24R22G03
                                G12G01G17G32G19G24G25
                  96776883.146 4  23276721.320                    23276723.301
                        24.200
                  85788890.405 5  20670173.570                    20670174.223
                        35.100
 121804649.002 7  94912792.84444  23178669.453                    23178673.016
        46.200          28.100
 123889058.049 7  96536964.04344  23575312.203                    23575313.211
        43.100          26.700
                  91991017.994 6  22094608.023                    22094610.441
                        39.300
                  85211954.968 6  20552847.211                    20552849.242
                        38.000
                  81376147.971 5  19579419.406                    19579422.961
                        35.200
                  96196589.063 6  23153400.719                    23153403.641
                        36.700
                  84367872.208 6  20277880.836                    20277884.262
                        36.200
                  87875756.779 4  21128413.758                    21128414.555
                        28.500
                  97923353.420 5  23585585.820                    23585582.805
                        33.400
 125942284.596 6  98136876.18843  23966021.719                    23966026.570
        41.100          22.600
 112938491.495 8  88004028.96145  21491480.219                    21491482.246
        48.400          33.600
 122799098.452 7  95687689.93144  23367908.242                    23367914.434
        42.900          25.900
 116330890.455 8  90647456.87545  22137032.586                    22137035.625
        50.700          34.600
 116679482.816 7  90919120.87945  22203373.383                    22203378.813
        46.700          34.000
 112717038.928 7  87831463.80145  21449339.219                    21449339.863
        46.600          35.700
 114809960.594 8  89462328.92245  21847609.516                    21847614.453
        49.600          34.900
 128723820.343 6 100304346.61843  24495337.945                    24495344.656
        41.200          20.900
 18  3 11 14 24 16.0000000  0 19R05R06G14G22R07R14R15R16R23R24R22G03
                                G12G01G17G32G19G24G25
                  96780551.885 4  23277603.656                    23277605.984
                        24.000
                  85789796.888 5  20670392.102                    20670392.762
                        34.600
 121802763.592 7  94911323.69344  23178310.703                    23178314.563
        45.700          26.500
 123888090.864 7  96536210.39644  23575128.359                    23575129.266
        42.900          27.400
                  91988803.702 6  22094076.703                    22094078.430
                        39.100
                  85214478.576 6  20553456.469                    20553457.770
                        37.400
                  81375907.686 5  19579362.438                    19579365.254
                        34.900
                  96193458.625 6  23152646.172                    23152650.234
                        36.800
                  84368880.176 5  20278122.641                    20278126.949
                        35.800
                  87873633.974 4  21127903.125                    21127903.781
                        28.600
                  97927075.418 5  23586482.148                    23586480.105
                        34.600
 125939962.050 6  98135066.39343  23965578.836                    23965584.188
        41.100          22.600
 112936497.910 8  88002475.52145  21491100.945                    21491103.266
        49.200          33.700
 122801894.582 7  95689868.74744  23368439.773                    23368446.375
        43.200          24.400
 116332279.711 8  90648539.41345  22137297.219                    22137300.184
        50.900          35.000
 116679376.290 7  90919037.86645  22203353.563                    22203358.828
        46.800          33.700
 112716966.260 7  87831407.16745  21449325.523                    21449325.887
        46.800          35.500
 114812574.447 8  89464365.69745  21848107.008                    21848111.992
        50.000          34.900
 128720239.332 6 100301556.22343  24494656.008                    24494662.910
        40.400          20.600
 18  3 11 14 24 17.0000000  0 19R05R06G14G22R07R14R15R16R23R24R22G03
                                G12G01G17G32G19G24G25
                  96784220.867 4  23278486.508                    23278488.656
                        25.300
                  85790704.078 5  20670610.289                    20670611.535
                        34.900
 121800878.608 7  94909854.87444  23177952.430                    23177955.727
        45.900          27.600
 123887124.236 7  96535457.18744  23574944.219                    23574945.367
        42.500          26.300
                  91986589.870 6  22093545.063                    22093546.469
                        39.400
                  85217002.685 6  20554064.820                    20554066.586
                        37.300
                  81375668.049 5  19579303.805                    19579307.906
                        35.100
                  96190328.301 6  23151893.508                    23151896.555
                        36.800
                  84369888.837 5  20278365.453                    20278369.445
                        35.900
                  87871511.675 4  21127392.188                    21127394.078
                        29.500
                  97930797.604 5  23587378.422                    23587376.391
                        34.700
 125937639.918 6  98133256.93243  23965136.297                    23965142.313
        39.900          23.000
 112934504.884 8  88000922.50445  21490721.914                    21490723.879
        49.600          34.200
 122804691.262 7  95692047.98644  23368972.047                    23368978.590
        42.600          26.100
 116333669.541 8  90649622.39845  22137561.383                    22137564.215
        50.900          35.200
 116679270.412 7  90918955.36245  22203333.008                    22203338.762
        46.600          34.400
 112716894.356 7  87831351.13545  21449311.914                    21449312.582
        46.400          35.700
 114815188.822 8  89466402.87945  21848605.008                    21848609.840
        50.700          35.300
 128716658.497 6 100298765.97743  24493975.383                    24493981.449
        40.900          21.100
 18  3 11 14 24 18.0000000  0 19R05R06G14G22R07R14R15R16R23R24R22G03
                                G12G01G17G32G19G24G25
                  96787890.106 4  23279368.633                    23279371.016
                        24.500
                  85791611.998 5  20670829.258                    20670830.012
                        34.700
 121798994.169 7  94908386.47944  23177593.438                    23177597.270
        45.100          28.400
 123886158.199 7  96534704.43144  23574760.336                    23574760.805
        42.500          27.000
                  91984376.553 6  22093013.094                    22093015.426
                        39.100
                  85219527.299 6  20554673.234                    20554675.520
                        37.700
                  81375429.079 5  19579246.828                    19579250.156
                        35.300
                  96187198.172 6  23151140.219                    23151143.277
                        36.500
                  84370898.241 6  20278607.828                    20278612.102
                        36.000
                  87869389.956 4  21126882.836                    21126883.207
                        29.400
                  97934519.993 5  23588276.188                    23588273.609
                        35.800
 125935318.267 6  98131447.84344  23964694.461                    23964700.680
        39.100          24.200
 112932512.431 8  87999369.93445  21490342.617                    21490344.914
        49.800          34.000
 122807488.487 7  95694227.65244  23369503.781                    23369510.746
        42.100          25.600
 116335059.994 8  90650705.87445  22137825.789                    22137828.902
        51.200          34.900
 116679165.251 7  90918873.41845  22203313.008                    22203318.746
        46.300          33.700
 112716823.224 7  87831295.70045  21449298.453                    21449299.176
        46.600          35.700
 114817803.772 8  89468440.51345  21849102.492                    21849107.703
        51.100          34.800
 128713077.851 6 100295975.88243  24493293.172                    24493299.805
        41.000          20.100
 18  3 11 14 24 19.0000000  0 19R05R06G14G22R07R14R15R16R23R24R22G03
                                G12G01G17G32G19G24G25
                  96791559.659 4  23280249.969                    23280253.129
                        24.500
                  85792520.687 5  20671048.273                    20671049.457
                        34.700
 121797110.243 7  94906918.49044  23177234.859                    23177239.152
        44.800          27.800
 123885192.777 7  96533952.15944  23574576.773                    23574577.379
        42.000          27.100
                  91982163.730 6  22092482.172                    22092483.246
                        38.900
                  85222052.391 6  20555283.781                    20555285.047
                        37.700
                  81375190.799 5  19579189.281                    19579192.336
                        34.900
                  96184068.253 5  23150385.883                    23150390.102
                        35.800
                  84371908.386 5  20278851.109                    20278855.016
                        35.800
                  87867268.754 4  21126372.313                    21126372.746
                        27.800
                  97938242.639 6  23589172.422                    23589170.352
                        36.200
 125932997.165 6  98129639.19743  23964252.008                    23964258.883
        38.800          23.600
 112930520.591 8  87997817.83545  21489963.531                    21489965.688
        49.800          33.900
 122810286.336 7  95696407.79644  23370036.242                    23370043.043
        42.200          25.700
 116336451.096 8  90651789.84345  22138090.664                    22138094.016
        51.200          35.000
 116679060.825 7  90918792.04545  22203292.914                    22203298.945
        46.100          33.900
 112716752.901 7  87831240.91345  21449285.023                    21449285.707
        46.400          35.000
 114820419.294 8  89470478.58545  21849600.141                    21849604.938
        51.000          35.000
 128709497.435 6 100293185.95143  24492611.992                    24492619.051
        40.700          19.600
 18  3 11 14 24 20.0000000  0 19R05R06G14G22R07R14R15R16R23R24R22G03
                                G12G01G17G32G19G24G25
                  96795229.458 4  23281133.820                    23281136.488
                        26.500
                  85793430.163 5  20671267.414                    20671268.629
                        34.600
 121795226.870 7  94905450.94144  23176876.008                    23176881.031
        45.000          27.800
 123884228.022 6  96533200.40944  23574393.523                    23574394.023
        41.900          27.100
                  91979951.432 6  22091950.609                    22091951.566
                        38.900
                  85224578.018 6  20555891.641                    20555894.164
                        38.000
                  81374953.199 5  19579132.195                    19579135.547
                        35.200
                  96180938.504 5  23149633.031                    23149636.832
                        35.500
                  84372919.296 5  20279094.383                    20279098.137
                        35.800
                  87865148.124 4  21125863.656                    21125863.313
                        29.300
                  97941965.519 5  23590068.438                    23590067.000
                        35.800
 125930676.513 6  98127830.91043  23963811.078                    23963817.117
        38.800          22.800
 112928529.367 8  87996266.21945  21489584.227                    21489586.633
        49.500          34.400
 122813084.784 6  95698588.41244  23370568.656                    23370575.816
        41.700          24.700
 116337842.861 8  90652874.33645  22138355.711                    22138358.949
        51.000          34.800
 116678957.125 7  90918711.24245  22203272.930                    22203279.246
        45.800          34.600
 112716683.375 7  87831186.73745  21449271.695                    21449272.375
        46.400          35.200
 114823035.391 8  89472517.11245  21850097.742                    21850102.977
        50.700          35.200
 128705917.228 6 100290396.17743  24491930.461                    24491937.605
        40.800          18.600
 18  3 11 14 24 21.0000000  0 19R05R06G14G22R07R14R15R16R23R24R22G03
                                G12G01G17G32G19G24G25
                  96798899.503 4  23282015.625                    23282018.941
                        25.600
                  85794340.334 5  20671487.234                    20671488.414
                        35.000
 121793343.971 7  94903983.75144  23176517.836                    23176522.789
        44.500          27.500
 123883263.786 7  96532449.06244  23574210.172                    23574210.238
        42.300          27.800
                  91977739.599 6  22091419.086                    22091420.695
                        38.700
                  85227104.115 6  20556501.305                    20556502.879
                        37.900
                  81374716.244 5  19579075.008                    19579078.469
                        34.700
                  96177808.919 5  23148880.219                    23148883.469
                        33.600
                  84373930.907 6  20279336.945                    20279341.230
                        36.300
                  87863028.046 4  21125352.945                    21125353.141
                        29.500
                  97945688.585 6  23590965.484                    23590964.504
                        36.500
 125928356.366 6  98126023.02443  23963369.766                    23963375.664
        39.400          23.300
 112926538.679 8  87994715.02645  21489205.188                    21489208.012
        49.500          34.700
 122815883.775 6  95700769.43844  23371101.242                    23371108.211
        41.700          25.000
 116339235.218 8  90653959.29245  22138620.398                    22138623.590
        50.700          35.000
 116678854.105 7  90918630.97045  22203253.539                    22203259.777
        45.800          34.200
 112716614.617 7  87831133.16345  21449258.391                    21449259.148
        46.600          35.300
 114825652.022 8  89474556.05145  21850594.961                    21850600.754
        50.700          34.900
 128702337.150 6 100287606.51742  24491249.852                    24491256.355
        40.400          17.800
 18  3 11 14 24 22.0000000  0 19R05R06G14G22R07R14R15R16R23R24R22G03
                                G12G01G17G32G19G24G25
                  96802569.777 4  23282899.414                    23282901.449
                        25.000
                  85795251.265 5  20671705.922                    20671707.422
                        35.500
 121791461.579 7  94902516.96144  23176159.531                    23176165.035
        43.700          27.200
 123882300.167 7  96531698.20244  23574026.727                    23574026.934
        42.700          28.100
                  91975528.287 6  22090887.672                    22090889.184
                        38.800
                  85229630.712 6  20557110.828                    20557112.820
                        37.700
                  81374479.951 5  19579018.977                    19579021.473
                        34.500
                  96174679.502 5  23148126.000                    23148130.535
                        33.100
                  84374943.256 6  20279580.430                    20279584.129
                        36.000
                  87860908.512 4  21124843.516                    21124844.387
                        28.400
                  97949411.882 6  23591861.773                    23591861.277
                        37.700
 125926036.727 6  98124215.51743  23962928.930                    23962933.945
        39.900          22.200
 112924548.582 8  87993164.30445  21488826.453                    21488829.984
        49.200          34.300
 122818683.342 6  95702950.91943  23371633.703                    23371640.547
        41.200          22.600
 116340628.197 8  90655044.72945  22138885.359                    22138888.840
        51.100          35.300
 116678751.806 7  90918551.26045  22203233.898                    22203240.086
        45.700          34.200
 112716546.642 7  87831080.19445  21449245.352                    21449246.379
        46.600          35.500
 114828269.229 8  89476595.44345  21851092.875                    21851098.977
        50.400          35.200
 128698757.291 6 100284817.04343  24490568.359                    24490574.645
        40.500          19.000
 18  3 11 14 24 23.0000000  0 19R05R06G14G22R07R14R15R16R23R24R22G03
                                G12G01G17G32G19G24G25
                  96806240.288 3  23283782.945                    23283784.156
                        23.800
                  85796162.896 5  20671925.398                    20671926.914
                        35.200
 121789579.674 7  94901050.54044  23175801.305                    23175806.398
        43.100          28.900
 123881337.126 7  96530947.78144  23573843.750                    23573843.672
        42.600          27.800
                  91973317.446 6  22090356.594                    22090358.250
                        39.100
                  85232157.807 6  20557720.547                    20557721.941
                        38.000
                  81374244.308 5  19578962.344                    19578965.461
                        34.900
                  96171550.247 5  23147373.914                    23147377.047
                        32.400
                  84375956.297 6  20279824.039                    20279828.070
                        36.100
                  87858789.557 4  21124333.930                    21124334.395
                        29.500
                  97953135.377 6  23592759.227                    23592758.875
                        37.700
 125923717.492 6  98122408.32443  23962487.930                    23962492.410
        40.900          23.400
 112922559.028 8  87991614.00145  21488447.867                    21488451.043
        49.000          34.500
 122821483.455 6  95705132.82844  23372166.273                    23372173.344
        40.500          25.000
 116342021.772 8  90656130.63345  22139150.828                    22139153.965
        51.300          35.300
 116678650.159 7  90918472.05545  22203214.766                    22203220.832
        46.000          34.300
 112716479.433 7  87831027.82845  21449232.742                    21449233.836
        46.500          34.900
 114830886.964 8  89478635.24345  21851590.273                    21851596.703
        49.500          35.100
 128695177.618 6 100282027.66543  24489886.930                    24489893.637
        40.400          19.000
 18  3 11 14 24 24.0000000  0 19R05R06G14G22R07R14R15R16R23R24R22G03
                                G12G01G17G32G19G24G25
                  96809911.112 3  23284666.664                    23284667.430
                        23.300
                  85797075.278 5  20672145.203                    20672146.590
                        35.000
 121787698.249 7  94899584.50044  23175443.594                    23175448.164
        43.500          27.800
 123880374.669 7  96530197.81544  23573660.156                    23573660.488
        42.800          27.400
                  91971107.122 6  22089825.570                    22089828.188
                        39.400
                  85234685.402 6  20558330.820                    20558331.078
                        37.600
                  81374009.318 5  19578905.141                    19578908.285
                        35.100
                  96168421.132 5  23146620.133                    23146623.301
                        30.600
                  84376970.084 6  20280067.242                    20280071.805
                        36.000
                  87856671.118 4  21123823.961                    21123824.941
                        29.200
                  97956859.062 6  23593654.859                    23593655.762
                        37.800
 125921398.772 6  98120601.52044  23962046.828                    23962051.414
        40.900          25.200
 112920570.047 8  87990064.15045  21488069.273                    21488072.492
        48.500          34.200
 122824284.123 6  95707315.16044  23372699.813                    23372706.176
        40.500          24.900
 116343415.973 8  90657217.02645  22139416.258                    22139419.277
        51.300          35.100
 116678549.244 7  90918393.42045  22203195.523                    22203201.301
        45.900          34.600
 112716412.987 7  87830976.06045  21449220.047                    21449220.863
        47.000          34.800
 114833505.258 8  89480675.47945  21852088.703                    21852095.301
        48.800          35.200
 128691598.089 6 100279238.41043  24489206.297                    24489212.250
        40.400          19.000
 18  3 11 14 24 25.0000000  0 19R05R06G14G22R07R14R15R16R23R24R22G03
                                G12G01G17G32G19G24G25
                  96813582.107 4  23285549.688                    23285550.441
                        24.300
                  85797988.384 5  20672365.742                    20672366.555
                        35.000
 121785817.356 7  94898118.88944  23175085.883                    23175090.926
        43.800          28.100
 123879412.802 7  96529448.29844  23573477.141                    23573477.469
        42.800          26.700
                  91968897.308 6  22089295.273                    22089297.383
                        39.300
                  85237213.488 6  20558938.422                    20558941.461
                        37.600
                  81373774.979 5  19578848.945                    19578852.215
                        34.600
                  96165292.192 4  23145866.695                    23145870.328
                        29.000
                  84377984.607 5  20280311.000                    20280315.355
                        35.800
                  87854553.223 4  21123315.914                    21123316.195
                        28.500
                  97960583.000 6  23594552.117                    23594552.773
                        37.500
 125919080.504 6  98118795.05743  23961605.273                    23961610.027
        40.900          23.800
 112918581.641 8  87988514.75445  21487690.844                    21487693.723
        48.900          34.300
 122827085.368 6  95709497.95244  23373233.039                    23373239.461
        41.300          24.200
 116344810.798 8  90658303.90445  22139681.430                    22139684.566
        51.200          34.900
 116678449.024 7  90918315.32345  22203176.617                    22203182.156
        45.800          33.400
 112716347.313 7  87830924.87945  21449207.813                    21449208.281
        47.400          35.100
 114836124.082 8  89482716.12345  21852587.273                    21852593.203
        48.600          35.300
 128688018.760 6 100276449.32343  24488524.969                    24488530.695
        41.000          18.300
 18  3 11 14 24 26.0000000  0 19R05R06G14G22R07R14R15R16R23R24R22G03
                                G12G01G17G32G19G24G25
                  96817253.392 4  23286432.227                    23286432.848
                        25.100
                  85798902.228 5  20672586.453                    20672586.641
                        34.700
 121783936.955 7  94896653.64444  23174728.031                    23174732.750
        43.900          26.800
 123878451.549 7  96528699.27844  23573294.156                    23573294.508
        43.500          26.800
                  91966687.978 6  22088765.414                    22088766.840
                        39.200
                  85239742.066 6  20559549.625                    20559551.246
                        37.700
                  81373541.300 5  19578792.047                    19578795.809
                        34.700
                  96162163.426 4  23145113.898                    23145117.645
                        27.900
                  84378999.899 6  20280555.141                    20280559.371
                        36.000
                  87852435.909 4  21122806.742                    21122806.902
                        28.100
                  97964307.128 6  23595448.227                    23595449.828
                        38.100
 125916762.734 6  98116988.99044  23961163.391                    23961169.383
        40.300          24.400
 112916593.830 8  87986965.81445  21487312.922                    21487315.852
        49.200          34.000
 122829887.188 6  95711681.18544  23373766.617                    23373773.016
        41.100          24.700
 116346206.249 8  90659391.26945  22139947.320                    22139950.273
        51.300          34.700
 116678349.506 7  90918237.76945  22203157.531                    22203162.867
        45.900          33.600
 112716282.415 7  87830874.31445  21449195.336                    21449196.203
        47.200          35.400
 114838743.463 8  89484757.19945  21853086.039                    21853091.398
        48.700          35.200
 128684439.658 6 100273660.40143  24487844.375                    24487849.906
        41.600          19.000
 18  3 11 14 24 27.0000000  0 19R05R06G14G22R07R14R15R16R23R24R22G03
                                G12G01G17G32G19G24G25
                  96820924.938 4  23287314.281                    23287316.434
                        25.000
                  85799816.831 5  20672806.406                    20672807.145
                        34.500
 121782057.065 7  94895188.78944  23174370.430                    23174375.473
        43.600          27.500
 123877490.843 7  96527950.68444  23573111.516                    23573111.180
        43.500          27.100
                  91964479.123 6  22088235.227                    22088236.582
                        39.300
                  85242271.137 6  20560160.102                    20560161.203
                        37.900
                  81373308.257 5  19578736.367                    19578739.738
                        35.200
                  96159034.863 3  23144360.148                    23144365.004
                        23.500
                  84380015.898 5  20280799.750                    20280803.758
                        35.800
                  87850319.087 4  21122296.813                    21122297.633
                        28.200
                  97968031.461 6  23596344.188                    23596347.391
                        38.400
 125914445.434 6  98115183.28444  23960721.719                    23960728.633
        39.600          25.800
 112914606.563 8  87985417.30545  21486935.000                    21486937.254
        49.500          33.900
 122832689.499 6  95713864.80744  23374299.617                    23374305.848
        40.600          24.500
 116347602.296 8  90660479.10145  22140212.836                    22140216.160
        51.300          34.900
 116678250.674 7  90918160.75445  22203139.156                    22203144.402
        46.500          33.900
 112716218.276 7  87830824.33445  21449182.930                    21449184.203
        47.000          34.700
 114841363.394 8  89486798.70545  21853585.195                    21853590.383
        48.800          34.700
 128680860.710 6 100270871.59643  24487163.375                    24487168.742
        41.600          19.000
