     2.11           OBSERVATION DATA    M (MIXED)           RINEX VERSION / TYPE
teqc  2018Mar15                         20180319 14:17:34UTCPGM / RUN BY / DATE
Linux 2.6.32-573.12.1.x86_64|x86_64|gcc -static|Linux 64|=+ COMMENT
END OF STATIC MODE OBSERVATION                              COMMENT
BIT 2 OF LLI FLAGS DATA COLLECTED UNDER A/S CONDITION       COMMENT
-Unknown-                                                   MARKER NAME
4625                                                        MARKER NUMBER
-Unknown-           -Unknown-                               OBSERVER / AGENCY
5127468778          TRIMBLE             4.63                REC # / TYPE / VERS
47477114                            NONE                    ANT # / TYPE
   304804.7059        0.0000  6349489.4301                  APPROX POSITION XYZ
        0.0000        0.0000        0.0000                  ANTENNA: DELTA H/E/N
     1     1                                                WAVELENGTH FACT L1/2
     7    L1    L2    C1    P1    P2    S1    S2            # / TYPES OF OBSERV
    18                                                      LEAP SECONDS
 SNR is mapped to RINEX snr flag value [0-9]                COMMENT
  L1 & L2: min(max(int(snr_dBHz/6), 0), 9)                  COMMENT
  2018     3    16    10     2   44.0000000     GPS         TIME OF FIRST OBS
                                                            END OF HEADER
 18  3 16 10  2 44.0000000  0 17R01G27G30G15R10R07R16R17R18R24G20G21
                                R09G08G28G07G13
                  85935318.800 6  20669109.297                    20669112.082
                        37.000
 119648086.420 7  93232306.89645  22768276.664                    22768281.926
        42.800          31.700
 112703602.547 8  87820945.93646  21446782.367                    21446787.895
        50.300          38.800
 115023605.124 8  89628798.81645  21888264.766                    21888268.164
        48.800          35.400
                  89288985.216 6  21536202.453                    21536206.535
                        36.700
                  94955032.065 6  22806508.492                    22806511.523
                        40.500
                  91630964.091 6  22054511.492                    22054513.254
                        36.900
                  87100553.415 6  20927341.234                    20927341.766
                        39.700
                  88698583.007 6  21363726.523                    21363728.250
                        39.500
                                  23549163.930

 114741382.692 7  89408880.97245  21834559.211                    21834562.184
        44.600          32.500
 126018444.172 7  98196222.63444  23980518.359                    23980519.043
        44.000          24.700
                  81150604.339 6  19538873.938                    19538874.301
                        41.700
 117860782.481 8  91839744.03845  22428197.352                    22428203.863
        48.000          35.600
 117844311.259 7  91826749.57745  22425026.219                    22425028.785
        45.500          31.600
 120057226.508 7  93551076.99345  22846129.219                    22846133.309
        45.200          31.200
 109927813.580 8  85658013.01146  20918566.594                    20918569.664
        49.000          36.600
 18  3 16 10  2 45.0000000  0 17R01G27G30G15R10R07R16R17R18R24G20G21
                                R09G08G28G07G13
                  85933545.748 6  20668683.039                    20668685.797
                        36.600
 119650258.527 7  93233999.44845  22768689.320                    22768695.336
        42.500          31.400
 112705556.923 8  87822468.83346  21447153.930                    21447159.891
        50.500          39.000
 115021842.874 8  89627425.67245  21887929.172                    21887932.871
        48.800          35.200
                  89286169.370 6  21535523.070                    21535527.250
                        37.500
                  94958680.051 6  22807384.734                    22807387.680
                        41.100
                  91634294.820 6  22055313.211                    22055314.422
                        36.700
                  87101844.466 6  20927650.680                    20927651.824
                        39.300
                  88696699.350 6  21363272.563                    21363274.766
                        40.200
                  97947565.17013  23550025.984                    23550028.496
                        22.700
 114742658.930 7  89409875.42945  21834802.438                    21834805.078
        44.800          32.100
 126020511.979 7  98197833.91444  23980911.969                    23980912.805
        44.100          25.300
                  81150853.720 6  19538934.289                    19538934.160
                        41.900
 117860196.437 8  91839287.39445  22428085.961                    22428092.262
        48.000          35.800
 117842255.550 7  91825147.73845  22424635.500                    22424637.934
        45.600          31.300
 120060458.940 7  93553595.74545  22846744.508                    22846747.922
        45.200          31.200
 109927716.317 8  85657937.22946  20918548.516                    20918551.477
        49.200          37.100
 18  3 16 10  2 46.0000000  0 17R01G27G30G15R10R07R16R17R18R24G20G21
                                R09G08G28G07G13
                  85931773.150 6  20668256.000                    20668259.055
                        36.700
 119652431.105 6  93235692.37345  22769103.258                    22769108.484
        41.800          31.200
 112707511.721 8  87823992.06446  21447525.750                    21447531.668
        50.300          39.100
 115020081.062 8  89626052.86345  21887594.094                    21887597.633
        48.900          35.200
                  89283353.735 6  21534843.969                    21534848.445
                        37.000
                  94962328.118 6  22808261.047                    22808264.020
                        40.600
                  91637625.705 5  22056114.531                    22056116.355
                        35.900
                  87103136.083 6  20927961.586                    20927962.016
                        39.100
                  88694816.141 6  21362818.758                    21362820.973
                        39.800
                  97951151.35413  23550888.617                    23550890.809
                        23.800
 114743935.701 7  89410870.30945  21835045.477                    21835048.039
        44.700          32.200
 126022580.081 7  98199445.41644  23981305.750                    23981306.059
        44.700          25.400
                  81151103.704 6  19538994.211                    19538994.352
                        41.800
 117859610.944 8  91838831.17945  22427974.766                    22427980.969
        48.200          35.900
 117840200.142 7  91823546.13045  22424243.742                    22424246.871
        45.700          31.500
 120063691.571 7  93556114.63345  22847360.313                    22847362.980
        45.000          32.200
 109927619.630 8  85657861.88746  20918530.016                    20918532.809
        49.500          37.000
 18  3 16 10  2 47.0000000  0 17R01G27G30G15R10R07R16R17R18R24G20G21
                                R09G08G28G07G13
                  85930001.000 6  20667830.469                    20667833.516
                        37.100
 119654604.100 7  93237385.61745  22769516.633                    22769522.031
        42.200          31.200
 112709466.906 8  87825515.59346  21447898.211                    21447903.984
        49.600          39.100
 115018319.622 8  89624680.33745  21887259.016                    21887262.309
        49.200          35.100
                  89280538.273 6  21534164.758                    21534169.379
                        37.200
                  94965976.263 6  22809137.313                    22809140.602
                        41.000
                  91640956.697 6  22056916.766                    22056917.836
                        36.800
                  87104428.296 6  20928271.633                    20928272.445
                        39.300
                  88692933.362 6  21362365.930                    21362367.133
                        39.700
                  97954737.60913  23551750.977                    23551753.031
                        23.800
 114745212.957 7  89411865.56845  21835288.195                    21835291.180
        45.000          32.400
 126024648.436 7  98201057.12444  23981699.281                    23981699.977
        44.800          26.100
                  81151354.248 6  19539055.070                    19539054.391
                        41.800
 117859025.956 8  91838375.36345  22427863.586                    22427869.656
        48.200          35.600
 117838144.984 7  91821944.71445  22423852.648                    22423855.492
        45.800          31.500
 120066924.389 7  93558633.67045  22847975.977                    22847978.184
        45.800          32.100
 109927523.418 8  85657786.91846  20918511.734                    20918514.176
        48.900          37.600
 18  3 16 10  2 48.0000000  0 17R01G27G30G15R10R07R16R17R18R24G20G21
                                R09G08G28G07G13
                  85928229.289 6  20667404.094                    20667407.254
                        36.900
 119656777.574 7  93239079.23945  22769930.273                    22769935.453
        42.000          30.000
 112711422.502 8  87827039.42946  21448270.844                    21448275.711
        50.200          38.600
 115016558.636 8  89623308.14545  21886924.313                    21886927.164
        49.100          35.200
                  89277723.063 6  21533485.977                    21533490.184
                        36.900
                  94969624.484 6  22810013.547                    22810016.523
                        40.600
                  91644287.890 6  22057718.078                    22057719.383
                        36.700
                  87105721.113 6  20928582.117                    20928583.238
                        39.400
                  88691051.083 6  21361911.969                    21361914.051
                        39.700
                  97958324.047 3  23552613.586                    23552615.266
                        23.200
 114746490.768 7  89412861.27145  21835531.250                    21835534.117
        45.100          32.200
 126026717.116 7  98202669.08944  23982092.844                    23982093.633
        45.100          25.200
                  81151605.356 6  19539115.305                    19539115.109
                        41.800
 117858441.491 8  91837919.94845  22427751.930                    22427758.105
        48.000          35.500
 117836090.211 7  91820343.60145  22423461.820                    22423464.258
        45.700          31.300
 120070157.455 7  93561152.91145  22848591.188                    22848593.910
        46.000          32.600
 109927427.780 8  85657712.40246  20918493.406                    20918496.605
        49.000          37.100
 18  3 16 10  2 49.0000000  0 17R01G27G30G15R10R07R16R17R18R24G20G21
                                R09G08G28G07G13
                  85926458.078 6  20666978.398                    20666981.129
                        37.000
 119658951.584 7  93240773.27045  22770344.195                    22770349.410
        42.000          31.000
 112713378.635 8  87828563.68246  21448642.766                    21448647.945
        50.300          38.900
 115014798.104 8  89621936.29045  21886588.828                    21886591.828
        49.300          35.100
                  89274908.114 6  21532806.531                    21532811.246
                        36.700
                  94973272.874 6  22810889.672                    22810892.922
                        40.800
                  91647619.260 6  22058520.531                    22058521.625
                        36.900
                  87107014.549 6  20928892.414                    20928893.438
                        39.600
                  88689169.334 6  21361459.430                    21361460.930
                        39.700
                  97961910.622 4  23553475.352                    23553477.297
                        24.300
 114747769.163 7  89413857.43345  21835774.750                    21835777.461
        45.400          33.100
 126028786.141 7  98204281.32644  23982486.492                    23982487.352
        45.100          25.700
                  81151857.010 7  19539176.133                    19539176.414
                        42.000
 117857857.614 7  91837464.98445  22427641.109                    22427646.875
        47.900          35.600
 117834035.743 7  91818742.72945  22423071.039                    22423073.379
        45.100          32.000
 120073390.786 7  93563672.37345  22849206.633                    22849209.289
        46.700          32.700
 109927332.753 8  85657638.35646  20918475.375                    20918478.234
        49.300          37.000
 18  3 16 10  2 50.0000000  0 17R01G27G30G15R10R07R16R17R18R24G20G21
                                R09G08G28G07G13
                  85924687.291 6  20666552.336                    20666555.090
                        37.000
 119661126.089 6  93242467.67645  22770757.914                    22770763.035
        41.400          30.300
 112715335.242 8  87830088.32146  21449014.852                    21449020.418
        50.200          38.400
 115013038.064 8  89620564.81945  21886253.805                    21886256.895
        48.800          34.900
                  89272093.388 6  21532127.773                    21532132.191
                        36.900
                  94976921.352 6  22811767.516                    22811768.938
                        40.200
                  91650950.851 6  22059321.695                    22059322.727
                        37.100
                  87108308.603 6  20929203.227                    20929205.012
                        39.600
                  88687288.076 6  21361005.516                    21361008.082
                        39.800
                  97965497.316 4  23554338.336                    23554339.777
                        24.500
 114749048.067 7  89414853.98145  21836017.773                    21836020.336
        45.200          32.400
 126030855.492 7  98205893.81344  23982880.188                    23982881.129
        45.100          26.300
                  81152109.258 6  19539236.430                    19539236.738
                        41.900
 117857274.258 7  91837010.41945  22427530.039                    22427536.145
        47.800          35.300
 117831981.599 7  91817142.11045  22422680.242                    22422682.496
        44.400          31.700
 120076624.334 7  93566192.02345  22849822.414                    22849824.691
        47.500          32.100
 109927238.277 8  85657564.75146  20918457.633                    20918460.133
        48.600          37.100
 18  3 16 10  2 51.0000000  0 17R01G27G30G15R10R07R16R17R18R24G20G21
                                R09G08G28G07G13
                  85922916.951 6  20666125.938                    20666129.910
                        36.700
 119663301.048 6  93244162.44545  22771171.938                    22771177.164
        41.700          31.000
 112717292.261 8  87831613.28846  21449387.094                    21449393.215
        50.100          38.600
 115011278.481 8  89619193.72545  21885919.031                    21885921.961
        49.000          35.000
                  89269278.901 6  21531449.680                    21531452.797
                        37.100
                  94980569.906 6  22812643.180                    22812645.883
                        40.400
                  91654282.631 6  22060123.563                    22060125.402
                        36.900
                  87109603.215 6  20929514.305                    20929515.879
                        39.300
                  88685407.295 6  21360553.133                    21360554.559
                        39.900
                  97969084.123 3  23555200.273                    23555202.328
                        22.700
 114750327.528 7  89415850.97045  21836261.773                    21836264.141
        44.900          32.400
 126032925.146 7  98207506.53744  23983274.125                    23983274.898
        44.900          26.100
                  81152362.088 6  19539297.031                    19539297.383
                        41.600
 117856691.470 7  91836556.28245  22427419.570                    22427425.250
        47.900          35.500
 117829927.753 7  91815541.71745  22422289.141                    22422291.762
        45.000          32.000
 120079858.156 7  93568711.88845  22850437.648                    22850440.293
        47.800          32.700
 109927144.354 8  85657491.56946  20918439.469                    20918442.156
        49.100          37.300
 18  3 16 10  2 52.0000000  0 17R01G27G30G15R10R07R16R17R18R24G20G21
                                R09G08G28G07G13
                  85921147.073 5  20665700.672                    20665703.633
                        35.900
 119665476.496 6  93245857.59645  22771585.719                    22771590.676
        41.600          30.400
 112719249.659 8  87833138.54646  21449760.109                    21449765.492
        50.500          38.600
 115009519.307 8  89617822.94945  21885584.172                    21885587.543
        48.800          34.800
                  89266464.659 6  21530770.008                    21530775.027
                        36.100
                  94984218.564 6  22813518.609                    22813521.523
                        40.700
                  91657614.617 6  22060926.500                    22060927.590
                        36.600
                  87110898.453 6  20929824.766                    20929826.855
                        39.500
                  88683526.977 6  21360100.313                    21360101.664
                        39.800
                  97972671.075 3  23556062.250                    23556064.184
                        22.800
 114751607.533 7  89416848.37645  21836505.273                    21836507.813
        45.000          32.400
 126034995.112 7  98209119.50044  23983667.609                    23983668.871
        44.500          26.200
                  81152615.463 6  19539358.383                    19539358.809
                        41.700
 117856109.210 7  91836102.55345  22427308.711                    22427314.484
        47.600          35.300
 117827874.250 7  91813941.58945  22421898.727                    22421901.152
        44.900          31.700
 120083092.172 7  93571231.91445  22851052.867                    22851055.492
        47.500          32.400
 109927050.980 8  85657418.81346  20918421.672                    20918424.906
        49.500          36.900
 18  3 16 10  2 53.0000000  0 17R01G27G30G15R10R07R16R17R18R24G20G21
                                R09G08G28G07G13
                  85919377.643 6  20665273.977                    20665277.887
                        36.800
 119667652.395 6  93247553.10345  22772000.188                    22772005.156
        41.900          30.800
 112721207.491 8  87834664.13346  21450132.195                    21450138.027
        50.000          38.900
 115007760.592 8  89616452.52345  21885249.570                    21885252.742
        48.900          34.900
                  89263650.620 6  21530091.141                    21530095.598
                        36.500
                  94987867.322 6  22814395.422                    22814397.813
                        40.900
                  91660946.755 6  22061727.508                    22061729.336
                        36.300
                  87112194.265 6  20930136.953                    20930138.793
                        39.400
                  88681647.142 6  21359646.906                    21359649.223
                        39.600
                  97976258.168 3  23556925.320                    23556927.055
                        22.700
 114752888.048 7  89417846.17945  21836748.969                    21836751.625
        45.400          32.600
 126037065.396 7  98210732.71444  23984061.180                    23984063.105
        43.600          25.300
                  81152869.411 6  19539419.367                    19539419.648
                        41.700
 117855527.485 8  91835649.25446  22427197.617                    22427203.461
        48.100          36.000
 117825821.062 7  91812341.71745  22421507.820                    22421510.586
        45.000          32.700
 120086326.364 7  93573752.07345  22851667.742                    22851671.293
        47.200          32.000
 109926958.122 8  85657346.45846  20918403.906                    20918406.938
        48.900          36.900
 18  3 16 10  2 54.0000000  0 17R01G27G30G15R10R07R16R17R18R24G20G21
                                R09G08G28G07G13
                  85917608.673 6  20664849.656                    20664852.719
                        36.500
 119669828.784 6  93249248.98245  22772414.258                    22772419.020
        41.700          30.500
 112723165.784 8  87836190.06246  21450504.836                    21450510.305
        49.600          39.100
 115006002.296 8  89615082.43445  21884915.078                    21884918.641
        48.900          35.400
                  89260836.847 6  21529413.797                    21529416.906
                        36.500
                  94991516.174 6  22815271.719                    22815274.383
                        40.900
                  91664279.036 6  22062529.148                    22062532.070
                        36.100
                  87113490.658 6  20930449.461                    20930450.180
                        39.400
                  88679767.784 6  21359194.242                    21359196.840
                        39.800
                  97979845.384 3  23557786.695                    23557789.426
                        22.700
 114754169.098 7  89418844.39645  21836992.977                    21836995.043
        44.900          32.400
 126039135.985 7  98212346.15744  23984455.289                    23984457.070
        43.200          25.600
                  81153123.960 6  19539480.703                    19539481.035
                        41.900
 117854946.326 8  91835196.39646  22427087.328                    22427093.176
        48.200          36.600
 117823768.183 7  91810742.09445  22421116.945                    22421119.961
        45.300          31.800
 120089560.809 7  93576272.41745  22852282.688                    22852286.141
        46.800          31.600
 109926865.852 8  85657274.55846  20918386.656                    20918389.535
        49.100          36.300
 18  3 16 10  2 55.0000000  0 17R01G27G30G15R10R07R16R17R18R24G20G21
                                R09G08G28G07G13
                  85915840.114 6  20664423.820                    20664427.621
                        36.800
 119672005.618 6  93250945.22545  22772828.195                    22772833.363
        41.400          30.400
 112725124.457 8  87837716.29546  21450877.648                    21450883.129
        49.300          38.700
 115004244.448 8  89613712.70146  21884580.453                    21884583.422
        49.100          36.000
                  89258023.263 6  21528734.852                    21528739.156
                        36.700
                  94995165.099 6  22816148.820                    22816150.844
                        41.200
                  91667611.477 6  22063332.125                    22063333.195
                        36.000
                  87114787.640 6  20930760.594                    20930761.660
                        39.600
                  88677888.881 6  21358741.594                    21358743.895
                        39.400
                  97983432.690 3  23558651.633                    23558651.977
                        22.300
 114755450.660 7  89419843.01745  21837236.648                    21837238.859
        44.400          32.600
 126041206.823 7  98213959.80744  23984848.336                    23984851.156
        42.600          26.300
                  81153379.026 6  19539542.336                    19539542.281
                        41.800
 117854365.669 8  91834743.94146  22426976.484                    22426982.742
        48.300          36.200
 117821715.541 7  91809142.65145  22420726.391                    22420729.129
        45.000          32.300
 120092795.441 7  93578792.88545  22852898.641                    22852901.984
        46.200          30.400
 109926774.051 8  85657203.02346  20918369.000                    20918371.969
        49.200          36.400
 18  3 16 10  2 56.0000000  0 17R01G27G30G15R10R07R16R17R18R24G20G21
                                R09G08G28G07G13
                  85914072.002 6  20663998.438                    20664001.887
                        36.600
 119674182.917 6  93252641.81945  22773243.492                    22773247.781
        41.800          30.200
 112727083.518 8  87839242.81346  21451250.547                    21451256.063
        48.400          38.600
 115002487.018 8  89612343.29045  21884246.219                    21884249.219
        49.400          35.700
                  89255209.869 6  21528055.094                    21528059.930
                        36.900
                  94998814.103 6  22817024.445                    22817026.980
                        41.100
                  91670944.080 6  22064134.344                    22064135.957
                        36.700
                  87116085.210 6  20931072.461                    20931073.633
                        39.700
                  88676010.431 6  21358288.461                    21358291.023
                        39.400
                  97987020.122 3  23559513.203                    23559513.949
                        22.800
 114756732.744 7  89420842.04545  21837480.469                    21837482.910
        44.300          32.400
 126043278.005 7  98215573.71644  23985242.539                    23985244.965
        42.100          24.700
                  81153634.673 6  19539604.547                    19539604.344
                        41.900
 117853785.540 8  91834291.89145  22426866.094                    22426872.086
        48.200          35.600
 117819663.205 7  91807543.44545  22420335.500                    22420338.676
        44.900          32.300
 120096030.320 7  93581313.55645  22853513.797                    22853517.652
        46.100          31.600
 109926682.824 8  85657131.92946  20918351.867                    20918354.465
        48.400          36.900
 18  3 16 10  2 57.0000000  0 17R01G27G30G15R10R07R16R17R18R24G20G21
                                R09G08G28G07G13
                  85912304.329 6  20663574.000                    20663576.992
                        36.900
 119676360.688 6  93254338.77045  22773657.500                    22773662.223
        41.700          30.200
 112729043.017 8  87840769.67346  21451623.500                    21451628.813
        48.800          38.900
 115000730.002 8  89610974.19045  21883911.766                    21883914.805
        49.300          35.500
                  89252396.723 6  21527377.656                    21527381.039
                        36.000
                  95002463.176 6  22817901.156                    22817903.406
                        41.000
                  91674276.848 6  22064935.656                    22064937.469
                        36.400
                  87117383.398 6  20931384.820                    20931385.727
                        40.000
                  88674132.445 6  21357836.859                    21357838.727
                        39.400
                  97990607.688 3  23560375.586                    23560376.734
                        22.300
 114758015.365 7  89421841.49445  21837724.664                    21837726.809
        44.000          31.500
 126045349.446 6  98217187.82644  23985636.961                    23985639.445
        41.600          24.500
                  81153890.864 6  19539665.648                    19539665.578
                        41.700
 117853205.961 8  91833840.26846  22426755.813                    22426761.426
        48.100          36.300
 117817611.170 7  91805944.46545  22419945.133                    22419948.633
        44.700          31.800
 120099265.438 7  93583834.40145  22854129.367                    22854132.656
        46.100          31.800
 109926592.140 8  85657061.25746  20918334.375                    20918337.543
        48.900          37.100
 18  3 16 10  2 58.0000000  0 17R01G27G30G15R10R07R16R17R18R24G20G21
                                R09G08G28G07G13
                  85910537.126 6  20663147.867                    20663151.383
                        36.500
 119678538.923 6  93256036.09045  22774072.133                    22774076.734
        41.700          30.400
 112731002.987 8  87842296.89246  21451996.086                    21452001.898
        48.300          38.800
 114998973.456 8  89609605.46345  21883577.469                    21883580.617
        49.200          35.400
                  89249583.824 6  21526698.547                    21526703.535
                        36.000
                  95006112.354 6  22818777.852                    22818779.996
                        41.000
                  91677609.798 5  22065737.750                    22065739.867
                        35.600
                  87118682.146 6  20931696.023                    20931697.152
                        39.700
                  88672254.913 6  21357384.625                    21357386.969
                        39.700
                  97994195.404 3  23561238.859                    23561239.508
                        22.500
 114759298.515 7  89422841.35345  21837968.930                    21837971.445
        44.100          32.300
 126047421.228 6  98218802.20144  23986030.703                    23986034.055
        41.100          25.600
                  81154147.648 6  19539727.156                    19539727.336
                        41.800
 117852626.948 7  91833389.09246  22426646.070                    22426651.805
        47.900          36.300
 117815559.462 7  91804345.73045  22419554.711                    22419557.469
        45.200          33.000
 120102500.778 7  93586355.44045  22854745.469                    22854748.320
        46.200          31.600
 109926502.023 8  85656991.03446  20918317.633                    20918320.215
        49.200          37.300
 18  3 16 10  2 59.0000000  0 17R01G27G30G15R10R07R16R17R18R24G20G21
                                R09G08G28G07G13
                  85908770.355 6  20662723.047                    20662726.750
                        36.700
 119680717.629 6  93257733.76845  22774486.359                    22774491.383
        41.800          30.600
 112732963.395 8  87843824.46646  21452369.180                    21452374.680
        48.600          38.600
 114997217.321 8  89608237.05045  21883243.148                    21883246.340
        49.200          35.700
                  89246771.153 6  21526021.383                    21526024.352
                        37.000
                  95009761.615 6  22819653.484                    22819656.414
                        41.300
                  91680942.937 6  22066541.430                    22066542.410
                        36.700
                  87119981.460 6  20932007.563                    20932009.730
                        39.500
                  88670377.871 6  21356933.703                    21356934.730
                        39.900
                  97997783.238 3  23562101.031                    23562102.387
                        22.800
 114760582.155 7  89423841.59645  21838213.188                    21838215.664
        44.300          32.200
 126049493.320 6  98220416.82644  23986424.625                    23986427.871
        40.900          24.500
                  81154404.951 6  19539788.992                    19539789.359
                        41.600
 117852048.474 8  91832938.34446  22426535.805                    22426541.555
        48.100          36.100
 117813508.030 7  91802747.19745  22419164.836                    22419167.289
        45.500          32.000
 120105736.362 7  93588876.68145  22855361.672                    22855364.047
        46.800          32.400
 109926412.465 8  85656921.25046  20918300.250                    20918303.211
        49.300          37.200
 18  3 16 10  3  0.0000000  0 17R01G27G30G15R10R07R16R17R18R24G20G21
                                R09G08G28G07G13
                  85907004.038 6  20662298.984                    20662302.215
                        36.500
 119682896.835 7  93259431.83745  22774901.133                    22774906.238
        42.600          30.900
 112734924.199 8  87845352.35446  21452742.453                    21452747.684
        48.800          38.800
 114995461.649 8  89606869.00345  21882909.125                    21882911.957
        49.400          35.300
                  89243958.685 6  21525342.594                    21525346.148
                        37.500
                  95013410.991 6  22820530.203                    22820533.488
                        41.300
                  91684276.224 6  22067342.844                    22067344.625
                        36.500
                  87121281.385 6  20932320.211                    20932322.012
                        39.300
                  88668501.322 6  21356481.883                    21356482.555
                        39.600
                  98001371.170 3  23562962.844                    23562964.867
                        23.600
 114761866.358 7  89424842.25945  21838457.688                    21838460.141
        44.700          32.600
 126051565.679 6  98222031.63044  23986818.883                    23986822.477
        40.400          24.700
                  81154662.809 6  19539851.383                    19539851.602
                        41.600
 117851470.533 8  91832488.02645  22426426.164                    22426431.906
        48.000          35.200
 117811456.921 7  91801148.91445  22418774.102                    22418776.902
        45.400          32.200
 120108972.143 7  93591398.08945  22855977.547                    22855979.879
        47.900          31.800
 109926323.436 8  85656851.88446  20918283.258                    20918285.973
        49.300          37.100
 18  3 16 10  3  1.0000000  0 17R01G27G30G15R10R07R16R17R18R24G20G21
                                R09G08G28G07G13
                  85905238.161 6  20661874.719                    20661877.574
                        36.700
 119685076.451 7  93261130.23045  22775315.844                    22775321.219
        42.900          31.100
 112736885.456 8  87846880.58546  21453115.875                    21453121.637
        48.900          38.700
 114993706.407 8  89605501.29545  21882574.820                    21882578.465
        49.100          35.700
                  89241146.418 6  21524663.242                    21524667.820
                        37.000
                  95017060.428 6  22821407.188                    22821409.742
                        41.500
                  91687609.703 6  22068144.727                    22068146.828
                        36.800
                  87122581.897 6  20932632.617                    20932634.492
                        39.300
                  88666625.213 6  21356029.594                    21356030.363
                        39.900
                  98004959.231 3  23563824.633                    23563827.250
                        22.700
 114763151.084 7  89425843.33645  21838701.625                    21838704.652
        44.100          32.300
 126053638.357 6  98223646.69844  23987213.000                    23987216.855
        40.000          25.100
                  81154921.234 6  19539913.445                    19539913.559
                        41.700
 117850893.132 8  91832038.11945  22426316.180                    22426322.039
        48.300          35.800
 117809406.107 7  91799550.87345  22418383.750                    22418386.746
        45.500          31.600
 120112208.117 7  93593919.65245  22856593.633                    22856596.102
        47.600          32.300
 109926234.943 8  85656782.94946  20918266.297                    20918269.727
        49.300          37.200
 18  3 16 10  3  2.0000000  0 17R01G27G30G15R10R07R16R17R18R24G20G21
                                R09G08G28G07G13
                  85903472.709 6  20661449.773                    20661452.633
                        36.900
 119687256.578 7  93262829.03645  22775730.383                    22775735.871
        42.500          31.100
 112738847.199 8  87848409.21246  21453488.883                    21453494.770
        49.100          38.900
 114991951.584 8  89604133.90945  21882241.297                    21882244.262
        49.100          35.000
                  89238334.391 6  21523986.164                    21523989.617
                        37.200
                  95020709.982 6  22822283.859                    22822286.535
                        41.400
                  91690943.324 6  22068947.313                    22068948.605
                        36.300
                  87123882.978 6  20932944.313                    20932947.277
                        39.600
                  88664749.573 6  21355577.367                    21355579.008
                        39.900
                  98008547.416 3  23564688.594                    23564690.070
                        22.500
 114764436.345 7  89426844.83445  21838946.523                    21838949.141
        44.400          31.900
 126055711.354 6  98225262.00143  23987607.742                    23987611.344
        39.400          22.000
                  81155180.205 6  19539975.984                    19539976.328
                        41.700
 117850316.242 8  91831588.60745  22426206.195                    22426211.977
        48.600          35.000
 117807355.579 7  91797953.05745  22417993.258                    22417996.242
        45.800          32.100
 120115444.292 7  93596441.36945  22857208.789                    22857211.680
        47.500          32.300
 109926146.994 8  85656714.43246  20918249.883                    20918252.930
        48.800          37.300
 18  3 16 10  3  3.0000000  0 17R01G27G30G15R10R07R16R17R18R24G20G21
                                R09G08G28G07G13
                  85901707.704 6  20661024.563                    20661027.949
                        36.600
 119689437.143 7  93264528.18245  22776145.508                    22776151.066
        42.400          30.900
 112740809.322 8  87849938.14346  21453862.539                    21453867.977
        49.800          38.600
 114990197.190 8  89602766.85745  21881907.586                    21881910.684
        48.800          35.600
                  89235522.614 6  21523308.109                    21523311.477
                        37.100
                  95024359.635 6  22823160.469                    22823162.988
                        41.200
                  91694277.092 6  22069750.352                    22069751.469
                        36.400
                  87125184.646 6  20933257.227                    20933259.602
                        39.100
                  88662874.425 6  21355125.727                    21355127.328
                        40.200
                  98012135.776 3  23565552.375                    23565553.063
                        21.900
 114765722.133 7  89427846.75545  21839191.023                    21839194.004
        44.100          32.000
 126057784.650 6  98226877.54644  23988002.469                    23988005.906
        39.800          24.000
                  81155439.747 6  19540038.383                    19540038.535
                        41.800
 117849739.891 8  91831139.50345  22426096.406                    22426102.246
        48.500          35.800
 117805305.392 7  91796355.50845  22417603.336                    22417606.109
        45.300          31.900
 120118680.718 7  93598963.27045  22857824.492                    22857827.727
        47.100          31.900
 109926059.604 8  85656646.33846  20918232.961                    20918236.492
        48.700          36.200
 18  3 16 10  3  4.0000000  0 17R01G27G30G15R10R07R16R17R18R24G20G21
                                R09G08G28G07G13
                  85899943.139 6  20660600.930                    20660603.395
                        36.400
 119691618.217 7  93266227.73145  22776560.758                    22776565.750
        42.900          31.300
 112742771.905 8  87851467.43146  21454236.094                    21454241.453
        49.800          38.400
 114988443.262 8  89601400.15745  21881573.563                    21881576.789
        49.200          35.200
                  89232711.048 6  21522629.141                    21522633.316
                        36.900
                  95028009.373 6  22824036.391                    22824039.426
                        40.800
                  91697611.100 5  22070552.773                    22070554.156
                        35.900
                  87126486.924 6  20933569.930                    20933572.531
                        39.100
                  88660999.761 6  21354674.086                    21354675.777
                        39.900
                  98015724.248 3  23566415.539                    23566415.563
                        22.700
 114767008.456 7  89428849.08645  21839435.289                    21839438.352
        44.100          31.800
 126059858.268 6  98228493.34844  23988397.914                    23988400.426
        40.000          24.400
                  81155699.844 6  19540100.766                    19540101.121
                        41.600
 117849164.099 8  91830690.82746  22425986.984                    22425992.797
        49.000          36.100
 117803255.515 7  91794758.20945  22417213.563                    22417215.922
        45.300          31.400
 120121917.343 7  93601485.31045  22858440.156                    22858443.617
        46.400          31.700
 109925972.772 8  85656578.67146  20918216.656                    20918219.906
        48.800          37.100
 18  3 16 10  3  5.0000000  0 17R01G27G30G15R10R07R16R17R18R24G20G21
                                R09G08G28G07G13
                  85898179.071 6  20660176.461                    20660179.250
                        36.800
 119693799.807 7  93267927.66745  22776975.813                    22776981.176
        42.100          30.800
 112744734.967 8  87852997.09346  21454609.164                    21454614.867
        49.300          38.100
 114986689.778 8  89600033.80245  21881240.023                    21881243.023
        49.100          35.200
                  89229899.735 6  21521951.406                    21521954.988
                        36.900
                  95031659.220 6  22824913.289                    22824916.457
                        40.700
                  91700945.279 6  22071354.727                    22071356.719
                        36.400
                  87127789.852 6  20933882.242                    20933885.469
                        39.400
                  88659125.619 6  21354222.359                    21354224.840
                        39.900
                  98019312.865 3  23567278.141                    23567278.145
                        22.800
 114768295.317 7  89429851.83545  21839680.633                    21839683.297
        44.300          32.100
 126061932.225 6  98230109.40743  23988791.867                    23988794.863
        40.400          23.800
                  81155960.541 6  19540164.203                    19540163.816
                        41.800
 117848588.872 8  91830242.59745  22425877.508                    22425883.160
        49.200          35.500
 117801205.982 7  91793161.18345  22416823.648                    22416826.156
        45.500          32.200
 120125154.213 7  93604007.54345  22859055.656                    22859059.633
        45.800          31.600
 109925886.500 8  85656511.44946  20918200.141                    20918203.449
        48.600          37.500
 18  3 16 10  3  6.0000000  0 17R01G27G30G15R10R07R16R17R18R24G20G21
                                R09G08G28G07G13
                  85896415.415 6  20659752.227                    20659755.250
                        36.700
 119695981.834 7  93269627.93345  22777390.539                    22777396.219
        42.100          30.600
 112746698.438 8  87854527.08246  21454983.094                    21454988.695
        49.800          38.300
 114984936.715 8  89598667.77345  21880906.406                    21880909.344
        48.700          35.200
                  89227088.638 6  21521272.898                    21521277.430
                        36.300
                  95035309.125 6  22825789.797                    22825792.664
                        40.900
                  91704279.638 6  22072157.664                    22072159.344
                        36.800
                  87129093.323 6  20934196.016                    20934198.734
                        39.600
                  88657251.960 6  21353770.172                    21353773.344
                        39.600
                  98022901.557 3  23568140.352                    23568141.254
                        23.000
 114769582.684 7  89430854.96945  21839925.641                    21839928.492
        43.600          32.200
 126064006.419 6  98231725.66744  23989187.039                    23989189.617
        41.000          25.900
                  81156221.760 6  19540227.180                    19540226.637
                        41.600
 117848014.168 8  91829794.76945  22425768.102                    22425773.938
        48.900          35.800
 117799156.721 7  91791564.36345  22416433.883                    22416435.945
        46.000          32.300
 120128391.324 7  93606529.95345  22859671.820                    22859675.266
        45.100          31.200
 109925800.779 8  85656444.65346  20918183.625                    20918187.047
        49.100          37.100
 18  3 16 10  3  7.0000000  0 17R01G27G30G15R10R07R16R17R18R24G20G21
                                R09G08G28G07G13
                  85894652.228 6  20659328.258                    20659331.512
                        36.700
 119698164.303 7  93271328.54645  22777805.945                    22777811.223
        42.800          31.200
 112748662.378 8  87856057.44346  21455357.078                    21455362.340
        50.000          38.900
 114983184.082 8  89597302.08045  21880572.664                    21880575.852
        48.500          35.200
                  89224277.794 6  21520595.313                    21520599.227
                        36.600
                  95038959.127 6  22826666.859                    22826669.672
                        41.600
                  91707614.179 6  22072959.133                    22072961.957
                        36.900
                  87130397.390 6  20934510.820                    20934511.984
                        39.600
                  88655378.786 6  21353319.602                    21353322.188
                        39.700
                  98026490.370 3  23569003.477                    23569003.949
                        21.600
 114770870.574 7  89431858.50945  21840170.977                    21840173.387
        44.500          32.400
 126066080.961 6  98233342.17744  23989582.695                    23989584.238
        41.800          27.200
                  81156483.568 6  19540289.008                    19540289.574
                        41.700
 117847440.003 8  91829347.37046  22425658.563                    22425664.902
        48.800          36.000
 117797107.814 7  91789967.82745  22416043.992                    22416046.586
        46.500          32.100
 120131628.627 7  93609052.51245  22860287.891                    22860291.199
        44.500          31.200
 109925715.609 8  85656378.29746  20918167.477                    20918170.922
        48.900          37.200
 18  3 16 10  3  8.0000000  0 17R01G27G30G15R10R07R16R17R18R24G20G21
                                R09G08G28G07G13
                  85892889.480 6  20658903.859                    20658907.063
                        36.700
 119700347.249 7  93273029.53945  22778221.563                    22778226.926
        42.200          31.100
 112750626.677 8  87857588.08946  21455730.555                    21455736.121
        49.900          38.700
 114981431.848 8  89595936.69645  21880239.328                    21880242.246
        48.600          35.900
                  89221467.180 6  21519918.398                    21519921.363
                        36.200
                  95042609.219 6  22827542.945                    22827546.105
                        41.300
                  91710948.856 6  22073763.211                    22073763.980
                        36.600
                  87131701.985 6  20934825.070                    20934825.027
                        39.600
                  88653506.089 6  21352868.688                    21352871.113
                        40.300
                                  23569866.281

 114772158.983 7  89432862.44745  21840416.117                    21840418.734
        44.600          32.600
 126068155.754 6  98234958.89144  23989977.219                    23989979.023
        41.100          26.200
                  81156745.904 6  19540353.016                    19540352.785
                        41.600
 117846866.356 8  91828900.36946  22425549.469                    22425555.875
        48.300          36.100
 117795059.130 7  91788371.45445  22415653.344                    22415656.133
        46.400          32.200
 120134866.134 7  93611575.21845  22860904.773                    22860907.332
        45.800          32.000
 109925630.969 8  85656312.35046  20918151.633                    20918154.773
        48.700          36.900
 18  3 16 10  3  9.0000000  0 17R01G27G30G15R10R07R16R17R18R24G20G21
                                R09G08G28G07G13
                  85891127.180 6  20658480.617                    20658483.500
                        36.600
 119702530.630 7  93274730.87345  22778636.922                    22778642.309
        42.700          31.800
 112752591.399 8  87859119.06246  21456104.297                    21456109.809
        50.300          38.900
 114979680.064 8  89594571.65745  21879906.250                    21879909.199
        49.000          35.400
                  89218656.770 6  21519239.594                    21519243.789
                        36.900
                  95046259.390 6  22828420.031                    22828422.906
                        41.200
                  91714283.691 6  22074565.406                    22074566.883
                        36.800
                  87133007.171 6  20935139.258                    20935139.457
                        39.300
                  88651633.847 6  21352417.938                    21352420.145
                        40.200
                                  23570730.250

 114773447.938 7  89433866.82045  21840661.219                    21840663.914
        44.700          32.200
 126070230.881 6  98236575.87443  23990372.656                    23990374.230
        41.600          23.800
                  81157008.794 6  19540416.188                    19540416.156
                        41.700
 117846293.254 8  91828453.78746  22425440.625                    22425446.684
        48.600          36.000
 117793010.760 7  91786775.32045  22415264.008                    22415266.555
        46.200          32.800
 120138103.860 7  93614098.09445  22861521.305                    22861523.605
        46.800          31.700
 109925546.872 8  85656246.83546  20918135.648                    20918138.551
        49.500          37.700
 18  3 16 10  3 10.0000000  0 17R01G27G30G15R10R07R16R17R18R24G20G21
                                R09G08G28G07G13
                  85889365.355 6  20658056.250                    20658059.734
                        36.200
 119704714.579 7  93276432.65845  22779052.391                    22779057.617
        42.600          31.200
 112754556.621 8  87860650.40646  21456478.375                    21456483.840
        50.500          38.800
 114977928.767 8  89593207.00045  21879572.898                    21879575.918
        48.900          35.200
                  89215846.624 6  21518561.117                    21518565.910
                        36.800
                  95049909.677 6  22829296.586                    22829299.613
                        40.700
                  91717618.709 6  22075368.539                    22075369.703
                        37.200
                  87134313.041 6  20935453.563                    20935453.203
                        39.100
                  88649762.110 6  21351967.219                    21351969.535
                        40.000
                                  23571593.367

 114774737.471 7  89434871.64745  21840906.906                    21840909.172
        44.500          33.300
 126072306.346 6  98238193.12544  23990767.078                    23990768.758
        41.300          25.200
                  81157272.285 6  19540479.781                    19540479.816
                        41.700
 117845720.738 8  91828007.68445  22425331.734                    22425337.754
        48.200          35.900
 117790962.737 7  91785179.44445  22414874.320                    22414876.824
        45.900          32.100
 120141341.784 7  93616621.12845  22862137.555                    22862139.711
        47.200          31.800
 109925463.363 8  85656181.78246  20918119.570                    20918122.746
        49.500          37.000
 18  3 16 10  3 11.0000000  0 17R01G27G30G15R10R07R16R17R18R24G20G21
                                R09G08G28G07G13
                  85887603.979 6  20657632.977                    20657635.836
                        36.600
 119706898.969 7  93278134.78645  22779467.813                    22779473.473
        42.700          30.400
 112756522.268 8  87862182.07946  21456852.914                    21456858.145
        50.800          39.000
 114976177.906 8  89591842.67745  21879239.648                    21879242.773
        49.000          35.700
                  89213036.714 6  21517885.305                    21517888.090
                        36.100
                  95053560.047 6  22830172.641                    22830176.484
                        40.800
                  91720953.919 6  22076170.313                    22076172.086
                        36.400
                  87135619.515 6  20935767.688                    20935767.125
                        39.700
                  88647890.844 6  21351516.969                    21351518.586
                        39.900
                                  23572455.055

 114776027.542 7  89435876.90345  21841152.500                    21841154.699
        44.400          32.300
 126074382.109 6  98239810.61444  23991162.352                    23991163.871
        40.500          25.800
                  81157536.328 6  19540542.617                    19540543.004
                        41.800
 117845148.780 7  91827562.01646  22425222.547                    22425228.801
        47.800          36.500
 117788915.036 7  91783583.81645  22414484.828                    22414487.301
        45.600          31.900
 120144579.985 7  93619144.39645  22862754.023                    22862756.133
        47.300          31.900
 109925380.406 8  85656117.14646  20918103.672                    20918106.840
        49.600          37.100
 18  3 16 10  3 12.0000000  0 17R01G27G30G15R10R07R16R17R18R24G20G21
                                R09G08G28G07G13
                  85885843.057 6  20657209.180                    20657212.516
                        36.700
 119709083.837 7  93279837.27245  22779883.813                    22779889.168
        42.900          30.800
 112758488.330 8  87863714.07246  21457226.500                    21457231.984
        50.700          38.600
 114974427.505 8  89590478.71745  21878906.555                    21878909.320
        49.300          35.400
                  89210227.054 6  21517205.555                    21517211.035
                        36.000
                  95057210.523 6  22831050.289                    22831053.336
                        41.000
                  91724289.268 6  22076973.641                    22076975.035
                        36.500
                  87136926.547 6  20936080.844                    20936081.023
                        39.200
                  88646020.039 6  21351066.273                    21351068.328
                        39.600
                                  23573319.094

 114777318.130 7  89436882.56145  21841397.625                    21841400.367
        44.700          32.700
 126076458.170 6  98241428.32844  23991557.469                    23991559.078
        40.400          27.000
                  81157800.960 6  19540606.805                    19540607.289
                        41.700
 117844577.332 7  91827116.73846  22425113.664                    22425119.891
        47.800          36.000
 117786867.643 7  91781988.43345  22414094.852                    22414098.086
        45.900          31.500
 120147818.374 7  93621667.82445  22863370.133                    22863372.590
        47.800          31.800
 109925298.001 8  85656052.94346  20918088.219                    20918091.105
        49.900          37.300
 18  3 16 10  3 13.0000000  0 17R01G27G30G15R10R07R16R17R18R24G20G21
                                R09G08G28G07G13
                  85884082.604 6  20656785.922                    20656788.648
                        36.500
 119711269.236 7  93281540.17844  22780300.047                    22780304.832
        42.300          29.700
 112760454.871 8  87865246.43846  21457600.633                    21457606.398
        50.500          38.700
 114972677.570 8  89589115.13245  21878573.445                    21878576.555
        49.400          35.500
                  89207417.646 6  21516528.242                    21516533.262
                        37.000
                  95060861.116 6  22831926.914                    22831930.043
                        41.000
                  91727624.809 6  22077776.445                    22077778.258
                        36.800
                  87138234.198 6  20936394.484                    20936395.262
                        39.000
                  88644149.728 6  21350615.703                    21350617.313
                        39.700
                                  23574180.750

 114778609.297 7  89437888.66345  21841643.586                    21841646.492
        44.700          32.500
 126078534.560 6  98243046.28744  23991952.156                    23991954.188
        40.400          26.000
                  81158066.159 6  19540670.859                    19540671.266
                        41.700
 117844006.462 7  91826671.91045  22425004.906                    22425011.215
        47.800          35.500
 117784820.611 7  91780393.33445  22413705.445                    22413708.141
        45.400          32.600
 120151057.006 7  93624191.43245  22863986.023                    22863988.820
        47.400          31.200
 109925216.140 8  85655989.16446  20918072.594                    20918075.500
        49.000          36.400
 18  3 16 10  3 14.0000000  0 17R01G27G30G15R10R07R16R17R18R24G20G21
                                R09G08G28G07G13
                  85882322.530 6  20656363.039                    20656365.520
                        37.200
 119713455.009 7  93283243.37144  22780716.016                    22780720.645
        42.300          28.100
 112762421.762 8  87866779.08846  21457975.273                    21457980.406
        50.400          38.800
 114970927.978 8  89587751.80745  21878240.453                    21878243.465
        49.200          34.700
                  89204608.413 6  21515851.102                    21515855.875
                        37.100
                  95064511.744 6  22832803.898                    22832806.543
                        40.400
                  91730960.456 6  22078579.648                    22078580.609
                        36.500
                  87139542.371 6  20936708.867                    20936709.918
                        39.500
                  88642279.838 6  21350165.961                    21350167.070
                        40.000
                                  23575043.523

 114779900.896 7  89438895.10445  21841889.086                    21841891.969
        44.500          32.600
 126080611.176 6  98244664.42144  23992347.383                    23992349.285
        41.000          26.400
                  81158331.847 6  19540734.438                    19540735.000
                        41.900
 117843436.079 7  91826227.45146  22424896.406                    22424902.590
        47.900          36.000
 117782773.826 7  91778798.43445  22413315.656                    22413319.020
        45.000          32.700
 120154295.783 7  93626715.14745  22864601.281                    22864604.969
        46.600          31.400
 109925134.776 8  85655925.75846  20918057.313                    20918060.125
        48.900          36.900
 18  3 16 10  3 15.0000000  0 17R01G27G30G15R10R07R16R17R18R24G20G21
                                R09G08G28G07G13
                  85880562.904 6  20655939.461                    20655942.574
                        37.100
 119715641.271 7  93284946.95244  22781131.953                    22781137.148
        42.700          28.200
 112764389.100 8  87868312.08746  21458349.297                    21458354.953
        50.700          39.000
 114969178.867 8  89586388.86045  21877907.695                    21877910.805
        49.300          35.800
                  89201799.417 6  21515172.664                    21515177.563
                        37.400
                  95068162.459 6  22833680.805                    22833683.574
                        41.000
                  91734296.276 6  22079381.656                    22079383.730
                        36.500
                  87140851.169 6  20937023.008                    20937023.918
                        39.300
                  88640410.436 6  21349715.336                    21349716.457
                        39.300
                                  23575907.055

 114781193.053 7  89439901.98045  21842135.555                    21842137.590
        45.100          33.400
 126082688.116 6  98246282.80844  23992742.227                    23992744.582
        40.400          24.800
                  81158598.089 6  19540799.336                    19540798.797
                        41.800
 117842866.218 7  91825783.39845  22424788.195                    22424794.563
        47.000          34.300
 117780727.376 7  91777203.81345  22412926.461                    22412929.191
        45.300          31.800
 120157534.849 7  93629239.08045  22865217.688                    22865221.371
        45.800          31.000
 109925053.958 8  85655862.78446  20918041.844                    20918044.527
        48.700          37.200
 18  3 16 10  3 16.0000000  0 17R01G27G30G15R10R07R16R17R18R24G20G21
                                R09G08G28G07G13
                  85878803.674 6  20655516.453                    20655519.199
                        36.700
 119717827.938 7  93286650.84944  22781548.305                    22781553.098
        43.400          29.600
 112766356.796 8  87869845.36346  21458723.695                    21458729.500
        50.400          38.900
 114967430.117 8  89585026.19245  21877574.586                    21877578.043
        49.000          35.100
                  89198990.644 6  21514496.422                    21514500.645
                        37.500
                  95071813.214 6  22834557.344                    22834561.055
                        41.200
                  91737632.256 6  22080185.344                    22080186.680
                        36.600
                  87142160.488 6  20937336.617                    20937337.977
                        39.100
                  88638541.418 6  21349265.391                    21349266.473
                        38.700
                                  23576770.586

 114782485.680 7  89440909.22245  21842381.133                    21842383.605
        45.300          33.100
 126084765.328 6  98247901.41544  23993137.602                    23993140.066
        40.200          25.300
                  81158864.853 6  19540862.195                    19540862.453
                        41.700
 117842296.848 7  91825339.72845  22424679.719                    22424686.027
        47.600          34.200
 117778681.156 7  91775609.38745  22412536.727                    22412539.977
        45.800          32.100
 120160774.064 7  93631763.14245  22865833.883                    22865837.914
        45.000          31.200
 109924973.653 8  85655800.20546  20918026.492                    20918029.098
        49.000          36.500
 18  3 16 10  3 17.0000000  0 17R01G27G30G15R10R07R16R17R18R24G20G21
                                R09G08G28G07G13
                  85877044.941 6  20655092.758                    20655096.188
                        36.700
 119720015.141 7  93288355.16345  22781964.172                    22781969.324
        42.700          30.000
 112768325.004 8  87871379.03946  21459097.953                    21459104.230
        50.300          38.700
 114965681.886 8  89583663.92545  21877242.164                    21877245.469
        48.700          35.100
                  89196182.132 6  21513817.883                    21513822.871
                        37.100
                  95075464.112 6  22835435.016                    22835437.207
                        41.800
                  91740968.458 6  22080988.242                    22080989.977
                        36.200
                  87143470.442 6  20937651.031                    20937652.871
                        39.000
                  88636672.960 6  21348814.367                    21348816.563
                        39.100
                                  23577633.875

 114783778.916 7  89441916.94545  21842626.961                    21842629.707
        45.300          32.800
 126086842.864 6  98249520.28244  23993533.109                    23993535.395
        40.600          26.000
                  81159132.203 6  19540927.234                    19540927.164
                        41.700
 117841728.079 7  91824896.51245  22424571.898                    22424577.605
        47.200          34.700
 117776635.283 7  91774015.22245  22412147.844                    22412150.879
        45.600          32.100
 120164013.564 7  93634287.41945  22866449.859                    22866453.945
        44.500          30.200
 109924893.944 8  85655738.10346  20918011.438                    20918014.348
        49.000          36.600
 18  3 16 10  3 18.0000000  0 17R01G27G30G15R10R07R16R17R18R24G20G21
                                R09G08G28G07G13
                  85875286.679 6  20654669.914                    20654673.172
                        36.800
 119722202.827 7  93290059.84445  22782380.930                    22782385.738
        42.700          30.600
 112770293.662 8  87872913.06146  21459473.203                    21459478.449
        50.700          39.200
 114963934.096 8  89582302.01045  21876909.734                    21876912.586
        48.700          34.900
                  89193373.851 6  21513140.477                    21513145.852
                        37.000
                  95079115.096 6  22836312.445                    22836314.203
                        41.100
                  91744304.860 6  22081791.531                    22081792.738
                        36.300
                  87144780.998 6  20937965.492                    20937967.770
                        39.200
                  88634804.995 6  21348364.289                    21348366.559
                        39.000
                                  23578497.734

 114785072.663 7  89442925.06645  21842873.016                    21842875.953
        45.100          32.900
 126088920.773 6  98251139.43844  23993928.305                    23993930.762
        40.400          24.700
                  81159400.158 6  19540992.617                    19540992.109
                        41.800
 117841159.877 7  91824453.75045  22424463.430                    22424469.609
        47.000          34.700
 117774589.785 7  91772421.33345  22411758.727                    22411761.656
        45.300          31.800
 120167253.334 7  93636811.90245  22867067.313                    22867070.727
        45.000          31.400
 109924814.840 8  85655676.46946  20917996.234                    20917999.215
        49.200          37.400
 18  3 16 10  3 19.0000000  0 17R01G27G30G15R10R07R16R17R18R24G20G21
                                R09G08G28G07G13
                  85873528.834 6  20654247.227                    20654250.926
                        36.300
 119724390.977 7  93291764.88645  22782797.328                    22782801.891
        43.400          30.500
 112772262.691 8  87874447.37846  21459847.977                    21459853.273
        51.400          39.200
 114962186.739 8  89580940.43645  21876577.156                    21876580.035
        48.900          35.300
                  89190565.785 6  21512464.156                    21512467.980
                        36.700
                  95082766.144 6  22837188.359                    22837191.074
                        40.800
                  91747641.379 6  22082595.141                    22082596.063
                        36.500
                  87146092.136 6  20938281.086                    20938282.555
                        39.300
                  88632937.521 6  21347914.117                    21347917.184
                        39.100
                                  23579360.328

 114786366.896 7  89443933.56245  21843119.969                    21843122.328
        45.700          32.200
 126090998.921 6  98252758.77444  23994323.547                    23994326.434
        40.600          26.200
                  81159668.656 6  19541057.219                    19541057.223
                        41.800
 117840592.178 7  91824011.38345  22424356.383                    22424361.594
        47.600          34.500
 117772544.549 7  91770827.64745  22411369.500                    22411372.340
        45.800          31.900
 120170493.254 7  93639336.50845  22867684.680                    22867687.273
        45.700          30.900
 109924736.249 8  85655615.24646  20917981.195                    20917984.316
        49.100          37.200
 18  3 16 10  3 20.0000000  0 17R01G27G30G15R10R07R16R17R18R24G20G21
                                R09G08G28G07G13
                  85871771.518 6  20653824.797                    20653827.883
                        36.400
 119726579.640 7  93293470.32745  22783213.586                    22783218.664
        42.800          30.100
 112774232.242 8  87875982.09246  21460222.633                    21460228.078
        50.200          39.300
 114960439.906 8  89579579.26245  21876244.969                    21876248.027
        48.700          35.500
                  89187758.012 6  21511785.930                    21511791.293
                        36.500
                  95086417.354 6  22838065.500                    22838067.996
                        41.400
                  91750978.102 5  22083397.406                    22083398.449
                        35.800
                  87147403.938 6  20938596.633                    20938597.746
                        39.700
                  88631070.561 6  21347464.367                    21347467.484
                        39.100
                                  23580222.703

 114787661.784 7  89444942.56545  21843366.086                    21843368.688
        45.100          32.300
 126093077.468 6  98254378.41044  23994719.383                    23994721.609
        41.300          25.300
                  81159937.775 6  19541121.250                    19541121.520
                        41.900
 117840025.101 8  91823569.50845  22424248.094                    22424253.910
        48.300          34.400
 117770499.686 7  91769234.24845  22410980.414                    22410983.129
        45.800          31.400
 120173733.465 7  93641861.33745  22868301.414                    22868303.719
        46.400          30.800
 109924658.276 8  85655554.51546  20917966.211                    20917969.273
        49.000          37.100
 18  3 16 10  3 21.0000000  0 17R01G27G30G15R10R07R16R17R18R24G20G21
                                R09G08G28G07G13
                  85870014.708 6  20653402.789                    20653405.500
                        36.700
 119728768.874 7  93295176.22845  22783630.320                    22783634.762
        43.000          31.300
 112776202.336 8  87877517.22946  21460597.477                    21460602.785
        49.900          38.900
 114958693.563 8  89578218.47845  21875912.461                    21875915.488
        48.900          35.200
                  89184950.498 6  21511108.563                    21511113.711
                        36.800
                  95090068.729 6  22838942.633                    22838945.219
                        41.600
                  91754315.047 6  22084200.695                    22084202.457
                        36.800
                  87148716.364 6  20938912.227                    20938913.336
                        39.800
                  88629204.113 6  21347015.148                    21347017.238
                        39.600
                                  23581086.688

 114788957.247 7  89445952.01045  21843612.938                    21843615.457
        45.500          32.400
 126095156.370 6  98255998.31044  23995115.453                    23995117.250
        41.400          25.100
                  81160207.509 6  19541186.328                    19541186.551
                        41.600
 117839458.647 8  91823128.12745  22424140.555                    22424145.605
        48.500          35.100
 117768455.210 7  91767641.14845  22410591.367                    22410593.879
        45.800          31.800
 120176973.946 7  93644386.38445  22868918.305                    22868920.434
        47.300          31.600
 109924580.907 8  85655494.24446  20917951.523                    20917954.504
        49.200          37.200
 18  3 16 10  3 22.0000000  0 17R01G27G30G15R10R07R16R17R18R24G20G21
                                R09G08G28G07G13
                  85868258.375 6  20652979.563                    20652983.234
                        36.700
 119730958.620 6  93296882.52544  22784046.789                    22784051.875
        41.400          28.400
 112778172.869 8  87879052.71546  21460972.711                    21460977.508
        50.400          39.000
 114956947.707 8  89576858.07245  21875580.188                    21875583.086
        48.100          35.500
                  89182143.261 6  21510432.188                    21510436.863
                        36.700
                  95093720.188 6  22839819.633                    22839822.293
                        41.100
                  91757652.208 6  22085002.672                    22085005.199
                        36.600
                  87150029.401 6  20939227.688                    20939228.770
                        40.400
                  88627338.168 6  21346566.195                    21346567.652
                        39.400
                                  23581949.578

 114790253.244 7  89446961.86845  21843859.188                    21843861.902
        45.300          32.100
 126097235.624 7  98257618.50044  23995510.508                    23995512.910
        42.000          26.400
                  81160477.826 6  19541251.344                    19541251.699
                        41.700
 117838892.771 8  91822687.19845  22424032.758                    22424038.352
        49.000          35.100
 117766411.075 7  91766048.32045  22410202.320                    22410204.820
        45.800          32.700
 120180214.721 7  93646911.66745  22869534.773                    22869537.203
        47.300          32.400
 109924504.134 8  85655434.43046  20917937.109                    20917939.828
        49.200          37.600
 18  3 16 10  3 23.0000000  0 17R01G27G30G15R10R07R16R17R18R24G20G21
                                R09G08G28G07G13
                  85866502.445 6  20652557.258                    20652560.848
                        36.700
 119733148.749 6  93298589.13244  22784463.773                    22784468.664
        39.200          24.100
 112780143.799 8  87880588.52446  21461347.625                    21461353.027
        50.000          38.800
 114955202.260 8  89575497.97845  21875247.984                    21875250.973
        48.200          35.500
                  89179336.209 6  21509755.000                    21509759.754
                        36.700
                  95097371.702 6  22840696.391                    22840699.176
                        40.700
                  91760989.493 6  22085805.773                    22085808.273
                        36.500
                  87151342.983 6  20939544.242                    20939544.906
                        40.700
                  88625472.653 6  21346117.781                    21346118.723
                        39.300
                                  23582813.117

 114791549.748 7  89447972.12945  21844105.914                    21844108.516
        44.700          31.600
 126099315.102 7  98259238.85144  23995907.016                    23995908.672
        42.800          26.400
                  81160748.695 6  19541316.578                    19541317.059
                        41.900
 117838327.396 8  91822246.65145  22423925.133                    22423930.602
        48.700          34.800
 117764367.190 7  91764455.68845  22409813.195                    22409815.809
        46.000          32.300
 120183455.632 7  93649437.06745  22870151.070                    22870154.289
        46.600          31.900
 109924427.838 7  85655374.98746  20917922.500                    20917925.449
        47.900          37.200
 18  3 16 10  3 24.0000000  0 17R01G27G30G15R10R07R16R17R18R24G20G21
                                R09G08G28G07G13
                  85864746.917 6  20652134.672                    20652138.234
                        36.400
 119735339.310 6  93300296.06344  22784880.922                    22784885.285
        39.300          24.600
 112782115.070 8  87882124.59246  21461722.586                    21461728.027
        49.500          38.900
 114953457.163 8  89574138.16645  21874916.063                    21874919.004
        48.300          35.000
                  89176529.336 6  21509078.422                    21509083.000
                        37.000
                  95101023.272 6  22841573.492                    22841576.301
                        40.800
                  91764326.880 6  22086609.844                    22086611.602
                        36.100
                  87152657.101 6  20939858.914                    20939860.070
                        40.500
                  88623607.570 6  21345668.680                    21345669.230
                        39.800
                  98087518.16713  23583676.578                    23583678.348
                        22.100
 114792846.726 7  89448982.75945  21844352.758                    21844355.832
        45.000          32.700
 126101394.840 7  98260859.42544  23996302.930                    23996304.297
        42.900          26.400
                  81161020.076 6  19541381.695                    19541382.293
                        41.900
 117837762.503 8  91821806.49745  22423817.781                    22423823.191
        48.300          34.000
 117762323.534 7  91762863.23145  22409424.578                    22409426.914
        45.700          31.300
 120186696.683 7  93651962.57445  22870767.109                    22870770.605
        46.000          31.600
 109924352.041 8  85655315.93946  20917907.984                    20917911.430
        48.300          36.900
 18  3 16 10  3 25.0000000  0 17R01G27G30G15R10R07R16R17R18R24G20G21
                                R09G08G28G07G13
                  85862991.881 6  20651713.453                    20651716.473
                        36.300
 119737530.372 6  93302003.38944  22785298.016                    22785302.309
        39.900          25.400
 112784086.768 8  87883660.97646  21462097.750                    21462102.992
        49.300          39.300
 114951712.541 8  89572778.71745  21874583.773                    21874586.953
        48.400          35.400
                  89173722.695 6  21508401.711                    21508405.984
                        37.000
                  95104674.921 6  22842450.430                    22842453.945
                        40.900
                  91767664.438 6  22087414.141                    22087414.824
                        36.600
                  87153971.845 6  20940174.672                    20940176.563
                        40.400
                  88621742.979 6  21345220.008                    21345220.066
                        39.100
                  98091109.31013  23584540.227                    23584541.512
                        21.600
 114794144.254 7  89449993.81345  21844600.016                    21844602.789
        45.300          32.700
 126103474.876 7  98262480.23344  23996698.422                    23996700.461
        43.600          24.600
                  81161292.003 6  19541447.383                    19541447.836
                        41.900
 117837198.190 8  91821366.77545  22423709.734                    22423715.777
        48.600          34.900
 117760280.238 7  91761271.05445  22409035.297                    22409038.203
        45.400          31.800
 120189937.988 7  93654488.26045  22871383.320                    22871387.773
        45.500          31.700
 109924276.833 8  85655257.33946  20917893.953                    20917896.770
        48.700          37.600
 18  3 16 10  3 26.0000000  0 17R01G27G30G15R10R07R16R17R18R24G20G21
                                R09G08G28G07G13
                  85861237.254 6  20651291.078                    20651294.590
                        36.400
 119739721.908 6  93303711.07044  22785714.602                    22785719.457
        41.000          26.300
 112786058.903 8  87885197.69246  21462473.242                    21462478.676
        49.800          38.800
 114949968.348 8  89571419.60745  21874252.188                    21874255.281
        48.800          35.100
                  89170916.253 6  21507724.617                    21507728.703
                        36.700
                  95108326.716 6  22843327.469                    22843330.176
                        40.400
                  91771002.210 6  22088217.211                    22088218.551
                        36.200
                  87155287.185 6  20940490.078                    20940492.547
                        40.100
                  88619878.873 6  21344770.891                    21344771.441
                        39.300
                                  23585402.680

 114795442.291 7  89451005.26445  21844846.570                    21844849.059
        45.200          32.800
 126105555.232 7  98264101.28844  23997094.172                    23997096.035
        43.500          26.300
                  81161564.510 6  19541513.250                    19541513.207
                        41.900
 117836634.416 8  91820927.46345  22423602.328                    22423608.172
        48.200          34.600
 117758237.242 7  91759679.10245  22408646.219                    22408649.355
        45.100          31.900
 120193179.546 7  93657014.13745  22872000.641                    22872004.563
        45.400          31.600
 109924202.139 8  85655199.14146  20917879.453                    20917882.750
        48.900          37.100
 18  3 16 10  3 27.0000000  0 17R01G27G30G15R10R07R16R17R18R24G20G21
                                R09G08G28G07G13
                  85859483.082 6  20650869.484                    20650872.109
                        36.600
 119741913.912 6  93305419.12444  22786131.445                    22786136.574
        40.500          26.000
 112788031.508 8  87886734.78146  21462848.172                    21462853.770
        50.000          38.500
 114948224.626 8  89570060.86445  21873920.180                    21873923.480
        48.500          35.000
                  89168110.074 6  21507047.484                    21507052.633
                        37.100
                  95111978.630 6  22844205.031                    22844207.430
                        40.400
                  91774340.161 6  22089019.977                    22089022.152
                        37.000
                  87156603.143 6  20940807.648                    20940809.297
                        40.000
                  88618015.251 6  21344321.641                    21344322.555
                        39.400
                                  23586268.578

 114796740.877 7  89452017.14645  21845093.789                    21845096.176
        44.900          32.300
 126107635.931 7  98265722.61444  23997490.266                    23997492.066
        43.300          26.500
                  81161837.597 6  19541578.547                    19541578.848
                        41.800
 117836071.195 7  91820488.59645  22423494.992                    22423501.348
        47.900          35.100
 117756194.607 7  91758087.44245  22408257.758                    22408260.578
        45.200          31.800
 120196421.366 7  93659540.21245  22872617.672                    22872621.512
        45.200          30.600
 109924128.025 8  85655141.39646  20917865.336                    20917868.395
        49.200          37.200
 18  3 16 10  3 28.0000000  0 17R01G27G30G15R10R07R16R17R18R24G20G21
                                R09G08G28G07G13
                  85857729.432 6  20650447.336                    20650450.969
                        36.400
 119744106.467 6  93307127.61244  22786549.039                    22786553.594
        41.100          26.700
 112790004.583 8  87888272.24346  21463223.742                    21463229.289
        50.000          38.700
 114946481.425 8  89568702.53245  21873588.820                    21873591.938
        48.600          35.200
                  89165304.162 6  21506370.016                    21506374.938
                        37.000
                  95115630.654 6  22845081.367                    22845084.629
                        40.400
                  91777678.326 6  22089823.492                    22089824.762
                        37.100
                  87157919.720 6  20941123.016                    20941125.266
                        39.800
                  88616152.188 6  21343872.227                    21343874.035
                        39.200
                                  23587130.867

 114798040.055 7  89453029.49145  21845340.828                    21845343.398
        44.900          31.800
 126109716.966 7  98267344.21344  23997886.492                    23997887.762
        43.900          25.900
                  81162111.289 6  19541644.445                    19541644.648
                        41.900
 117835508.576 7  91820050.20745  22423387.633                    22423394.176
        47.800          34.600
 117754152.297 7  91756496.03645  22407869.070                    22407872.004
        45.100          32.100
 120199663.456 7  93662066.50445  22873234.977                    22873238.418
        45.800          31.400
 109924054.522 8  85655084.12246  20917851.703                    20917854.480
        49.300          37.300
 18  3 16 10  3 29.0000000  0 17R01G27G30G15R10R07R16R17R18R24G20G21
                                R09G08G28G07G13
                  85855976.235 6  20650025.898                    20650029.148
                        36.300
 119746299.481 6  93308836.45444  22786966.414                    22786971.262
        41.100          24.700
 112791978.104 8  87889810.04246  21463599.477                    21463605.184
        50.300          39.000
 114944738.679 8  89567344.54945  21873257.039                    21873260.211
        48.800          35.300
                  89162498.525 6  21505695.297                    21505698.680
                        36.700
                  95119282.755 6  22845959.836                    22845961.680
                        40.700
                  91781016.663 6  22090627.820                    22090628.570
                        37.500
                  87159236.899 6  20941439.398                    20941442.102
                        40.000
                  88614289.615 6  21343423.453                    21343425.629
                        39.300
                                  23587994.086

 114799339.789 7  89454042.26845  21845588.781                    21845591.148
        45.200          32.500
 126111798.336 7  98268966.06944  23998282.789                    23998283.988
        44.400          25.000
                  81162385.585 6  19541710.391                    19541710.582
                        41.800
 117834946.522 7  91819612.25845  22423280.750                    22423287.113
        47.300          34.100
 117752110.344 7  91754904.91845  22407480.773                    22407483.211
        45.600          32.000
 120202905.764 7  93664592.97945  22873852.461                    22873855.488
        46.100          31.500
 109923981.572 8  85655027.27946  20917837.656                    20917840.477
        49.300          36.800
 18  3 16 10  3 30.0000000  0 17R01G27G30G15R10R07R16R17R18R24G20G21
                                R09G08G28G07G13
                  85854223.471 6  20649604.617                    20649606.980
                        36.400
 119748492.960 6  93310545.66844  22787383.523                    22787388.477
        40.400          26.100
 112793952.008 8  87891348.12346  21463975.148                    21463980.477
        50.100          38.900
 114942996.289 8  89565986.84245  21872925.313                    21872928.652
        48.700          34.800
                  89159693.107 6  21505017.445                    21505022.258
                        36.400
                  95122934.910 6  22846836.711                    22846838.941
                        40.900
                  91784355.133 6  22091430.484                    22091432.266
                        37.200
                  87160554.646 6  20941757.195                    20941758.281
                        39.600
                  88612427.498 6  21342974.820                    21342976.934
                        39.100
                                  23588856.961

 114800640.018 7  89455055.43345  21845836.391                    21845838.266
        44.900          32.800
 126113879.940 7  98270588.11044  23998678.352                    23998680.012
        44.100          26.200
                  81162660.409 6  19541777.141                    19541777.461
                        41.800
 117834384.961 7  91819174.68245  22423173.570                    22423180.535
        47.200          34.200
 117750068.664 7  91753314.01445  22407092.547                    22407095.094
        45.700          32.200
 120206148.234 7  93667119.58645  22874469.344                    22874472.426
        45.800          30.700
 109923909.136 8  85654970.84046  20917823.953                    20917826.680
        48.900          36.500
 18  3 16 10  3 31.0000000  0 17R01G27G30G15R10R07R16R17R18R24G20G21
                                R09G08G28G07G13
                  85852471.177 6  20649182.945                    20649185.902
                        36.400
 119750686.863 6  93312255.20244  22787800.695                    22787806.410
        40.100          25.200
 112795926.370 8  87892886.57446  21464350.875                    21464356.410
        50.200          39.000
 114941254.347 8  89564629.47645  21872593.836                    21872597.102
        49.000          35.100
                  89156887.933 6  21504340.672                    21504345.016
                        36.700
                  95126587.093 6  22847713.727                    22847716.391
                        40.600
                  91787693.737 6  22092235.063                    22092236.098
                        36.600
                  87161872.981 6  20942073.906                    20942075.324
                        39.600
                  88610565.843 6  21342526.023                    21342528.465
                        38.700
                                  23589720.867

 114801940.743 7  89456068.98445  21846083.305                    21846085.836
        45.300          32.900
 126115961.887 7  98272210.39844  23999074.984                    23999076.250
        44.000          26.100
                  81162935.806 6  19541843.328                    19541843.691
                        41.900
 117833823.958 7  91818737.53845  22423067.383                    22423073.500
        47.000          34.400
 117748027.297 7  91751723.34845  22406704.258                    22406706.395
        46.200          32.700
 120209390.877 7  93669646.31745  22875086.883                    22875089.086
        46.400          31.600
 109923837.228 8  85654914.80246  20917809.930                    20917812.906
        49.100          37.200
 18  3 16 10  3 32.0000000  0 17R01G27G30G15R10R07R16R17R18R24G20G21
                                R09G08G28G07G13
                  85850719.314 6  20648761.211                    20648764.582
                        37.000
 119752881.269 6  93313965.13444  22788218.219                    22788223.805
        39.800          26.000
 112797901.137 8  87894425.34946  21464726.242                    21464731.859
        50.000          38.700
 114939512.853 8  89563272.44845  21872262.555                    21872265.570
        49.300          35.100
                  89154082.996 6  21503664.875                    21503668.777
                        36.700
                  95130239.399 6  22848590.602                    22848593.496
                        40.400
                  91791032.513 6  22093038.758                    22093039.727
                        36.900
                  87163191.891 6  20942391.609                    20942391.707
                        39.700
                  88608704.679 6  21342077.313                    21342079.621
                        38.600
                                  23590584.406

 114803242.005 7  89457082.94445  21846330.992                    21846333.668
        45.100          32.300
 126118044.132 7  98273832.92844  23999471.281                    23999472.637
        44.400          26.800
                  81163211.719 6  19541908.992                    19541909.617
                        41.900
 117833263.482 7  91818300.79645  22422960.836                    22422966.992
        46.600          34.300
 117745986.242 7  91750132.93445  22406315.680                    22406318.340
        45.800          31.300
 120212633.742 7  93672173.21245  22875703.766                    22875706.453
        47.000          31.800
 109923765.864 8  85654859.18946  20917796.445                    20917799.094
        49.400          37.000
 18  3 16 10  3 33.0000000  0 17R01G27G30G15R10R07R16R17R18R24G20G21
                                R09G08G28G07G13
                  85848967.869 6  20648340.477                    20648343.703
                        36.900
 119755076.091 6  93315675.38044  22788636.094                    22788641.426
        39.700          24.800
 112799876.327 8  87895964.45746  21465102.492                    21465108.129
        49.500          38.900
 114937771.752 8  89561915.73145  21871931.211                    21871934.430
        49.100          34.700
                  89151278.262 6  21502988.117                    21502992.367
                        36.800
                  95133891.803 6  22849467.797                    22849470.852
                        40.100
                  91794371.431 6  22093841.469                    22093843.324
                        37.100
                  87164511.335 6  20942709.438                    20942708.867
                        39.400
                  88606844.000 6  21341629.547                    21341632.320
                        38.900
                                  23591448.719

 114804543.774 7  89458097.30245  21846578.938                    21846580.906
        45.000          32.900
 126120126.638 7  98275455.67444  23999866.648                    23999868.848
        43.000          26.000
                  81163488.160 6  19541976.164                    19541976.813
                        41.900
 117832703.550 7  91817864.49245  22422854.688                    22422860.602
        47.100          34.300
 117743945.438 7  91748542.70445  22405927.219                    22405929.742
        45.500          31.900
 120215876.805 7  93674700.26245  22876320.945                    22876323.367
        47.500          31.900
 109923695.036 8  85654803.99346  20917782.922                    20917785.375
        48.400          36.900
 18  3 16 10  3 34.0000000  0 17R01G27G30G15R10R07R16R17R18R24G20G21
                                R09G08G28G07G13
                  85847216.856 6  20647918.461                    20647922.109
                        36.900
 119757271.368 6  93317385.98244  22789054.063                    22789059.203
        40.600          27.600
 112801851.913 8  87897503.86546  21465478.766                    21465483.641
        49.500          38.900
 114936031.107 8  89560559.38045  21871599.711                    21871603.105
        48.900          34.800
                  89148473.745 6  21502311.047                    21502315.891
                        37.000
                  95137544.292 6  22850345.398                    22850347.957
                        39.900
                  91797710.490 6  22094644.453                    22094646.477
                        36.500
                  87165831.369 6  20943026.031                    20943025.250
                        39.600
                  88604983.798 6  21341182.234                    21341183.934
                        39.600
                                  23592312.711

 114805846.065 7  89459112.06845  21846826.219                    21846829.125
        45.400          32.800
 126122209.409 7  98277078.63244  24000262.234                    24000265.559
        42.200          25.600
                  81163765.144 6  19542042.742                    19542043.469
                        41.900
 117832144.134 7  91817428.58445  22422748.500                    22422754.070
        47.600          34.900
 117741904.947 7  91746952.71545  22405539.102                    22405541.477
        45.200          32.400
 120219120.035 7  93677227.43845  22876937.570                    22876940.391
        47.000          32.000
 109923624.724 8  85654749.20846  20917769.453                    20917772.559
        48.300          36.800
 18  3 16 10  3 35.0000000  0 17R01G27G30G15R10R07R16R17R18R24G20G21
                                R09G08G28G07G13
                  85845466.305 6  20647497.531                    20647500.789
                        36.800
 119759467.146 6  93319096.98144  22789472.234                    22789476.992
        40.800          27.600
 112803827.975 8  87899043.65846  21465854.602                    21465860.129
        49.200          38.600
 114934290.880 8  89559203.35845  21871268.875                    21871271.727
        49.000          35.100
                  89145669.472 6  21501635.164                    21501639.473
                        36.600
                  95141196.866 6  22851222.000                    22851224.664
                        39.700
                  91801049.730 6  22095448.477                    22095450.688
                        36.000
                  87167151.999 6  20943343.906                    20943342.934
                        38.200
                  88603124.071 6  21340734.055                    21340735.605
                        39.400
                  98127029.85213  23593175.695                    23593178.285
                        22.300
 114807148.886 7  89460127.25845  21847074.688                    21847076.984
        44.500          32.700
 126124292.530 6  98278701.85944  24000658.938                    24000661.410
        41.400          24.400
                  81164042.673 6  19542110.133                    19542110.129
                        41.800
 117831585.290 7  91816993.13245  22422642.141                    22422647.410
        47.300          34.800
 117739864.751 7  91745362.95145  22405150.719                    22405153.156
        45.100          31.500
 120222363.522 7  93679754.80445  22877554.555                    22877557.965
        46.800          32.600
 109923555.006 8  85654694.89146  20917756.391                    20917759.109
        48.500          37.200
 18  3 16 10  3 36.0000000  0 17R01G27G30G15R10R07R16R17R18R24G20G21
                                R09G08G28G07G13
                  85843716.283 6  20647077.352                    20647079.965
                        36.900
 119761663.414 7  93320808.34645  22789889.656                    22789894.551
        43.400          32.100
 112805804.537 8  87900583.84846  21466230.133                    21466236.121
        48.300          38.600
 114932551.217 8  89557847.78745  21870937.758                    21870941.047
        49.000          35.400
                  89142865.496 6  21500957.852                    21500962.805
                        36.500
                  95144849.576 6  22852099.273                    22852102.563
                        39.400
                  91804389.213 6  22096252.320                    22096254.770
                        36.700
                  87168473.307 6  20943658.969                    20943660.949
                        39.100
                  88601264.861 6  21340286.125                    21340287.945
                        39.400
                  98130622.41713  23594039.414                    23594041.914
                        21.900
 114808452.327 7  89461142.92445  21847322.219                    21847325.508
        44.500          32.900
 126126376.022 6  98280325.37244  24001055.469                    24001057.926
        39.800          24.900
                  81164320.828 6  19542177.047                    19542176.672
                        41.600
 117831027.023 7  91816558.12845  22422535.445                    22422541.160
        47.300          34.800
 117737824.954 7  91743773.49045  22404762.328                    22404765.094
        45.100          31.600
 120225607.344 7  93682282.43245  22878172.117                    22878175.316
        46.100          31.400
 109923485.929 8  85654641.06646  20917743.344                    20917746.004
        48.000          37.600
 18  3 16 10  3 37.0000000  0 17R01G27G30G15R10R07R16R17R18R24G20G21
                                R09G08G28G07G13
                  85841966.715 6  20646656.141                    20646659.797
                        36.900
 119763860.246 7  93322520.14645  22790307.766                    22790312.734
        43.400          31.200
 112807781.561 8  87902124.38846  21466606.867                    21466612.234
        48.700          38.600
 114930811.996 8  89556492.55545  21870607.016                    21870610.012
        49.700          35.700
                  89140061.753 6  21500283.102                    21500286.641
                        36.700
                  95148502.422 6  22852976.906                    22852979.531
                        39.100
                  91807728.865 6  22097056.703                    22097058.391
                        36.700
                  87169795.255 6  20943977.227                    20943977.504
                        39.500
                  88599406.103 6  21339838.859                    21339840.406
                        39.400
                  98134215.14613  23594903.430                    23594905.547
                        22.500
 114809756.332 7  89462159.03845  21847570.953                    21847572.891
        44.900          32.000
 126128459.852 6  98281949.14344  24001451.094                    24001454.758
        38.800          25.000
                  81164599.580 6  19542243.625                    19542243.891
                        41.800
 117830469.324 7  91816123.56445  22422429.922                    22422435.031
        47.900          35.300
 117735785.487 7  91742184.28545  22404374.461                    22404376.773
        45.700          32.400
 120228851.399 7  93684810.24345  22878789.172                    22878792.957
        46.400          32.100
 109923417.389 8  85654587.66646  20917730.516                    20917733.305
        48.300          37.500
 18  3 16 10  3 38.0000000  0 17R01G27G30G15R10R07R16R17R18R24G20G21
                                R09G08G28G07G13
                  85840217.624 6  20646235.422                    20646238.809
                        36.800
 119766057.552 7  93324232.32245  22790725.672                    22790731.480
        43.400          30.900
 112809759.016 8  87903665.26146  21466983.438                    21466988.438
        49.600          38.400
 114929073.257 8  89555137.70145  21870275.602                    21870278.980
        49.400          35.200
                  89137258.285 6  21499607.961                    21499610.320
                        36.100
                  95152155.359 6  22853854.477                    22853857.699
                        39.700
                  91811068.733 6  22097858.422                    22097861.992
                        36.200
                  87171117.771 6  20944294.203                    20944295.531
                        39.000
                  88597547.875 6  21339391.570                    21339393.137
                        39.700
                  98137807.995 3  23595768.367                    23595769.973
                        22.800
 114811060.873 7  89463175.56445  21847819.063                    21847821.449
        45.200          32.500
 126130544.026 6  98283573.17044  24001847.508                    24001850.926
        37.700          24.400
                  81164878.904 6  19542310.953                    19542310.930
                        41.800
 117829912.208 8  91815689.44545  22422323.906                    22422329.324
        48.400          35.100
 117733746.379 7  91740595.35545  22403986.273                    22403988.723
        45.500          31.600
 120232095.683 7  93687338.24145  22879406.852                    22879410.402
        46.400          31.900
 109923349.452 8  85654534.73546  20917717.055                    20917720.023
        48.800          37.200
 18  3 16 10  3 39.0000000  0 17R01G27G30G15R10R07R16R17R18R24G20G21
                                R09G08G28G07G13
                  85838469.003 6  20645814.266                    20645818.309
                        37.100
 119768255.313 7  93325944.87145  22791144.430                    22791149.457
        42.700          30.000
 112811736.926 8  87905206.48546  21467359.844                    21467365.094
        49.800          38.800
 114927334.987 8  89553783.20445  21869944.859                    21869948.348
        49.400          35.000
                  89134455.010 6  21498929.797                    21498934.414
                        36.400
                  95155808.373 6  22854731.586                    22854734.520
                        39.600
                  91814408.792 6  22098665.047                    22098666.293
                        36.400
                  87172440.896 6  20944610.820                    20944614.281
                        39.300
                  88595690.146 6  21338944.281                    21338945.141
                        39.800
                  98141400.960 3  23596632.055                    23596633.410
                        22.100
 114812365.966 7  89464192.52045  21848067.508                    21848070.098
        45.500          32.800
 126132628.479 6  98285197.40644  24002244.031                    24002247.918
        36.800          24.800
                  81165158.847 6  19542378.477                    19542378.828
                        41.800
 117829355.616 8  91815255.72945  22422217.789                    22422223.270
        48.200          34.900
 117731707.552 7  91739006.65745  22403598.430                    22403601.160
        45.400          31.400
 120235340.302 7  93689866.49745  22880024.352                    22880028.035
        46.400          31.000
 109923282.060 8  85654482.22946  20917704.680                    20917707.363
        48.900          36.800
 18  3 16 10  3 40.0000000  0 17R01G27G30G15R10R07R16R17R18R24G20G21
                                R09G08G28G07G13
                  85836720.813 6  20645394.648                    20645397.828
                        37.000
 119770453.576 7  93327657.81345  22791562.594                    22791567.449
        42.800          30.400
 112813715.305 8  87906748.08346  21467735.742                    21467741.531
        49.700          38.700
 114925597.107 8  89552429.00745  21869614.133                    21869617.703
        49.300          35.800
                  89131651.997 6  21498254.016                    21498258.316
                        36.500
                  95159461.492 6  22855609.281                    22855611.824
                        39.800
                  91817748.978 6  22099468.445                    22099470.113
                        36.100
                  87173764.632 6  20944928.586                    20944932.137
                        39.100
                  88593832.916 6  21338496.828                    21338498.176
                        39.600
                  98144994.080 3  23597496.000                    23597497.797
                        21.600
 114813671.585 7  89465209.88545  21848316.102                    21848318.367
        45.600          32.300
 126134713.251 5  98286821.89144  24002640.852                    24002644.773
        35.400          25.600
                  81165439.333 6  19542445.984                    19542446.395
                        41.600
 117828799.568 8  91814822.43845  22422111.969                    22422117.066
        48.000          34.600
 117729669.063 7  91737418.21445  22403210.320                    22403212.848
        45.700          32.100
 120238585.133 7  93692394.96245  22880641.891                    22880645.578
        47.000          31.200
 109923215.219 8  85654430.14846  20917691.711                    20917694.965
        49.500          36.900
 18  3 16 10  3 41.0000000  0 17R01G27G30G15R10R07R16R17R18R24G20G21
                                R09G08G28G07G13
                  85834973.102 6  20644973.758                    20644977.387
                        36.600
 119772652.328 7  93329371.13945  22791981.086                    22791986.207
        43.300          30.900
 112815694.094 8  87908290.00046  21468112.461                    21468117.801
        49.700          38.100
 114923859.717 8  89551075.18845  21869283.656                    21869287.008
        49.700          35.500
                  89128849.260 6  21497578.266                    21497581.930
                        36.500
                  95163114.731 6  22856487.031                    22856489.289
                        39.800
                  91821089.362 6  22100271.406                    22100273.996
                        36.100
                  87175088.958 6  20945246.516                    20945249.977
                        39.200
                  88591976.193 6  21338049.531                    21338050.711
                        40.200
                  98148587.328 3  23598359.797                    23598361.047
                        22.500
 114814977.759 7  89466227.66945  21848564.469                    21848567.004
        45.700          33.000
 126136798.425 5  98288446.68744  24003037.813                    24003041.418
        34.600          24.900
                  81165720.409 6  19542513.945                    19542513.957
                        41.700
 117828244.108 8  91814389.60845  22422006.383                    22422011.746
        48.400          34.700
 117727630.906 7  91735830.04345  22402822.352                    22402824.934
        45.200          31.200
 120241830.243 7  93694923.67045  22881259.445                    22881263.168
        47.100          30.900
 109923148.950 8  85654378.51446  20917679.273                    20917682.098
        48.800          36.800
 18  3 16 10  3 42.0000000  0 17R01G27G30G15R10R07R16R17R18R24G20G21
                                R09G08G28G07G13
                  85833225.844 6  20644553.484                    20644556.625
                        36.800
 119774851.586 7  93331084.85145  22792399.047                    22792404.352
        43.200          31.200
 112817673.339 8  87909832.27046  21468489.281                    21468494.453
        49.900          38.600
 114922122.797 8  89549721.73545  21868953.250                    21868956.410
        49.200          35.100
                  89126046.753 6  21496901.539                    21496906.047
                        36.000
                  95166768.057 6  22857364.008                    22857367.117
                        39.700
                  91824429.912 5  22101075.664                    22101078.047
                        35.600
                  87176413.879 6  20945564.133                    20945567.922
                        39.600
                  88590119.926 6  21337602.172                    21337603.973
                        39.800
                  98152180.713 3  23599224.148                    23599225.293
                        22.100
 114816284.463 7  89467245.87345  21848813.383                    21848815.480
        45.800          32.300
 126138883.877 5  98290071.68244  24003435.836                    24003438.523
        34.200          24.900
                  81166002.027 6  19542581.305                    19542581.887
                        41.800
 117827689.208 8  91813957.22645  22421900.258                    22421906.066
        48.000          35.400
 117725593.064 7  91734242.11945  22402434.641                    22402437.113
        45.700          32.100
 120245075.604 7  93697452.59145  22881876.625                    22881880.438
        46.900          30.700
 109923083.234 8  85654327.30446  20917666.445                    20917669.660
        48.900          37.000
 18  3 16 10  3 43.0000000  0 17R01G27G30G15R10R07R16R17R18R24G20G21
                                R09G08G28G07G13
                  85831479.010 6  20644134.289                    20644136.668
                        36.700
 119777051.266 7  93332798.88245  22792817.883                    22792822.961
        43.600          31.500
 112819652.954 8  87911374.83446  21468865.922                    21468871.375
        49.800          38.500
 114920386.300 8  89548368.61645  21868623.055                    21868626.219
        48.800          35.100
                  89123244.440 6  21496225.578                    21496229.516
                        36.500
                  95170421.453 6  22858241.422                    22858244.574
                        39.900
                  91827770.587 5  22101880.664                    22101882.082
                        35.800
                  87177739.352 6  20945884.070                    20945887.016
                        39.600
                  88588264.111 6  21337155.922                    21337156.719
                        39.400
                  98155774.173 3  23600088.625                    23600089.262
                        21.900
 114817591.656 7  89468264.46045  21849061.852                    21849064.375
        45.700          32.700
 126140969.530 5  98291696.84244  24003833.516                    24003835.539
        34.600          24.100
                  81166284.200 6  19542649.219                    19542649.844
                        41.800
 117827134.789 8  91813525.22845  22421794.711                    22421800.535
        48.200          34.800
 117723555.510 7  91732654.41645  22402047.492                    22402049.500
        46.100          32.900
 120248321.113 7  93699981.64045  22882493.727                    22882498.012
        46.500          30.100
 109923018.047 8  85654276.51246  20917653.680                    20917656.980
        48.400          36.300
 18  3 16 10  3 44.0000000  0 17R01G27G30G15R10R07R16R17R18R24G20G21
                                R09G08G28G07G13
                  85829732.579 6  20643713.891                    20643716.496
                        36.700
 119779251.351 7  93334513.22745  22793237.148                    22793241.375
        44.100          30.900
 112821633.003 8  87912917.73446  21469242.297                    21469248.047
        49.400          38.800
 114918650.178 8  89547015.79745  21868292.523                    21868295.820
        48.700          35.200
                  89120442.328 6  21495550.555                    21495554.379
                        36.400
                  95174074.880 6  22859119.469                    22859122.234
                        39.500
                  91831111.424 6  22102685.547                    22102686.020
                        36.200
                  87179065.391 6  20946204.633                    20946205.684
                        39.500
                  88586408.760 6  21336708.383                    21336710.359
                        39.400
                  98159367.733 3  23600951.945                    23600953.367
                        22.800
 114818899.391 7  89469283.47245  21849310.813                    21849313.172
        45.300          32.600
 126143055.572 5  98293322.30744  24004231.141                    24004232.543
        35.200          24.400
                  81166566.914 6  19542717.234                    19542718.055
                        41.600
 117826580.931 8  91813093.67145  22421689.430                    22421694.977
        48.500          35.000
 117721518.239 7  91731066.93945  22401659.703                    22401661.688
        46.400          31.500
 120251566.771 7  93702510.79545  22883111.656                    22883115.063
        45.900          31.100
 109922953.352 8  85654226.09946  20917641.641                    20917644.707
        48.300          36.200
 18  3 16 10  3 45.0000000  0 17R01G27G30G15R10R07R16R17R18R24G20G21
                                R09G08G28G07G13
                  85827986.640 6  20643293.070                    20643297.090
                        37.000
 119781451.984 7  93336227.99645  22793655.789                    22793660.551
        44.100          31.800
 112823613.536 8  87914461.01046  21469619.422                    21469624.953
        49.800          38.700
 114916914.578 8  89545663.38945  21867961.773                    21867965.313
        48.700          34.900
                  89117640.486 6  21494873.211                    21494878.313
                        36.700
                  95177728.474 6  22859996.688                    22859999.961
                        39.800
                  91834452.496 6  22103488.672                    22103490.477
                        36.500
                  87180392.085 6  20946525.023                    20946524.727
                        39.200
                  88584553.944 6  21336261.484                    21336263.531
                        39.600
                  98162961.477 3  23601814.984                    23601817.281
                        22.100
 114820207.710 7  89470302.94645  21849559.555                    21849561.977
        45.200          32.000
 126145141.873 6  98294947.97444  24004628.914                    24004629.652
        36.300          26.400
                  81166850.230 6  19542785.344                    19542785.875
                        41.500
 117826027.692 8  91812662.59545  22421583.648                    22421590.039
        48.100          35.400
 117719481.386 7  91729479.78145  22401271.578                    22401274.410
        46.400          32.000
 120254812.723 7  93705040.13144  22883729.359                    22883732.945
        45.800          29.800
 109922889.297 8  85654176.17946  20917629.516                    20917632.688
        48.600          37.000
 18  3 16 10  3 46.0000000  0 17R01G27G30G15R10R07R16R17R18R24G20G21
                                R09G08G28G07G13
                  85826241.192 6  20642873.789                    20642877.238
                        36.500
 119783653.085 7  93337943.13845  22794074.344                    22794078.984
        43.800          32.300
 112825594.493 8  87916004.61046  21469996.594                    21470001.828
        49.700          38.500
 114915179.423 8  89544311.32145  21867631.867                    21867635.316
        48.200          34.700
                  89114838.908 6  21494200.063                    21494201.816
                        37.100
                  95181382.119 6  22860873.977                    22860876.852
                        39.400
                  91837793.725 6  22104292.789                    22104293.781
                        36.800
                  87181719.339 6  20946846.094                    20946843.809
                        39.800
                  88582699.574 6  21335814.070                    21335817.148
                        39.600
                  98166555.350 3  23602680.063                    23602681.762
                        21.900
 114821516.541 7  89471322.82345  21849808.688                    21849811.219
        44.900          32.400
 126147228.552 6  98296573.95344  24005026.422                    24005026.949
        37.800          26.900
                  81167134.145 6  19542854.203                    19542854.164
                        41.700
 117825474.955 7  91812231.90545  22421478.734                    22421484.941
        47.900          35.200
 117717444.822 7  91727892.86045  22400884.180                    22400886.773
        46.500          32.400
 120258058.855 7  93707569.58245  22884347.422                    22884350.461
        46.200          30.800
 109922825.800 8  85654126.70446  20917617.500                    20917620.227
        48.900          37.300
 18  3 16 10  3 47.0000000  0 17R01G27G30G15R10R07R16R17R18R24G20G21
                                R09G08G28G07G13
                  85824496.185 6  20642454.313                    20642457.445
                        36.400
 119785854.670 7  93339658.66544  22794493.523                    22794497.922
        43.000          29.900
 112827575.884 8  87917548.55546  21470373.391                    21470379.047
        49.400          38.700
 114913444.694 8  89542959.58345  21867301.898                    21867305.102
        48.200          35.400
                  89112037.551 6  21493524.547                    21493527.395
                        36.400
                  95185035.866 6  22861751.648                    22861754.551
                        39.300
                  91841135.146 6  22105097.648                    22105099.355
                        36.700
                  87183047.195 6  20947164.586                    20947162.730
                        40.200
                  88580845.685 6  21335367.195                    21335370.004
                        39.600
                                  23603543.906

 114822825.856 7  89472343.07945  21850057.766                    21850060.422
        45.000          32.600
 126149315.495 6  98298200.14544  24005424.141                    24005423.902
        38.700          25.900
                  81167418.603 6  19542922.539                    19542922.965
                        41.600
 117824922.778 8  91811801.64645  22421373.430                    22421379.680
        48.400          35.300
 117715408.565 7  91726306.17445  22400496.688                    22400499.496
        45.900          32.000
 120261305.168 7  93710099.15145  22884965.180                    22884968.180
        46.600          31.300
 109922762.818 8  85654077.62646  20917605.594                    20917608.574
        48.300          37.800
 18  3 16 10  3 48.0000000  0 17R01G27G30G15R10R07R16R17R18R24G20G21
                                R09G08G28G07G13
                  85822751.639 5  20642034.422                    20642037.727
                        35.900
 119788056.727 7  93341374.56345  22794912.398                    22794917.094
        43.600          32.700
 112829557.757 8  87919092.88646  21470750.930                    21470756.047
        49.800          38.700
 114911710.426 8  89541608.19945  21866971.867                    21866975.281
        48.300          34.700
                  89109236.407 6  21492846.586                    21492851.441
                        37.200
                  95188689.688 6  22862629.555                    22862632.262
                        39.300
                  91844476.772 6  22105901.430                    22105902.750
                        36.500
                  87184375.648 6  20947482.656                    20947481.902
                        40.100
                  88578992.298 6  21334921.273                    21334923.777
                        39.300
                                  23604407.148

 114824135.770 7  89473363.77745  21850307.055                    21850309.477
        44.200          31.800
 126151402.709 6  98299826.54144  24005820.641                    24005821.023
        39.600          24.200
                  81167703.620 6  19542990.781                    19542991.254
                        41.600
 117824371.158 8  91811371.82545  22421268.344                    22421274.684
        48.200          35.300
 117713372.627 7  91724719.75045  22400108.977                    22400111.805
        45.900          31.500
 120264551.682 7  93712628.86845  22885583.680                    22885585.965
        47.000          31.500
 109922700.410 8  85654028.99446  20917593.781                    20917597.004
        48.500          37.300
 18  3 16 10  3 49.0000000  0 17R01G27G30G15R10R07R16R17R18R24G20G21
                                R09G08G28G07G13
                  85821007.600 6  20641615.633                    20641618.645
                        36.900
 119790259.254 7  93343090.82945  22795331.453                    22795336.535
        43.100          31.400
 112831540.055 8  87920637.56146  21471127.992                    21471133.430
        50.300          39.200
 114909976.626 8  89540257.18345  21866641.859                    21866645.227
        48.500          35.500
                  89106435.562 6  21492171.969                    21492175.566
                        37.300
                  95192343.631 6  22863507.227                    22863510.066
                        39.300
                  91847818.559 6  22106706.070                    22106707.227
                        36.700
                  87185704.712 6  20947802.156                    20947801.500
                        40.000
                  88577139.449 6  21334475.102                    21334477.289
                        39.500
                                  23605270.703

 114825446.231 7  89474384.91945  21850556.289                    21850558.555
        44.300          31.800
 126153490.278 6  98301453.21844  24006218.195                    24006218.152
        40.800          25.100
                  81167989.239 6  19543059.641                    19543060.223
                        41.800
 117823820.105 7  91810942.43645  22421163.430                    22421169.527
        47.500          35.200
 117711337.038 7  91723133.58245  22399721.523                    22399724.496
        45.900          31.600
 120267798.454 7  93715158.78645  22886201.461                    22886203.844
        47.600          31.700
 109922638.591 8  85653980.82446  20917581.695                    20917585.168
        48.800          36.700
 18  3 16 10  3 50.0000000  0 17R01G27G30G15R10R07R16R17R18R24G20G21
                                R09G08G28G07G13
                  85819264.022 6  20641196.438                    20641199.535
                        36.900
 119792462.281 7  93344807.47845  22795750.844                    22795756.145
        43.600          32.100
 112833522.793 8  87922182.57746  21471505.164                    21471510.898
        50.500          39.100
 114908243.291 8  89538906.53945  21866312.141                    21866315.160
        48.400          35.200
                  89103634.955 6  21491496.672                    21491500.563
                        36.500
                  95195997.662 6  22864384.914                    22864387.340
                        39.300
                  91851160.504 6  22107509.914                    22107512.520
                        36.700
                  87187034.402 6  20948120.922                    20948120.410
                        39.800
                  88575287.107 6  21334029.953                    21334031.285
                        39.600
                                  23606135.852

 114826757.240 7  89475406.48745  21850805.656                    21850808.410
        44.300          32.200
 126155578.163 6  98303080.14043  24006614.563                    24006615.785
        41.800          23.400
                  81168275.404 6  19543128.289                    19543129.137
                        41.600
 117823269.605 7  91810513.47245  22421058.875                    22421064.852
        47.500          34.600
 117709301.769 7  91721547.66545  22399334.352                    22399337.477
        45.800          31.800
 120271045.460 7  93717688.89545  22886819.133                    22886822.066
        47.600          31.800
 109922577.322 8  85653933.07946  20917570.156                    20917573.438
        49.100          36.200
 18  3 16 10  3 51.0000000  0 17R01G27G30G15R10R07R16R17R18R24G20G21
                                R09G08G28G07G13
                  85817520.922 6  20640776.117                    20640780.184
                        36.900
 119794665.848 7  93346524.53745  22796169.758                    22796175.324
        43.300          31.200
 112835505.993 8  87923727.93846  21471882.352                    21471887.973
        50.200          39.000
 114906510.438 8  89537556.26045  21865982.422                    21865985.750
        48.400          35.300
                  89100834.587 6  21490821.094                    21490824.586
                        36.400
                  95199651.831 6  22865261.906                    22865265.016
                        39.400
                  91854502.659 6  22108313.734                    22108316.590
                        36.700
                  87188364.688 6  20948439.055                    20948439.859
                        39.900
                  88573435.250 6  21333584.008                    21333585.191
                        39.300
                                  23607000.117

 114828068.785 7  89476428.46745  21851055.344                    21851057.914
        44.100          31.800
 126157666.429 7  98304707.37144  24007011.352                    24007012.719
        42.700          25.600
                  81168562.165 6  19543197.422                    19543198.234
                        41.700
 117822719.688 7  91810084.96345  22420954.969                    22420960.152
        47.600          34.700
 117707266.850 7  91719962.01545  22398947.320                    22398950.148
        45.800          32.100
 120274292.724 7  93720219.21545  22887436.688                    22887440.465
        47.700          32.100
 109922516.665 8  85653885.81846  20917558.672                    20917561.750
        49.000          36.500
 18  3 16 10  3 52.0000000  0 17R01G27G30G15R10R07R16R17R18R24G20G21
                                R09G08G28G07G13
                  85815778.261 6  20640357.266                    20640360.438
                        37.000
 119796869.837 7  93348241.92245  22796589.102                    22796594.520
        43.200          31.800
 112837489.597 8  87925273.58946  21472259.953                    21472265.469
        50.000          39.100
 114904778.041 8  89536206.33845  21865652.891                    21865656.461
        48.500          35.100
                  89098034.464 6  21490146.242                    21490149.199
                        36.900
                  95203306.105 6  22866140.578                    22866142.910
                        39.100
                  91857845.006 6  22109118.555                    22109120.840
                        36.800
                  87189695.562 6  20948757.102                    20948759.645
                        39.600
                  88571583.869 6  21333137.039                    21333138.891
                        39.300
                                  23607864.891

 114829380.879 7  89477450.87645  21851304.859                    21851307.586
        44.300          32.100
 126159754.939 7  98306334.78444  24007409.031                    24007410.266
        43.200          24.900
                  81168849.481 6  19543267.625                    19543267.484
                        41.600
 117822170.270 7  91809656.83245  22420849.969                    22420855.816
        47.500          34.400
 117705232.231 7  91718376.59445  22398559.883                    22398562.316
        45.400          32.300
 120277540.137 7  93722749.66345  22888054.141                    22888058.195
        47.100          31.300
 109922456.544 8  85653838.96846  20917547.117                    20917550.316
        48.700          36.300
 18  3 16 10  3 53.0000000  0 17R01G27G30G15R10R07R16R17R18R24G20G21
                                R09G08G28G07G13
                  85814036.099 6  20639938.484                    20639941.691
                        37.400
 119799074.313 7  93349959.68845  22797008.570                    22797013.980
        42.700          31.900
 112839473.667 8  87926819.60346  21472637.594                    21472642.945
        50.200          39.400
 114903046.091 8  89534856.77445  21865322.867                    21865326.414
        48.300          35.400
                  89095234.534 6  21489469.820                    21489474.676
                        36.900
                  95206960.456 6  22867017.258                    22867021.074
                        38.300
                  91861187.505 6  22109922.922                    22109925.441
                        36.800
                  87191027.024 6  20949075.469                    20949079.113
                        39.800
                  88569732.965 6  21332692.328                    21332693.098
                        39.200
                                  23608729.852

 114830693.478 7  89478473.68545  21851554.750                    21851557.418
        44.500          32.100
 126161843.793 7  98307962.48044  24007805.891                    24007807.828
        43.000          24.900
                  81169137.361 6  19543336.461                    19543336.871
                        41.700
 117821621.436 7  91809229.15945  22420745.570                    22420751.008
        47.500          35.000
 117703197.974 7  91716791.45945  22398172.758                    22398175.387
        45.100          31.200
 120280787.757 7  93725280.24945  22888671.961                    22888676.355
        46.300          31.100
 109922396.959 8  85653792.54146  20917536.203                    20917539.000
        48.600          36.200
 18  3 16 10  3 54.0000000  0 17R01G27G30G15R10R07R16R17R18R24G20G21
                                R09G08G28G07G13
                  85812294.421 6  20639519.406                    20639522.914
                        37.000
 119801279.311 7  93351677.86045  22797428.156                    22797433.773
        43.300          31.900
 112841458.224 8  87928365.99846  21473015.305                    21473020.547
        50.100          39.400
 114901314.615 8  89533507.57545  21864993.539                    21864996.820
        48.700          35.000
                  89092434.896 6  21488794.688                    21488799.035
                        36.700
                  95210614.906 6  22867895.766                    22867898.320
                        38.300
                  91864530.229 6  22110726.742                    22110729.777
                        36.900
                  87192359.136 6  20949394.352                    20949399.621
                        39.700
                  88567882.612 6  21332247.367                    21332247.672
                        39.200
                                  23609593.281

 114832006.688 7  89479496.96345  21851804.430                    21851807.035
        45.000          32.100
 126163932.975 7  98309590.42744  24008203.492                    24008205.262
        43.500          25.200
                  81169425.850 6  19543405.930                    19543405.938
                        41.800
 117821073.208 8  91808801.96245  22420641.531                    22420647.297
        48.100          34.700
 117701164.051 7  91715206.60545  22397785.555                    22397788.434
        45.000          31.900
 120284035.618 7  93727810.99645  22889289.875                    22889294.004
        45.200          30.800
 109922338.016 8  85653746.61346  20917525.133                    20917527.914
        48.400          36.800
 18  3 16 10  3 55.0000000  0 17R01G27G30G15R10R07R16R17R18R24G20G21
                                R09G08G28G07G13
                  85810553.221 6  20639100.992                    20639103.793
                        36.800
 119803484.829 7  93353396.44745  22797847.898                    22797853.188
        42.800          31.400
 112843443.213 8  87929912.73746  21473392.938                    21473398.242
        50.200          39.200
 114899583.634 8  89532158.76445  21864664.250                    21864667.367
        48.800          35.200
                  89089635.534 6  21488119.844                    21488123.766
                        37.100
                  95214269.513 6  22868773.133                    22868775.773
                        38.400
                  91867873.125 6  22111532.102                    22111534.512
                        36.200
                  87193691.873 6  20949713.063                    20949719.434
                        39.900
                  88566032.767 6  21331801.344                    21331802.352
                        39.300
                  98198904.19913  23610457.266                    23610458.797
                        23.300
 114833320.489 7  89480520.70645  21852054.336                    21852057.336
        44.900          32.000
 126166022.525 7  98311218.64944  24008600.875                    24008602.992
        43.400          26.000
                  81169714.935 6  19543475.797                    19543476.023
                        41.600
 117820525.557 8  91808375.22145  22420537.344                    22420543.258
        48.000          34.800
 117699130.476 7  91713622.02545  22397399.203                    22397401.762
        45.200          31.800
 120287283.774 7  93730341.93545  22889907.664                    22889911.707
        44.700          30.600
 109922279.638 8  85653701.12646  20917513.664                    20917516.887
        48.800          36.700
 18  3 16 10  3 56.0000000  0 17R01G27G30G15R10R07R16R17R18R24G20G21
                                R09G08G28G07G13
                  85808812.475 6  20638682.180                    20638685.688
                        36.900
 119805690.838 7  93355115.40345  22798268.352                    22798273.270
        42.000          31.200
 112845428.691 8  87931459.86246  21473770.977                    21473776.348
        50.500          39.100
 114897853.099 8  89530810.28945  21864335.078                    21864338.039
        48.800          35.200
                  89086836.432 6  21487444.336                    21487448.633
                        36.700
                  95217924.219 6  22869650.938                    22869653.621
                        38.500
                  91871216.178 6  22112336.828                    22112338.770
                        36.700
                  87195025.213 6  20950034.836                    20950039.660
                        39.900
                  88564183.403 6  21331355.117                    21331356.859
                        39.400
                  98202499.43613  23611321.219                    23611323.293
                        22.100
 114834634.843 7  89481544.88445  21852305.141                    21852307.230
        45.400          32.400
 126168112.377 7  98312847.10944  24008998.625                    24009000.969
        43.900          24.200
                  81170004.602 6  19543545.570                    19543545.449
                        41.700
 117819978.465 8  91807948.92345  22420433.172                    22420438.781
        48.400          34.800
 117697097.250 7  91712037.71245  22397012.336                    22397014.457
        45.700          30.900
 120290532.216 7  93732873.09445  22890526.930                    22890529.871
        45.300          30.600
 109922221.834 8  85653656.08546  20917502.781                    20917505.480
        48.700          37.000
 18  3 16 10  3 57.0000000  0 17R01G27G30G15R10R07R16R17R18R24G20G21
                                R09G08G28G07G13
                  85807072.161 6  20638263.438                    20638266.500
                        36.900
 119807897.300 7  93356834.72045  22798687.969                    22798693.152
        42.100          31.400
 112847414.581 8  87933007.30846  21474148.695                    21474154.395
        50.700          39.000
 114896123.004 8  89529462.15645  21864005.594                    21864008.902
        48.300          35.700
                  89084037.562 6  21486769.430                    21486773.523
                        36.400
                  95221579.019 6  22870528.742                    22870531.266
                        38.400
                  91874559.371 6  22113140.445                    22113143.527
                        36.400
                  87196359.090 6  20950358.695                    20950359.391
                        40.100
                  88562334.490 6  21330910.063                    21330911.215
                        39.600
                  98206094.80313  23612185.313                    23612187.977
                        22.500
 114835949.731 7  89482569.48345  21852554.875                    21852557.633
        45.400          32.700
 126170202.524 7  98314475.81344  24009395.969                    24009398.000
        43.900          25.200
                  81170294.825 6  19543615.555                    19543615.230
                        41.600
 117819431.876 8  91807523.01545  22420329.203                    22420334.813
        48.700          34.500
 117695064.317 7  91710453.61845  22396625.625                    22396627.508
        46.300          31.800
 120293780.873 7  93735404.44945  22891145.664                    22891147.703
        46.400          30.700
 109922164.545 8  85653611.43946  20917492.016                    20917494.473
        48.800          36.500
 18  3 16 10  3 58.0000000  0 17R01G27G30G15R10R07R16R17R18R24G20G21
                                R09G08G28G07G13
                  85805332.264 6  20637843.938                    20637847.805
                        36.800
 119810104.202 7  93358554.38545  22799107.430                    22799113.289
        42.500          30.600
 112849400.858 8  87934555.05946  21474526.484                    21474532.262
        50.500          39.000
 114894393.326 8  89528114.33645  21863675.875                    21863679.531
        48.200          35.100
                  89081238.920 6  21486094.492                    21486099.117
                        36.600
                  95225233.911 6  22871406.719                    22871409.945
                        38.600
                  91877902.683 6  22113947.039                    22113948.070
                        36.100
                  87197693.519 6  20950683.383                    20950680.199
                        40.100
                  88560486.052 6  21330464.047                    21330465.883
                        39.500
                  98209690.263 3  23613049.406                    23613052.402
                        22.500
 114837265.121 7  89483594.48845  21852805.602                    21852808.152
        45.500          32.600
 126172292.958 7  98316104.72844  24009794.172                    24009795.801
        43.800          26.900
                  81170585.630 6  19543684.688                    19543685.637
                        41.700
 117818885.802 8  91807097.49845  22420225.305                    22420230.922
        48.600          34.900
 117693031.666 7  91708869.74045  22396239.078                    22396241.055
        46.400          31.800
 120297029.727 7  93737935.99645  22891764.117                    22891765.938
        47.000          30.400
 109922107.806 8  85653567.21946  20917480.984                    20917483.891
        48.800          37.000
 18  3 16 10  3 59.0000000  0 17R01G27G30G15R10R07R16R17R18R24G20G21
                                R09G08G28G07G13
                  85803592.874 6  20637426.398                    20637429.449
                        36.600
 119812311.599 7  93360274.43245  22799527.500                    22799533.313
        42.600          30.400
 112851387.628 8  87936103.19146  21474904.305                    21474910.422
        50.100          39.000
 114892664.116 8  89526766.88845  21863346.992                    21863350.688
        48.300          35.100
                  89078440.513 6  21485419.047                    21485423.445
                        36.800
                  95228888.886 6  22872284.492                    22872287.609
                        38.200
                  91881246.184 6  22114751.055                    22114752.430
                        36.600
                  87199028.536 6  20951005.484                    20951001.758
                        40.200
                  88558638.105 6  21330018.445                    21330020.234
                        39.500
                  98213285.824 3  23613913.875                    23613916.906
                        22.700
 114838581.062 7  89484619.92345  21853055.422                    21853058.387
        45.300          33.000
 126174383.726 7  98317733.89944  24010191.641                    24010193.727
        43.500          24.700
                  81170877.018 6  19543755.102                    19543755.805
                        41.700
 117818340.297 8  91806672.41945  22420120.891                    22420126.645
        48.200          35.400
 117690999.348 7  91707286.11845  22395851.648                    22395854.129
        45.900          31.200
 120300278.801 7  93740467.74345  22892383.078                    22892384.324
        47.800          31.100
 109922051.679 8  85653523.47546  20917469.953                    20917473.313
        48.700          36.900
 18  3 16 10  4  0.0000000  0 17R01G27G30G15R10R07R16R17R18R24G20G21
                                R09G08G28G07G13
                  85801853.931 6  20637008.789                    20637011.559
                        36.500
 119814519.435 7  93361994.82345  22799948.156                    22799953.438
        42.600          30.500
 112853374.783 8  87937651.62846  21475283.039                    21475288.352
        50.300          38.800
 114890935.334 8  89525419.78245  21863018.648                    21863021.590
        48.500          35.300
                  89075642.363 6  21484745.766                    21484748.902
                        36.900
                  95232543.899 6  22873162.195                    22873165.363
                        38.100
                  91884589.889 6  22115555.664                    22115557.609
                        36.500
                  87200364.163 6  20951325.672                    20951323.070
                        39.800
                  88556790.613 6  21329573.094                    21329576.055
                        39.400
                  98216881.489 4  23614780.172                    23614781.277
                        24.200
 114839897.455 7  89485645.70145  21853306.242                    21853308.785
        44.900          32.100
 126176474.764 7  98319363.27244  24010589.555                    24010591.648
        43.200          24.800
                  81171168.948 6  19543824.961                    19543826.188
                        41.700
 117817795.305 7  91806247.74745  22420017.320                    22420023.340
        47.900          34.700
 117688967.329 7  91705702.72245  22395465.055                    22395467.766
        46.200          31.800
 120303528.084 8  93742999.67345  22893000.875                    22893002.484
        48.100          31.900
 109921996.028 8  85653480.11046  20917459.672                    20917462.621
        48.300          37.000
 18  3 16 10  4  1.0000000  0 17R01G27G30G15R10R07R16R17R18R24G20G21
                                R09G08G28G07G13
                  85800115.457 6  20636590.344                    20636593.371
                        36.500
 119816727.772 7  93363715.60545  22800367.922                    22800373.691
        42.200          30.300
 112855362.402 8  87939200.43046  21475661.172                    21475666.832
        50.400          38.800
 114889207.003 8  89524073.03345  21862689.617                    21862692.672
        48.600          35.700
                  89072844.462 6  21484070.445                    21484074.270
                        36.900
                  95236198.984 6  22874040.391                    22874042.859
                        38.300
                  91887933.758 6  22116360.117                    22116362.773
                        36.600
                  87201700.401 6  20951646.039                    20951644.570
                        39.700
                  88554943.628 6  21329129.414                    21329131.660
                        39.800
                  98220477.281 3  23615644.492                    23615646.063
                        22.800
 114841214.454 7  89486671.94145  21853557.227                    21853558.941
        45.000          32.800
 126178566.113 7  98320992.89643  24010986.711                    24010989.449
        43.500          23.800
                  81171461.454 6  19543895.484                    19543896.195
                        41.700
 117817250.887 7  91805823.52445  22419913.477                    22419919.500
        47.500          34.600
 117686935.668 7  91704119.59445  22395078.016                    22395081.215
        45.800          31.100
 120306777.561 7  93745531.74145  22893618.852                    22893621.055
        47.700          31.600
 109921940.943 8  85653437.18646  20917448.813                    20917452.332
        48.800          37.100
 18  3 16 10  4  2.0000000  0 17R01G27G30G15R10R07R16R17R18R24G20G21
                                R09G08G28G07G13
                  85798377.453 6  20636172.430                    20636174.945
                        36.600
 119818936.612 7  93365436.78045  22800787.984                    22800793.977
        42.800          30.000
 112857350.511 8  87940749.62646  21476039.156                    21476044.883
        50.700          39.200
 114887479.165 8  89522726.66045  21862360.820                    21862364.172
        48.600          35.500
                  89070046.842 6  21483394.047                    21483399.039
                        36.800
                  95239854.205 6  22874918.563                    22874921.512
                        38.300
                  91891277.837 6  22117165.773                    22117167.496
                        36.600
                  87203037.312 6  20951965.977                    20951965.988
                        39.500
                  88553097.172 6  21328685.406                    21328686.297
                        39.800
                  98224073.273 3  23616508.188                    23616510.668
                        23.300
 114842531.980 7  89487698.59045  21853807.609                    21853810.219
        44.600          32.200
 126180657.851 7  98322622.81644  24011385.383                    24011387.254
        43.600          25.800
                  81171754.538 6  19543966.852                    19543966.879
                        41.700
 117816707.068 7  91805399.76545  22419810.313                    22419815.926
        47.900          34.900
 117684904.323 7  91702536.73645  22394691.719                    22394694.707
        45.700          31.500
 120310027.312 7  93748064.00145  22894236.852                    22894239.770
        47.400          31.200
 109921886.484 8  85653394.74546  20917438.914                    20917441.785
        48.900          37.100
 18  3 16 10  4  3.0000000  0 17R01G27G30G15R10R07R16R17R18R24G20G21
                                R09G08G28G07G13
                  85796639.918 6  20635754.063                    20635757.266
                        36.600
 119821145.968 7  93367158.35445  22801209.172                    22801214.488
        42.900          30.700
 112859339.017 8  87942299.12146  21476417.508                    21476423.496
        50.000          39.000
 114885751.759 8  89521380.62645  21862031.992                    21862035.336
        48.600          35.800
                  89067249.461 6  21482721.328                    21482724.691
                        37.100
                  95243509.504 6  22875796.164                    22875799.141
                        37.700
                  91894622.058 6  22117970.875                    22117972.262
                        36.700
                  87204374.779 6  20952286.094                    20952287.332
                        39.800
                  88551251.200 6  21328240.438                    21328241.465
                        39.700
                  98227669.408 3  23617373.281                    23617375.465
                        22.300
 114843850.066 7  89488725.67245  21854058.023                    21854061.109
        45.000          32.600
 126182749.866 7  98324252.96044  24011783.500                    24011785.703
        43.500          25.300
                  81172048.153 6  19544037.219                    19544037.305
                        41.700
 117816163.790 7  91804976.43445  22419706.703                    22419712.695
        47.500          35.400
 117682873.326 7  91700954.16045  22394305.406                    22394307.914
        45.500          31.900
 120313277.247 7  93750596.38745  22894854.664                    22894858.664
        46.700          31.400
 109921832.563 8  85653352.72246  20917428.563                    20917431.883
        49.000          37.400
 18  3 16 10  4  4.0000000  0 17R01G27G30G15R10R07R16R17R18R24G20G21
                                R09G08G28G07G13
                  85794902.822 6  20635336.055                    20635339.352
                        36.500
 119823355.735 7  93368880.23845  22801629.336                    22801634.859
        43.700          30.800
 112861327.968 8  87943848.95846  21476796.625                    21476801.898
        50.300          39.000
 114884024.800 8  89520034.93745  21861703.695                    21861706.742
        49.100          34.900
                  89064452.275 6  21482044.914                    21482049.750
                        37.400
                  95247164.925 6  22876673.094                    22876676.855
                        38.200
                  91897966.424 6  22118774.570                    22118777.219
                        36.800
                  87205712.851 6  20952606.609                    20952608.695
                        39.400
                  88549405.704 6  21327796.508                    21327797.543
                        39.800
                  98231265.625 3  23618238.602                    23618239.703
                        23.300
 114845168.645 7  89489753.14145  21854309.055                    21854311.531
        45.000          31.500
 126184842.182 7  98325883.34044  24012181.625                    24012184.145
        43.500          26.300
                  81172342.350 6  19544108.211                    19544108.070
                        41.600
 117815621.045 7  91804553.50945  22419603.469                    22419609.566
        47.600          35.100
 117680842.614 7  91699371.79745  22393918.859                    22393921.582
        45.700          31.700
 120316527.402 7  93753128.91945  22895473.281                    22895477.285
        45.900          31.200
 109921779.185 8  85653311.12346  20917418.359                    20917421.492
        49.000          36.800
 18  3 16 10  4  5.0000000  0 17R01G27G30G15R10R07R16R17R18R24G20G21
                                R09G08G28G07G13
                  85793166.241 6  20634918.852                    20634921.352
                        36.300
 119825566.038 7  93370602.55145  22802050.570                    22802055.578
        44.000          31.400
 112863317.404 8  87945399.16946  21477175.094                    21477180.277
        50.500          39.200
 114882298.398 8  89518689.68045  21861375.258                    21861378.441
        49.400          35.500
                  89061655.408 6  21481371.664                    21481374.691
                        37.500
                  95250820.496 6  22877551.867                    22877554.668
                        38.500
                  91901311.018 6  22119580.547                    22119582.422
                        36.800
                  87207051.570 6  20952926.773                    20952930.477
                        39.200
                  88547560.725 6  21327352.023                    21327352.977
                        40.000
                  98234862.050 4  23619104.508                    23619104.863
                        24.300
 114846487.862 7  89490781.10945  21854560.453                    21854562.969
        45.600          32.300
 126186934.880 7  98327514.01044  24012579.938                    24012582.234
        43.500          25.500
                  81172637.163 6  19544178.898                    19544179.039
                        41.600
 117815078.922 7  91804131.07445  22419500.578                    22419506.395
        47.500          34.900
 117678812.270 7  91697789.72345  22393532.102                    22393535.191
        45.500          31.500
 120319777.838 7  93755661.63945  22896092.164                    22896095.688
        45.400          30.800
 109921726.425 8  85653270.01046  20917408.438                    20917411.109
        48.400          36.900
 18  3 16 10  4  6.0000000  0 17R01G27G30G15R10R07R16R17R18R24G20G21
                                R09G08G28G07G13
                  85791430.129 6  20634501.523                    20634504.527
                        36.400
 119827776.829 7  93372325.24745  22802470.930                    22802476.125
        44.000          30.400
 112865307.288 8  87946949.73646  21477553.266                    21477558.809
        50.100          38.800
 114880572.426 8  89517344.75945  21861046.711                    21861049.543
        49.100          35.200
                  89058858.794 6  21480697.359                    21480700.430
                        37.500
                  95254476.173 6  22878430.609                    22878433.168
                        38.000
                  91904655.796 6  22120386.000                    22120387.605
                        36.500
                  87208390.850 6  20953247.531                    20953252.223
                        39.500
                  88545716.221 6  21326907.773                    21326908.453
                        39.600
                  98238458.613 3  23619967.508                    23619968.688
                        22.500
 114847807.579 7  89491809.46645  21854811.625                    21854813.813
        45.500          31.600
 126189027.850 7  98329144.89544  24012979.133                    24012980.410
        43.100          26.000
                  81172932.537 6  19544249.969                    19544250.355
                        41.600
 117814537.313 7  91803709.04045  22419397.398                    22419403.004
        47.200          35.300
 117676782.259 7  91696207.89645  22393146.313                    22393149.406
        45.300          31.200
 120323028.586 7  93758194.59345  22896711.430                    22896714.723
        45.900          31.500
 109921674.224 8  85653229.32746  20917398.359                    20917401.289
        48.500          37.100
 18  3 16 10  4  7.0000000  0 17R01G27G30G15R10R07R16R17R18R24G20G21
                                R09G08G28G07G13
                  85789694.472 6  20634083.695                    20634086.730
                        36.900
 119829988.112 7  93374048.33145  22802891.539                    22802896.656
        43.800          31.100
 112867297.625 8  87948500.65446  21477932.219                    21477937.738
        50.000          38.700
 114878846.920 8  89516000.21045  21860717.789                    21860721.273
        48.700          35.400
                  89056062.390 6  21480019.859                    21480026.363
                        37.000
                  95258131.927 6  22879308.742                    22879311.105
                        37.600
                  91908000.766 6  22121190.008                    22121192.434
                        36.200
                  87209730.746 6  20953569.031                    20953573.965
                        39.300
                  88543872.237 6  21326464.047                    21326464.691
                        39.600
                  98242055.265 3  23620834.086                    23620834.121
                        22.700
 114849127.802 7  89492838.20745  21855062.289                    21855065.270
        45.600          31.800
 126191121.185 7  98330776.06044  24013376.914                    24013378.855
        43.300          25.300
                  81173228.505 6  19544321.180                    19544321.250
                        41.600
 117813996.292 7  91803287.45545  22419294.938                    22419300.238
        47.400          35.100
 117674752.580 7  91694626.33345  22392759.578                    22392762.930
        45.600          31.300
 120326279.526 7  93760727.73745  22897330.320                    22897333.254
        46.500          31.700
 109921622.589 8  85653189.09346  20917388.633                    20917391.613
        48.400          36.600
 18  3 16 10  4  8.0000000  0 17R01G27G30G15R10R07R16R17R18R24G20G21
                                R09G08G28G07G13
                  85787959.336 6  20633666.484                    20633669.996
                        37.000
 119832199.935 7  93375771.83045  22803312.383                    22803317.273
        44.000          31.000
 112869288.440 8  87950051.94646  21478311.297                    21478316.527
        50.200          38.400
 114877121.910 8  89514656.05345  21860389.688                    21860392.773
        49.000          35.400
                  89053266.320 6  21479348.453                    21479351.695
                        37.100
                  95261787.805 6  22880186.945                    22880189.332
                        37.100
                  91911345.950 6  22121995.188                    22121997.617
                        36.200
                  87211071.307 6  20953891.008                    20953895.711
                        39.200
                  88542028.800 6  21326019.430                    21326020.957
                        39.600
                  98245652.063 3  23621698.516                    23621698.828
                        22.500
 114850448.675 7  89493867.45045  21855314.289                    21855316.527
        45.100          32.300
 126193214.856 7  98332407.49344  24013775.461                    24013777.086
        43.800          25.600
                  81173525.093 6  19544392.461                    19544393.195
                        41.700
 117813455.873 7  91802866.34245  22419191.898                    22419197.680
        47.600          34.900
 117672723.301 7  91693045.07445  22392373.914                    22392376.199
        45.300          31.800
 120329530.701 7  93763261.07945  22897949.688                    22897952.129
        47.200          31.200
 109921571.572 8  85653149.33446  20917378.875                    20917381.891
        48.900          37.100
 18  3 16 10  4  9.0000000  0 17R01G27G30G15R10R07R16R17R18R24G20G21
                                R09G08G28G07G13
                  85786224.633 6  20633248.648                    20633252.488
                        36.900
 119834412.191 7  93377495.66545  22803734.070                    22803738.711
        43.900          31.000
 112871279.672 8  87951603.55646  21478690.188                    21478695.664
        50.500          38.900
 114875397.345 8  89513312.22845  21860061.992                    21860064.758
        48.800          35.800
                  89050470.475 6  21478672.844                    21478678.129
                        36.700
                  95265443.770 6  22881063.992                    22881066.953
                        37.200
                  91914691.259 6  22122801.461                    22122803.383
                        36.300
                  87212412.455 6  20954214.617                    20954217.020
                        39.400
                  88540185.837 6  21325575.242                    21325576.355
                        39.600
                  98249248.998 3  23622562.891                    23622563.645
                        21.100
 114851770.018 7  89494897.05845  21855565.719                    21855568.133
        44.800          32.100
 126195308.832 7  98334039.17644  24014173.906                    24014175.746
        43.700          26.300
                  81173822.195 6  19544464.438                    19544464.535
                        41.500
 117812916.000 7  91802445.65645  22419089.188                    22419094.895
        47.700          35.000
 117670694.295 7  91691464.02745  22391988.000                    22391989.855
        45.600          31.900
 120332782.099 7  93765794.60545  22898568.344                    22898570.598
        47.900          31.800
 109921521.078 8  85653109.98646  20917369.406                    20917372.125
        49.100          36.900
 18  3 16 10  4 10.0000000  0 17R01G27G30G15R10R07R16R17R18R24G20G21
                                R09G08G28G07G13
                  85784490.368 6  20632831.773                    20632835.563
                        37.000
 119836624.888 7  93379219.84545  22804154.609                    22804159.578
        42.800          30.600
 112873271.270 8  87953155.45046  21479068.695                    21479074.641
        49.900          38.400
 114873673.172 8  89511968.70646  21859733.742                    21859736.785
        48.900          36.000
                  89047674.777 6  21477998.578                    21478003.160
                        36.800
                  95269099.784 6  22881941.867                    22881945.738
                        36.900
                  91918036.688 6  22123605.398                    22123608.176
                        36.200
                  87213754.080 6  20954539.773                    20954539.871
                        39.400
                  88538343.307 6  21325131.086                    21325133.195
                        39.400
                  98252845.975 3  23623427.664                    23623428.422
                        22.300
 114853091.843 7  89495927.03645  21855817.164                    21855819.379
        45.000          32.300
 126197403.042 7  98335671.03044  24014572.445                    24014574.375
        43.800          26.200
                  81174119.817 6  19544535.727                    19544535.668
                        41.800
 117812376.614 7  91802025.34145  22418987.023                    22418992.332
        47.600          35.100
 117668665.580 7  91689883.21045  22391602.445                    22391603.961
        46.000          32.100
 120336033.642 7  93768328.25544  22899186.898                    22899189.348
        47.200          29.900
 109921471.090 8  85653071.02546  20917359.875                    20917362.855
        49.400          36.700
 18  3 16 10  4 11.0000000  0 17R01G27G30G15R10R07R16R17R18R24G20G21
                                R09G08G28G07G13
                  85782756.581 6  20632415.109                    20632418.523
                        37.100
 119838838.123 7  93380944.44545  22804576.156                    22804580.246
        43.200          30.200
 112875263.409 8  87954707.77046  21479447.836                    21479453.383
        49.800          38.400
 114871949.530 8  89510625.60245  21859406.039                    21859408.820
        49.200          35.400
                  89044879.424 6  21477325.125                    21477328.723
                        36.400
                  95272755.951 6  22882820.891                    22882823.492
                        37.600
                  91921382.362 6  22124411.406                    22124413.270
                        36.500
                  87215096.369 6  20954862.922                    20954861.875
                        39.300
                  88536501.300 6  21324687.133                    21324689.164
                        39.400
                  98256443.145 3  23624292.211                    23624293.863
                        22.700
 114854414.280 7  89496957.48745  21856068.898                    21856071.031
        45.100          32.300
 126199497.647 7  98337303.18944  24014970.922                    24014973.105
        43.700          26.400
                  81174418.081 6  19544607.617                    19544608.211
                        41.700
 117811837.852 8  91801605.52045  22418884.164                    22418890.004
        48.000          34.800
 117666637.225 7  91688302.65945  22391216.086                    22391218.332
        46.100          32.100
 120339285.516 7  93770862.16945  22899805.234                    22899807.664
        47.500          31.700
 109921421.720 8  85653032.54146  20917350.563                    20917353.238
        49.500          36.900
 18  3 16 10  4 12.0000000  0 17R01G27G30G15R10R07R16R17R18R24G20G21
                                R09G08G28G07G13
                  85781023.241 6  20631997.906                    20632001.227
                        36.900
 119841051.800 7  93382669.38545  22804997.078                    22805001.949
        42.500          30.500
 112877255.953 8  87956260.40046  21479827.195                    21479832.707
        50.300          38.300
 114870226.313 8  89509282.83445  21859077.445                    21859080.801
        49.000          35.000
                  89042084.271 6  21476650.117                    21476654.313
                        36.600
                  95276412.154 6  22883699.141                    22883701.617
                        37.200
                  91924728.202 6  22125217.258                    22125218.695
                        36.900
                  87216439.231 6  20955185.992                    20955184.902
                        39.500
                  88534659.776 6  21324243.813                    21324245.906
                        39.300
                  98260040.438 3  23625156.594                    23625158.168
                        21.600
 114855737.233 7  89497988.34945  21856321.039                    21856323.336
        44.600          31.800
 126201592.541 7  98338935.58044  24015369.047                    24015372.090
        43.500          25.600
                  81174716.888 6  19544679.813                    19544679.980
                        41.800
 117811299.647 8  91801186.13845  22418781.820                    22418787.129
        48.100          34.300
 117664609.216 7  91686722.38645  22390830.000                    22390832.102
        46.000          32.300
 120342537.548 7  93773396.21244  22900423.688                    22900426.266
        46.500          29.700
 109921372.895 8  85652994.48946  20917341.352                    20917344.121
        49.800          37.100
 18  3 16 10  4 13.0000000  0 17R01G27G30G15R10R07R16R17R18R24G20G21
                                R09G08G28G07G13
                  85779290.303 6  20631581.477                    20631584.930
                        36.900
 119843265.880 7  93384394.63845  22805418.805                    22805423.180
        42.900          30.500
 112879248.860 8  87957813.31546  21480206.328                    21480211.961
        50.800          38.100
 114868503.473 8  89507940.36145  21858750.016                    21858753.270
        48.900          35.400
                  89039289.312 6  21475975.820                    21475980.109
                        37.100
                  95280068.400 6  22884577.141                    22884580.066
                        37.200
                  91928074.152 6  22126021.891                    22126023.578
                        36.100
                  87217782.646 6  20955508.813                    20955507.996
                        39.800
                  88532818.700 6  21323800.141                    21323801.824
                        39.300
                  98263637.802 3  23626022.109                    23626023.203
                        21.600
 114857060.651 7  89499019.57045  21856572.203                    21856574.902
        44.000          32.100
 126203687.683 7  98340568.16544  24015767.906                    24015770.383
        43.300          24.800
                  81175016.225 6  19544751.859                    19544751.797
                        41.600
 117810761.913 7  91800767.12845  22418679.516                    22418685.348
        47.900          34.800
 117662581.434 7  91685142.29545  22390444.078                    22390446.332
        46.000          31.600
 120345789.933 7  93775930.53245  22901042.203                    22901045.426
        46.000          30.400
 109921324.561 8  85652956.81746  20917331.813                    20917334.852
        49.900          37.100
 18  3 16 10  4 14.0000000  0 17R01G27G30G15R10R07R16R17R18R24G20G21
                                R09G08G28G07G13
                  85777557.842 6  20631164.492                    20631167.785
                        37.300
 119845480.486 7  93386120.29545  22805839.844                    22805844.672
        43.000          31.200
 112881242.269 8  87959366.63246  21480585.578                    21480591.184
        50.600          38.400
 114866781.146 8  89506598.29245  21858422.313                    21858425.246
        49.100          34.800
                  89036494.644 6  21475303.109                    21475306.301
                        36.400
                  95283724.775 6  22885454.984                    22885458.445
                        37.000
                  91931420.291 6  22126827.555                    22126829.676
                        36.200
                  87219126.699 6  20955830.414                    20955830.473
                        39.600
                  88530978.145 6  21323357.508                    21323358.598
                        39.300
                  98267235.325 3  23626887.211                    23626887.902
                        22.100
 114858384.602 7  89500051.20645  21856824.352                    21856826.805
        44.300          32.400
 126205783.175 7  98342201.01444  24016167.039                    24016169.035
        43.500          24.300
                  81175316.151 6  19544824.156                    19544824.313
                        41.700
 117810224.750 7  91800348.56345  22418577.047                    22418582.758
        47.900          34.700
 117660554.028 7  91683562.49245  22390057.969                    22390060.629
        45.400          32.300
 120349042.641 7  93778465.14845  22901660.758                    22901664.594
        45.100          31.200
 109921276.807 8  85652919.60746  20917322.805                    20917325.703
        50.000          37.100
 18  3 16 10  4 15.0000000  0 17R01G27G30G15R10R07R16R17R18R24G20G21
                                R09G08G28G07G13
                  85775825.872 6  20630747.242                    20630751.457
                        37.200
 119847695.626 7  93387846.37945  22806261.070                    22806266.031
        43.300          30.400
 112883236.144 8  87960920.31346  21480964.859                    21480970.637
        50.600          38.600
 114865059.314 8  89505256.60445  21858095.047                    21858097.820
        49.000          35.100
                  89033700.227 6  21474628.414                    21474632.754
                        36.800
                  95287381.257 6  22886333.219                    22886336.320
                        37.200
                  91934766.666 5  22127631.406                    22127635.008
                        35.900
                  87220471.395 6  20956152.336                    20956153.625
                        39.100
                  88529138.103 6  21322914.414                    21322915.398
                        39.300
                  98270833.036 3  23627750.375                    23627752.953
                        22.500
 114859709.147 7  89501083.28745  21857076.383                    21857078.820
        44.600          32.200
 126207879.003 7  98343834.12744  24016564.539                    24016568.152
        42.800          24.400
                  81175616.701 6  19544896.516                    19544896.922
                        41.600
 117809688.215 7  91799930.48045  22418475.070                    22418480.840
        47.900          34.700
 117658526.984 7  91681982.98745  22389672.297                    22389674.941
        45.500          32.100
 120352295.589 7  93780999.98145  22902279.930                    22902283.469
        44.500          31.900
 109921229.650 8  85652882.85246  20917313.742                    20917316.582
        50.100          37.600
 18  3 16 10  4 16.0000000  0 17R01G27G30G15R10R07R16R17R18R24G20G21
                                R09G08G28G07G13
                  85774094.320 6  20630331.422                    20630334.898
                        37.600
 119849911.171 7  93389572.77844  22806682.766                    22806687.594
        43.400          29.700
 112885230.372 8  87962474.26546  21481344.984                    21481350.535
        51.000          38.900
 114863337.884 8  89503915.22245  21857766.984                    21857770.637
        49.000          35.400
                  89030906.021 6  21473954.492                    21473958.281
                        36.400
                  95291037.827 6  22887211.836                    22887214.953
                        36.900
                  91938113.161 6  22128438.281                    22128440.258
                        36.500
                  87221816.634 6  20956474.984                    20956477.543
                        39.400
                  88527298.516 6  21322471.695                    21322472.551
                        39.600
                  98274430.817 3  23628616.242                    23628618.332
                        22.800
 114861034.155 7  89502115.74145  21857328.484                    21857330.844
        44.600          32.000
 126209975.083 7  98345467.44844  24016963.680                    24016966.859
        42.200          26.700
                  81175917.797 6  19544969.156                    19544968.535
                        41.500
 117809152.154 8  91799512.77245  22418372.766                    22418378.809
        48.200          34.500
 117656500.198 7  91680403.68045  22389286.984                    22389289.449
        45.400          31.400
 120355548.727 7  93783534.96545  22902899.148                    22902902.441
        44.600          31.900
 109921183.030 8  85652846.52146  20917305.109                    20917308.043
        50.000          37.000
 18  3 16 10  4 17.0000000  0 17R01G27G30G15R10R07R16R17R18R24G20G21
                                R09G08G28G07G13
                  85772363.245 6  20629915.594                    20629918.742
                        37.400
 119852127.186 7  93391299.53945  22807104.461                    22807109.516
        43.400          30.200
 112887225.038 8  87964028.54246  21481724.203                    21481729.484
        50.900          38.400
 114861616.901 8  89502574.19645  21857439.445                    21857442.609
        48.900          34.700
                  89028112.090 6  21473280.570                    21473284.227
                        37.000
                  95294694.516 6  22888090.750                    22888093.070
                        36.800
                  91941459.810 6  22129244.367                    22129245.734
                        36.700
                  87223162.454 6  20956797.352                    20956800.758
                        39.400
                  88525459.393 6  21322028.063                    21322029.391
                        39.600
                  98278028.710 3  23629481.344                    23629483.094
                        22.700
 114862359.721 7  89503148.61245  21857580.953                    21857583.449
        45.000          32.300
 126212071.496 7  98347101.01444  24017362.602                    24017365.926
        42.000          25.800
                  81176219.428 6  19545041.578                    19545041.605
                        41.600
 117808616.654 8  91799095.49945  22418270.672                    22418276.563
        48.100          35.200
 117654473.769 7  91678824.64945  22388901.039                    22388903.730
        45.200          31.900
 120358802.085 7  93786070.11845  22903519.344                    22903522.012
        45.500          31.900
 109921136.969 8  85652810.62246  20917296.297                    20917299.000
        49.500          36.900
 18  3 16 10  4 18.0000000  0 17R01G27G30G15R10R07R16R17R18R24G20G21
                                R09G08G28G07G13
                  85770632.632 6  20629499.758                    20629502.141
                        37.100
 119854343.703 7  93393026.69345  22807526.102                    22807531.527
        43.400          30.400
 112889220.145 8  87965583.16346  21482103.492                    21482109.559
        50.300          38.500
 114859896.365 8  89501233.51345  21857112.039                    21857115.277
        49.100          35.100
                  89025318.352 6  21472604.375                    21472610.684
                        36.700
                  95298351.261 6  22888968.242                    22888971.102
                        36.800
                  91944806.625 6  22130049.961                    22130051.652
                        36.600
                  87224508.907 6  20957120.117                    20957123.852
                        39.600
                  88523620.788 6  21321585.438                    21321587.418
                        39.400
                  98281626.729 3  23630345.547                    23630348.117
                        22.300
 114863685.824 7  89504181.89345  21857832.797                    21857835.633
        45.200          32.400
 126214168.198 6  98348734.80844  24017761.039                    24017764.570
        41.400          24.300
                  81176521.619 6  19545114.563                    19545114.652
                        41.700
 117808081.727 7  91798678.66745  22418168.742                    22418175.059
        47.800          34.200
 117652447.634 7  91677245.84345  22388515.742                    22388518.059
        45.200          31.300
 120362055.658 7  93788605.43345  22904138.320                    22904141.094
        46.600          32.700
 109921091.450 8  85652775.15546  20917287.656                    20917290.508
        49.800          37.300
 18  3 16 10  4 19.0000000  0 17R01G27G30G15R10R07R16R17R18R24G20G21
                                R09G08G28G07G13
                  85768902.495 6  20629082.359                    20629086.230
                        36.800
 119856560.687 7  93394754.21345  22807947.742                    22807953.316
        43.600          30.200
 112891215.734 8  87967138.15646  21482483.664                    21482489.297
        50.500          38.700
 114858176.291 8  89499893.18945  21856784.820                    21856787.715
        49.600          35.300
                  89022524.890 6  21471934.453                    21471937.281
                        36.800
                  95302008.100 6  22889847.828                    22889849.750
                        36.400
                  91948153.612 6  22130854.906                    22130856.668
                        36.300
                  87225855.941 6  20957444.055                    20957447.754
                        39.400
                  88521782.690 6  21321142.430                    21321144.102
                        39.800
                  98285224.846 3  23631212.500                    23631213.871
                        21.600
 114865012.492 7  89505215.63445  21858086.031                    21858088.328
        45.400          32.100
 126216265.230 6  98350368.85744  24018160.070                    24018163.863
        40.800          24.400
                  81176824.376 6  19545187.391                    19545186.910
                        41.700
 117807547.345 7  91798262.26445  22418067.070                    22418073.121
        47.600          34.400
 117650421.817 7  91675667.27745  22388130.188                    22388132.715
        45.200          32.100
 120365309.464 7  93791140.92845  22904757.531                    22904760.609
        46.800          31.400
 109921046.506 8  85652740.12246  20917278.828                    20917282.121
        49.200          37.100
 18  3 16 10  4 20.0000000  0 17R01G27G30G15R10R07R16R17R18R24G20G21
                                R09G08G28G07G13
                  85767172.896 6  20628666.711                    20628670.309
                        36.700
 119858778.213 7  93396482.15045  22808369.797                    22808375.246
        44.300          30.700
 112893211.758 8  87968693.48646  21482863.930                    21482869.270
        50.800          38.800
 114856456.737 8  89498553.26645  21856457.266                    21856460.730
        49.500          35.500
                  89019731.666 6  21471258.586                    21471263.816
                        36.700
                  95305665.023 6  22890724.586                    22890727.949
                        36.000
                  91951500.801 6  22131661.305                    22131662.223
                        36.700
                  87227203.580 6  20957769.383                    20957771.574
                        39.800
                  88519945.117 6  21320699.750                    21320701.852
                        39.500
                                  23632077.859

 114866339.778 7  89506249.88245  21858338.516                    21858340.965
        45.300          32.600
 126218362.626 6  98352003.18544  24018559.500                    24018562.598
        40.000          24.500
                  81177127.750 6  19545260.336                    19545260.316
                        41.600
 117807013.577 7  91797846.32145  22417965.703                    22417971.762
        47.800          34.500
 117648396.404 7  91674089.03445  22387744.672                    22387747.484
        45.300          32.300
 120368563.505 7  93793676.60945  22905376.680                    22905379.797
        47.200          31.900
 109921002.166 8  85652705.57146  20917270.695                    20917273.496
        49.100          37.200
 18  3 16 10  4 21.0000000  0 17R01G27G30G15R10R07R16R17R18R24G20G21
                                R09G08G28G07G13
                  85765443.779 6  20628250.766                    20628254.332
                        36.900
 119860996.294 7  93398210.52345  22808792.086                    22808797.672
        44.000          30.400
 112895208.294 8  87970249.22446  21483243.398                    21483249.332
        50.700          38.900
 114854737.689 8  89497213.74345  21856130.602                    21856133.938
        49.600          35.500
                  89016938.748 6  21470583.742                    21470589.555
                        37.000
                  95309322.126 5  22891603.867                    22891605.883
                        35.800
                  91954848.201 5  22132465.602                    22132468.043
                        35.900
                  87228551.852 6  20958094.773                    20958095.594
                        39.900
                  88518108.078 6  21320257.852                    21320259.230
                        39.600
                                  23632942.313

 114867667.653 7  89507284.60845  21858590.969                    21858594.000
        45.300          32.400
 126220460.394 6  98353637.80644  24018958.414                    24018961.793
        39.400          25.200
                  81177431.759 6  19545333.789                    19545333.805
                        41.600
 117806480.419 7  91797430.86845  22417864.078                    22417870.398
        47.600          34.600
 117646371.355 7  91672511.07145  22387359.102                    22387361.824
        45.000          31.800
 120371817.817 7  93796212.49745  22905995.531                    22905999.035
        47.200          31.500
 109920958.458 8  85652671.51346  20917262.344                    20917265.238
        49.300          36.900
 18  3 16 10  4 22.0000000  0 17R01G27G30G15R10R07R16R17R18R24G20G21
                                R09G08G28G07G13
                  85763715.155 6  20627835.867                    20627838.891
                        36.800
 119863214.807 7  93399939.23045  22809214.203                    22809219.770
        43.700          30.700
 112897205.285 8  87971805.32046  21483622.883                    21483629.219
        50.100          38.700
 114853019.113 8  89495874.58845  21855803.219                    21855806.672
        49.100          35.500
                  89014146.100 6  21469912.023                    21469916.320
                        36.200
                  95312979.380 5  22892481.039                    22892484.281
                        35.900
                  91958195.813 6  22133272.031                    22133273.797
                        36.200
                  87229900.734 6  20958420.703                    20958419.707
                        39.800
                  88516271.561 6  21319814.930                    21319816.883
                        39.700
                                  23633806.906

 114868996.030 7  89508319.72445  21858843.664                    21858846.145
        44.900          32.900
 126222558.479 6  98355272.67943  24019358.141                    24019361.301
        39.200          22.800
                  81177736.316 6  19545406.781                    19545406.555
                        41.600
 117805947.809 7  91797015.84345  22417762.781                    22417769.047
        47.800          34.600
 117644346.648 7  91670933.38645  22386974.039                    22386976.754
        45.300          32.300
 120375072.344 7  93798748.52945  22906614.672                    22906618.184
        46.800          31.500
 109920915.287 8  85652637.86446  20917254.086                    20917257.094
        48.900          36.700
 18  3 16 10  4 23.0000000  0 17R01G27G30G15R10R07R16R17R18R24G20G21
                                R09G08G28G07G13
                  85761986.964 6  20627420.375                    20627423.250
                        37.300
 119865433.783 7  93401668.29845  22809636.391                    22809642.109
        44.100          31.200
 112899202.693 8  87973361.73646  21484003.438                    21484008.813
        50.300          38.600
 114851300.983 8  89494535.78445  21855476.234                    21855479.684
        49.200          35.400
                  89011353.702 6  21469239.383                    21469243.270
                        37.100
                  95316636.671 5  22893360.164                    22893362.805
                        35.400
                  91961543.604 6  22134078.297                    22134079.914
                        36.800
                  87231250.197 6  20958744.945                    20958744.039
                        39.700
                  88514435.499 6  21319371.695                    21319374.527
                        39.700
                                  23634672.234

 114870324.949 7  89509355.25345  21859096.133                    21859099.207
        45.300          32.800
 126224656.836 6  98356907.76243  24019758.234                    24019760.434
        38.900          23.500
                  81178041.430 6  19545479.727                    19545480.547
                        41.600
 117805415.749 7  91796601.24245  22417661.852                    22417667.824
        47.900          35.000
 117642322.255 7  91669355.95245  22386589.391                    22386591.539
        44.900          31.500
 120378327.075 7  93801284.71345  22907233.211                    22907237.391
        46.200          30.400
 109920872.652 8  85652604.63346  20917245.992                    20917249.066
        48.600          36.700
 18  3 16 10  4 24.0000000  0 17R01G27G30G15R10R07R16R17R18R24G20G21
                                R09G08G28G07G13
                  85760259.249 6  20627004.227                    20627007.188
                        37.000
 119867653.295 7  93403397.77745  22810058.805                    22810063.996
        44.100          31.500
 112901200.563 8  87974918.51146  21484383.961                    21484389.195
        50.900          38.700
 114849583.331 8  89493197.35846  21855149.914                    21855152.883
        48.500          36.000
                  89008561.529 6  21468563.930                    21468569.684
                        36.500
                  95320294.064 5  22894238.750                    22894241.074
                        35.300
                  91964891.560 6  22134883.891                    22134885.633
                        36.700
                  87232600.287 6  20959068.773                    20959068.543
                        39.300
                  88512599.987 6  21318930.328                    21318932.246
                        39.700
                                  23635537.117

 114871654.420 7  89510391.19545  21859349.367                    21859352.180
        45.100          32.300
 126226755.589 6  98358543.12644  24020157.797                    24020159.871
        39.200          25.400
                  81178347.143 6  19545554.141                    19545554.590
                        41.600
 117804884.265 7  91796187.08545  22417560.875                    22417566.277
        47.800          35.100
 117640298.192 7  91667778.76345  22386204.000                    22386206.234
        45.000          32.100
 120381582.073 7  93803821.08845  22907852.703                    22907856.582
        45.500          30.200
 109920830.622 8  85652571.87046  20917238.117                    20917241.020
        48.700          36.500
 18  3 16 10  4 25.0000000  0 17R01G27G30G15R10R07R16R17R18R24G20G21
                                R09G08G28G07G13
                  85758532.011 6  20626588.406                    20626591.777
                        36.500
 119869873.263 7  93405127.62145  22810481.141                    22810486.676
        43.600          30.800
 112903198.880 8  87976475.63546  21484764.297                    21484769.625
        50.700          38.000
 114847866.142 8  89491859.29345  21854823.039                    21854826.000
        48.700          35.100
                  89005769.633 6  21467892.539                    21467895.445
                        36.100
                  95323951.547 5  22895116.273                    22895119.828
                        35.300
                  91968239.670 6  22135689.406                    22135691.328
                        36.000
                  87233950.987 6  20959392.398                    20959392.863
                        39.100
                  88510764.932 6  21318488.898                    21318490.289
                        39.700
                                  23636402.125

 114872984.477 7  89511427.59545  21859602.344                    21859605.527
        45.100          32.500
 126228854.612 6  98360178.70144  24020557.727                    24020558.910
        39.900          25.000
                  81178653.409 6  19545627.977                    19545627.961
                        41.700
 117804353.288 8  91795773.32345  22417460.188                    22417465.371
        48.200          35.200
 117638274.443 7  91666201.81845  22385818.516                    22385820.832
        45.800          31.400
 120384837.294 7  93806357.63445  22908471.992                    22908475.547
        45.300          30.600
 109920789.135 8  85652539.52546  20917230.266                    20917233.418
        48.600          36.600
 18  3 16 10  4 26.0000000  0 17R01G27G30G15R10R07R16R17R18R24G20G21
                                R09G08G28G07G13
                  85756805.279 6  20626173.258                    20626175.934
                        36.300
 119872093.762 7  93406857.87645  22810904.398                    22810909.176
        43.600          30.000
 112905197.704 8  87978033.16146  21485144.344                    21485149.891
        50.500          38.300
 114846149.441 8  89490521.61245  21854496.094                    21854499.457
        49.000          35.800
                  89002978.048 6  21467218.625                    21467222.742
                        36.800
                  95327609.155 5  22895995.617                    22895998.566
                        35.300
                  91971587.951 6  22136494.461                    22136497.488
                        36.000
                  87235302.335 6  20959716.234                    20959717.355
                        39.100
                  88508930.417 6  21318046.617                    21318048.535
                        39.600
                                  23637268.641

 114874315.087 7  89512464.43145  21859855.797                    21859858.484
        44.700          32.800
 126230954.001 6  98361814.56744  24020957.023                    24020958.324
        40.400          24.500
                  81178960.315 6  19545701.156                    19545701.867
                        41.600
 117803822.947 7  91795360.04645  22417359.297                    22417364.637
        47.800          35.400
 117636251.115 7  91664625.19745  22385433.242                    22385436.109
        46.000          32.100
 120388092.836 7  93808894.44045  22909092.344                    22909095.012
        45.600          30.100
 109920748.281 8  85652507.68046  20917222.023                    20917225.223
        48.600          37.100
 18  3 16 10  4 27.0000000  0 17R01G27G30G15R10R07R16R17R18R24G20G21
                                R09G08G28G07G13
                  85755079.062 6  20625758.633                    20625761.434
                        36.800
 119874314.798 7  93408588.55245  22811326.219                    22811331.871
        43.100          30.400
 112907197.013 8  87979591.06746  21485524.797                    21485530.590
        50.700          38.600
 114844433.254 8  89489184.31645  21854169.594                    21854172.703
        49.000          35.600
                  89000186.724 6  21466545.063                    21466548.914
                        36.300
                  95331266.896 5  22896874.484                    22896876.844
                        35.400
                  91974936.443 6  22137300.898                    22137303.332
                        36.100
                  87236654.295 6  20960040.070                    20960041.848
                        39.600
                  88507096.441 6  21317605.391                    21317606.426
                        39.600
                                  23638134.180

 114875646.302 7  89513501.72845  21860109.484                    21860111.984
        44.700          32.600
 126233053.751 6  98363450.72844  24021357.141                    24021357.832
        41.400          25.600
                  81179267.826 6  19545775.383                    19545775.281
                        41.600
 117803293.222 8  91794947.25845  22417258.070                    22417263.895
        48.000          35.700
 117634228.138 7  91663048.84545  22385048.641                    22385050.590
        46.100          32.000
 120391348.660 7  93811431.48545  22909712.359                    22909714.547
        46.000          30.600
 109920708.038 8  85652476.31146  20917214.758                    20917217.863
        49.100          37.100
 18  3 16 10  4 28.0000000  0 17R01G27G30G15R10R07R16R17R18R24G20G21
                                R09G08G28G07G13
                  85753353.336 6  20625343.336                    20625346.230
                        36.900
 119876536.331 7  93410319.61345  22811749.141                    22811754.766
        43.000          30.100
 112909196.790 8  87981149.33246  21485905.570                    21485911.070
        51.000          38.800
 114842717.516 8  89487847.36745  21853843.000                    21853846.273
        48.100          35.300
                  88997395.685 5  21465872.891                    21465876.395
                        35.800
                  95334924.761 5  22897753.125                    22897755.430
                        35.000
                  91978285.157 6  22138107.563                    22138109.355
                        36.200
                  87238006.865 6  20960364.516                    20960367.406
                        39.600
                  88505262.949 6  21317163.484                    21317165.141
                        39.300
                                  23639000.586

 114876978.076 7  89514539.45845  21860363.000                    21860365.527
        43.700          32.200
 126235153.825 6  98365087.16044  24021756.742                    24021757.047
        41.800          24.200
                  81179575.902 6  19545849.703                    19545849.809
                        41.600
 117802764.068 8  91794534.91545  22417157.719                    22417162.754
        48.400          35.700
 117632205.524 7  91661472.78245  22384663.664                    22384665.883
        46.600          31.600
 120394604.694 7  93813968.69745  22910332.063                    22910333.941
        46.400          30.800
 109920668.369 8  85652445.39046  20917206.984                    20917210.137
        49.500          36.500
 18  3 16 10  4 29.0000000  0 17R01G27G30G15R10R07R16R17R18R24G20G21
                                R09G08G28G07G13
                  85751628.057 6  20624927.680                    20624931.453
                        37.200
 119878758.345 7  93412051.05045  22812172.000                    22812177.570
        43.400          30.300
 112911197.007 8  87982707.94646  21486286.102                    21486291.594
        50.700          38.800
 114841002.294 8  89486510.81345  21853516.781                    21853519.863
        48.200          35.800
                  88994604.875 6  21465197.875                    21465202.867
                        36.800
                  95338582.735 5  22898632.266                    22898633.938
                        35.200
                  91981634.066 6  22138912.766                    22138915.094
                        36.400
                  87239360.039 6  20960688.664                    20960692.590
                        39.700
                  88503429.941 6  21316722.367                    21316723.820
                        39.600
                                  23639865.414

 114878310.456 7  89515577.66845  21860616.047                    21860618.699
        43.900          32.900
 126237254.242 7  98366723.85744  24022157.242                    24022157.180
        42.600          25.300
                  81179884.565 6  19545924.211                    19545923.770
                        41.700
 117802235.482 8  91794123.03045  22417057.039                    22417062.520
        48.300          35.500
 117630183.246 7  91659896.97645  22384278.547                    22384281.262
        46.200          32.000
 120397860.976 7  93816506.11045  22910951.297                    22910953.703
        46.700          31.500
 109920629.288 8  85652414.92246  20917199.914                    20917202.777
        49.500          36.600
 18  3 16 10  4 30.0000000  0 17R01G27G30G15R10R07R16R17R18R24G20G21
                                R09G08G28G07G13
                  85749903.248 6  20624513.047                    20624516.352
                        37.200
 119880980.834 7  93413782.85845  22812594.961                    22812600.773
        43.800          31.200
 112913197.642 8  87984266.88146  21486666.336                    21486672.266
        50.900          39.000
 114839287.508 8  89485174.60845  21853190.375                    21853193.930
        48.300          35.400
                  88991814.319 6  21464526.242                    21464530.125
                        36.700
                  95342240.827 5  22899510.234                    22899512.520
                        35.200
                  91984983.155 6  22139720.352                    22139721.609
                        36.800
                  87240713.787 6  20961012.992                    20961017.578
                        39.400
                  88501597.433 6  21316281.063                    21316282.586
                        39.700
                                  23640729.266

 114879643.325 7  89516616.28345  21860869.750                    21860872.504
        43.500          32.000
 126239354.942 7  98368360.77444  24022556.930                    24022557.059
        43.000          24.900
                  81180193.776 6  19545998.477                    19545999.055
                        41.700
 117801707.464 8  91793711.59145  22416956.273                    22416961.938
        48.100          35.500
 117628161.254 7  91658321.39745  22383893.828                    22383896.594
        45.900          31.500
 120401117.461 7  93819043.68945  22911570.875                    22911573.332
        47.300          31.900
 109920590.767 8  85652384.90246  20917192.664                    20917195.098
        49.600          36.700
 18  3 16 10  4 31.0000000  0 17R01G27G30G15R10R07R16R17R18R24G20G21
                                R09G08G28G07G13
                  85748178.900 6  20624098.406                    20624101.750
                        36.600
 119883203.802 7  93415515.04045  22813018.461                    22813023.801
        43.600          30.600
 112915198.745 8  87985826.18146  21487047.766                    21487052.785
        51.100          38.600
 114837573.216 8  89483838.79845  21852864.000                    21852867.203
        48.100          35.600
                  88989024.001 6  21463852.438                    21463856.621
                        36.700
                  95345898.960 5  22900388.789                    22900391.535
                        35.000
                  91988332.426 6  22140526.047                    22140528.078
                        36.500
                  87242068.153 6  20961338.680                    20961342.652
                        39.500
                  88499765.423 6  21315839.891                    21315841.211
                        39.600
                                  23641595.859

 114880976.751 7  89517655.33145  21861123.555                    21861125.977
        43.900          32.600
 126241455.945 7  98369997.92643  24022956.469                    24022956.922
        43.800          23.800
                  81180503.588 6  19546072.906                    19546073.430
                        41.500
 117801179.988 8  91793300.57845  22416856.078                    22416861.750
        48.300          34.900
 117626139.617 7  91656746.09845  22383509.188                    22383511.746
        45.600          31.900
 120404374.141 7  93821581.40245  22912190.156                    22912192.867
        46.000          31.400
 109920552.804 8  85652355.31346  20917185.383                    20917187.996
        49.800          36.800
 18  3 16 10  4 32.0000000  0 17R01G27G30G15R10R07R16R17R18R24G20G21
                                R09G08G28G07G13
                  85746455.045 6  20623683.320                    20623687.172
                        36.800
 119885427.271 7  93417247.60845  22813441.492                    22813446.527
        43.900          30.200
 112917200.287 8  87987385.81446  21487428.664                    21487433.789
        50.200          38.400
 114835859.421 8  89482503.39145  21852538.070                    21852541.297
        48.300          35.500
                  88986233.931 6  21463180.094                    21463183.598
                        37.000
                  95349557.210 5  22901266.445                    22901270.160
                        34.900
                  91991681.879 6  22141332.109                    22141334.168
                        37.000
                  87243423.137 6  20961665.922                    20961668.449
                        39.400
                  88497933.944 6  21315398.148                    21315400.074
                        39.300
                                  23642462.836

 114882310.714 7  89518694.79645  21861377.328                    21861380.008
        43.900          32.000
 126243557.282 7  98371635.33844  24023355.977                    24023356.945
        44.100          25.800
                  81180813.967 6  19546147.695                    19546147.508
                        41.800
 117800653.085 8  91792890.00845  22416755.406                    22416761.590
        48.300          34.900
 117624118.299 7  91655171.04745  22383124.289                    22383126.914
        45.200          31.900
 120407631.087 7  93824119.31045  22912809.539                    22912813.180
        45.800          31.600
 109920515.407 8  85652326.16546  20917178.008                    20917181.262
        48.700          36.800
 18  3 16 10  4 33.0000000  0 17R01G27G30G15R10R07R16R17R18R24G20G21
                                R09G08G28G07G13
                  85744731.636 6  20623269.219                    20623272.379
                        36.500
 119887651.219 7  93418980.55045  22813864.703                    22813869.863
        43.400          31.400
 112919202.270 8  87988945.81346  21487809.070                    21487814.938
        49.900          38.500
 114834146.031 8  89481168.30545  21852211.672                    21852215.195
        48.100          35.500
                  88983444.163 6  21462507.211                    21462510.863
                        36.900
                  95353215.557 5  22902146.250                    22902148.777
                        35.300
                  91995031.488 6  22142137.563                    22142140.102
                        36.600
                  87244778.681 6  20961994.750                    20961993.785
                        39.500
                  88496102.962 6  21314957.453                    21314959.270
                        39.800
                                  23643328.172

 114883645.212 7  89519734.66145  21861631.773                    21861634.285
        44.100          33.000
 126245658.950 7  98373273.00444  24023755.789                    24023757.078
        44.100          26.000
                  81181124.940 6  19546222.484                    19546222.668
                        41.800
 117800126.747 8  91792479.88545  22416655.117                    22416661.215
        48.100          34.900
 117622097.322 7  91653596.24945  22382740.000                    22382742.707
        45.300          32.000
 120410888.248 7  93826657.37045  22913429.102                    22913433.105
        45.200          31.200
 109920478.591 8  85652297.46446  20917171.172                    20917174.164
        48.600          37.100
 18  3 16 10  4 34.0000000  0 17R01G27G30G15R10R07R16R17R18R24G20G21
                                R09G08G28G07G13
                  85743008.704 6  20622854.922                    20622857.824
                        36.400
 119889875.662 7  93420713.88645  22814288.266                    22814293.352
        43.600          30.800
 112921204.700 8  87990506.14946  21488190.211                    21488195.609
        50.100          38.800
 114832433.123 8  89479833.58845  21851885.469                    21851889.129
        48.200          35.000
                  88980654.613 6  21461833.648                    21461838.828
                        36.800
                  95356874.040 5  22903025.453                    22903027.449
                        35.100
                  91998381.280 6  22142944.648                    22142946.137
                        36.600
                  87246134.813 6  20962322.242                    20962319.949
                        39.600
                  88494272.495 6  21314516.563                    21314518.559
                        39.800
                                  23644193.289

 114884980.272 7  89520774.95545  21861885.563                    21861887.848
        44.600          33.300
 126247760.937 7  98374910.91944  24024155.320                    24024156.680
        44.600          26.600
                  81181436.495 6  19546297.695                    19546297.805
                        41.500
 117799600.985 8  91792070.19645  22416555.164                    22416561.531
        48.600          35.500
 117620076.703 7  91652021.73545  22382355.391                    22382357.863
        45.200          32.300
 120414145.658 7  93829195.62145  22914049.203                    22914052.789
        45.000          31.700
 109920442.356 8  85652269.21746  20917164.063                    20917167.305
        48.800          36.600
 18  3 16 10  4 35.0000000  0 17R01G27G30G15R10R07R16R17R18R24G20G21
                                R09G08G28G07G13
                  85741286.265 6  20622440.352                    20622443.719
                        36.700
 119892100.619 7  93422447.62045  22814711.625                    22814716.297
        43.500          30.400
 112923207.570 8  87992066.81446  21488572.047                    21488577.609
        49.700          38.600
 114830720.708 8  89478499.24645  21851559.992                    21851563.254
        48.200          35.000
                  88977865.331 6  21461160.328                    21461165.633
                        36.600
                  95360532.649 5  22903903.531                    22903906.113
                        35.100
                  92001731.274 6  22143751.406                    22143752.621
                        36.900
                  87247491.577 6  20962648.328                    20962646.352
                        39.600
                  88492442.542 6  21314075.586                    21314077.586
                        39.900
                                  23645059.758

 114886315.918 7  89521815.70145  21862139.898                    21862142.105
        44.800          32.800
 126249863.290 7  98376549.12144  24024555.078                    24024557.074
        44.500          25.600
                  81181748.642 6  19546373.023                    19546373.258
                        41.600
 117799075.806 8  91791660.95745  22416455.219                    22416461.117
        48.300          35.100
 117618056.435 7  91650447.49745  22381971.398                    22381973.746
        45.100          31.900
 120417403.357 7  93831734.08945  22914669.305                    22914672.961
        44.600          31.500
 109920406.719 8  85652241.43946  20917157.336                    20917160.262
        48.900          37.100
 18  3 16 10  4 36.0000000  0 17R01G27G30G15R10R07R16R17R18R24G20G21
                                R09G08G28G07G13
                  85739564.271 6  20622025.648                    20622029.473
                        36.800
 119894326.019 7  93424181.69345  22815135.047                    22815139.598
        43.900          30.600
 112925210.902 8  87993627.82846  21488953.063                    21488958.191
        50.200          38.900
 114829008.742 8  89477165.24845  21851234.008                    21851237.574
        48.700          35.200
                  88975076.311 6  21460488.891                    21460492.441
                        36.800
                  95364191.302 5  22904782.852                    22904784.855
                        35.200
                  92005081.469 6  22144557.844                    22144559.035
                        37.800
                  87248848.945 6  20962974.758                    20962971.875
                        39.400
                  88490613.103 6  21313635.055                    21313637.043
                        39.900
                                  23645924.664

 114887652.080 7  89522856.85745  21862393.617                    21862396.508
        45.200          31.900
 126251965.913 7  98378187.53544  24024955.242                    24024957.000
        43.900          25.400
                  81182061.352 6  19546447.352                    19546447.914
                        41.800
 117798551.211 8  91791252.18345  22416354.664                    22416361.508
        48.200          35.300
 117616036.499 7  91648873.52245  22381586.844                    22381589.414
        45.800          32.500
 120420661.273 7  93834272.73345  22915289.500                    22915292.723
        44.700          31.700
 109920371.646 8  85652214.10846  20917150.852                    20917154.242
        49.100          37.300
 18  3 16 10  4 37.0000000  0 17R01G27G30G15R10R07R16R17R18R24G20G21
                                R09G08G28G07G13
                  85737842.777 6  20621612.484                    20621615.516
                        36.500
 119896551.947 7  93425916.18245  22815558.188                    22815563.664
        43.900          30.700
 112927214.717 8  87995189.23446  21489334.008                    21489339.816
        50.000          38.600
 114827297.242 8  89475831.60545  21850908.695                    21850912.246
        48.200          35.400
                  88972287.541 6  21459815.313                    21459820.188
                        36.900
                  95367850.068 5  22905661.023                    22905663.094
                        34.600
                  92008431.846 6  22145364.008                    22145365.727
                        36.600
                  87250206.955 6  20963299.867                    20963298.977
                        39.400
                  88488784.155 6  21313194.359                    21313196.738
                        39.500
                                  23646790.531

 114888988.850 7  89523898.50245  21862648.266                    21862651.063
        45.500          31.900
 126254068.882 7  98379826.21844  24025355.555                    24025357.457
        43.900          25.400
                  81182374.666 6  19546523.602                    19546523.949
                        41.800
 117798027.139 7  91790843.80545  22416255.094                    22416261.758
        47.800          34.800
 117614016.918 7  91647299.83045  22381202.320                    22381204.879
        46.000          32.400
 120423919.416 7  93836811.56045  22915909.758                    22915912.699
        45.500          31.000
 109920337.141 8  85652187.21846  20917144.563                    20917147.480
        49.400          37.500
 18  3 16 10  4 38.0000000  0 17R01G27G30G15R10R07R16R17R18R24G20G21
                                R09G08G28G07G13
                  85736121.761 6  20621198.523                    20621202.117
                        36.900
 119898778.370 7  93427651.06145  22815982.055                    22815986.680
        43.900          31.400
 112929218.981 8  87996751.00246  21489715.461                    21489720.926
        50.000          38.900
 114825586.219 8  89474498.34245  21850583.086                    21850586.379
        48.500          35.200
                  88969499.043 6  21459143.406                    21459147.250
                        37.000
                  95371508.897 5  22906539.820                    22906542.258
                        33.700
                  92011782.393 6  22146170.242                    22146171.742
                        36.900
                  87251565.591 6  20963625.328                    20963624.688
                        39.400
                  88486955.715 6  21312753.898                    21312755.895
                        39.800
                                  23647654.906

 114890326.136 7  89524940.56045  21862903.016                    21862905.395
        45.200          32.200
 126256172.183 7  98381465.14444  24025755.563                    24025757.598
        43.800          25.800
                  81182688.539 6  19546599.352                    19546599.141
                        41.900
 117797503.672 7  91790435.89645  22416155.438                    22416162.133
        47.200          35.200
 117611997.700 7  91645726.42045  22380818.016                    22380820.930
        46.400          32.100
 120427177.793 7  93839350.57645  22916530.469                    22916532.977
        46.400          30.400
 109920303.230 8  85652160.78846  20917137.531                    20917140.699
        49.600          37.200
 18  3 16 10  4 39.0000000  0 17R01G27G30G15R10R07R16R17R18R24G20G21
                                R09G08G28G07G13
                  85734401.184 6  20620784.563                    20620787.824
                        36.700
 119901005.240 7  93429386.28945  22816406.133                    22816410.727
        43.900          31.100
 112931223.667 8  87998313.09446  21490097.031                    21490102.727
        50.400          39.500
 114823875.658 8  89473165.42945  21850257.758                    21850260.613
        48.600          35.200
                  88966710.760 6  21458471.477                    21458475.184
                        36.400
                  95375167.845 5  22907418.250                    22907421.066
                        33.700
                  92015133.047 6  22146977.211                    22146978.152
                        36.000
                  87252924.784 6  20963950.383                    20963951.418
                        39.600
                  88485127.772 6  21312313.367                    21312315.816
                        40.200
                                  23648521.305

 114891663.923 7  89525983.00045  21863157.406                    21863159.973
        44.500          32.700
 126258275.770 7  98383104.30344  24026155.281                    24026158.047
        43.800          25.600
                  81183002.977 6  19546674.867                    19546674.496
                        41.600
 117796980.747 7  91790028.41145  22416055.961                    22416062.691
        47.100          34.700
 117609978.770 7  91644153.24945  22380434.258                    22380436.773
        46.200          32.800
 120430436.359 7  93841889.74845  22917150.195                    22917152.676
        46.600          30.700
 109920269.828 8  85652134.75546  20917131.484                    20917134.281
        49.500          37.200
 18  3 16 10  4 40.0000000  0 17R01G27G30G15R10R07R16R17R18R24G20G21
                                R09G08G28G07G13
                  85732681.075 6  20620370.797                    20620373.895
                        36.700
 119903232.594 7  93431121.89545  22816829.930                    22816834.828
        43.700          31.200
 112933228.772 8  87999875.51746  21490478.734                    21490484.188
        50.500          39.500
 114822165.561 8  89471832.88445  21849931.906                    21849935.262
        48.300          35.200
                  88963922.699 6  21457797.461                    21457802.453
                        36.200
                  95378826.877 5  22908297.461                    22908300.180
                        33.500
                  92018483.906 6  22147784.039                    22147784.891
                        36.700
                  87254284.582 6  20964276.508                    20964277.824
                        39.400
                  88483300.301 6  21311873.164                    21311875.113
                        40.000
                                  23649388.883

 114893002.273 7  89527025.86245  21863412.289                    21863414.434
        44.900          32.100
 126260379.685 7  98384743.70844  24026555.602                    24026558.914
        43.700          25.500
                  81183317.958 6  19546750.914                    19546750.555
                        41.800
 117796458.383 7  91789621.36745  22415957.109                    22415963.148
        46.800          34.800
 117607960.167 7  91642580.32045  22380049.938                    22380052.223
        45.700          31.900
 120433695.170 7  93844429.12045  22917770.445                    22917772.563
        47.200          30.700
 109920237.028 8  85652109.18946  20917124.813                    20917128.336
        49.100          36.700
 18  3 16 10  4 41.0000000  0 17R01G27G30G15R10R07R16R17R18R24G20G21
                                R09G08G28G07G13
                  85730961.451 6  20619957.055                    20619960.746
                        36.300
 119905460.438 7  93432857.87945  22817253.273                    22817258.520
        42.800          30.900
 112935234.369 8  88001438.31846  21490860.078                    21490866.012
        50.100          39.400
 114820455.939 7  89470500.72545  21849606.703                    21849610.199
        47.900          34.900
                  88961134.974 6  21457126.703                    21457129.926
                        36.800
                  95382486.019 5  22909175.906                    22909178.711
                        32.900
                  92021834.973 6  22148589.930                    22148591.262
                        37.000
                  87255644.990 6  20964602.039                    20964604.418
                        39.500
                  88481473.352 6  21311432.938                    21311435.629
                        40.200
                                  23650253.711

 114894341.192 7  89528069.16445  21863667.352                    21863669.758
        45.000          32.200
 126262483.939 7  98386383.38644  24026956.180                    24026958.988
        43.400          26.800
                  81183633.532 6  19546827.031                    19546826.918
                        41.800
 117795936.637 7  91789214.81545  22415857.945                    22415863.555
        46.500          34.800
 117605941.942 7  91641007.67845  22379666.070                    22379668.633
        45.500          32.200
 120436954.211 7  93846968.66645  22918390.273                    22918392.457
        46.900          31.200
 109920204.802 8  85652084.07146  20917119.023                    20917122.367
        48.800          37.300
 18  3 16 10  4 42.0000000  0 17R01G27G30G15R10R07R16R17R18R24G20G21
                                R09G08G28G07G13
                  85729242.342 6  20619543.680                    20619547.090
                        36.700
 119907688.789 7  93434594.25545  22817677.320                    22817682.578
        42.500          31.000
 112937240.421 8  88003001.47146  21491241.961                    21491247.523
        50.300          39.000
 114818746.819 8  89469168.96245  21849281.719                    21849285.047
        48.500          35.500
                  88958347.489 6  21456453.422                    21456458.000
                        36.900
                  95386145.274 5  22910055.188                    22910057.477
                        32.600
                  92025186.291 6  22149396.188                    22149397.738
                        36.700
                  87257006.002 6  20964927.680                    20964931.660
                        39.400
                  88479646.914 6  21310993.727                    21310995.457
                        40.000
                                  23651118.945

 114895680.666 7  89529112.89645  21863921.602                    21863924.535
        45.000          32.000
 126264588.540 7  98388023.33944  24027356.281                    24027359.734
        43.000          26.200
                  81183949.723 6  19546902.273                    19546902.633
                        41.600
 117795415.463 7  91788808.71145  22415759.070                    22415764.609
        46.700          35.000
 117603924.074 7  91639435.31645  22379281.930                    22379284.238
        45.500          31.800
 120440213.492 7  93849508.39645  22919009.891                    22919012.586
        46.300          31.500
 109920173.187 8  85652059.43146  20917112.883                    20917115.824
        49.300          37.400
 18  3 16 10  4 43.0000000  0 17R01G27G30G15R10R07R16R17R18R24G20G21
                                R09G08G28G07G13
                  85727523.709 6  20619130.633                    20619133.832
                        37.300
 119909917.642 7  93436331.01445  22818101.398                    22818106.367
        42.600          30.900
 112939246.955 8  88004565.00246  21491623.969                    21491629.398
        50.200          38.700
 114817038.180 8  89467837.56845  21848956.328                    21848959.559
        48.500          35.700
                  88955560.240 6  21455780.867                    21455785.801
                        36.800
                  95389804.627 5  22910934.055                    22910936.652
                        32.900
                  92028537.815 6  22150202.664                    22150205.176
                        36.800
                  87258367.633 6  20965253.805                    20965258.918
                        39.500
                  88477821.022 6  21310554.438                    21310555.320
                        40.000
                                  23651985.258

 114897020.754 7  89530157.12145  21864176.258                    21864179.129
        44.900          32.600
 126266693.465 7  98389663.54544  24027756.938                    24027760.363
        42.700          25.300
                  81184266.500 6  19546979.141                    19546979.445
                        41.700
 117794894.854 7  91788403.04545  22415659.711                    22415666.109
        46.500          34.600
 117601906.544 7  91637863.22845  22378897.672                    22378900.684
        45.700          31.900
 120443473.027 7  93852048.31045  22919630.180                    22919633.199
        45.600          31.000
 109920142.123 8  85652035.21546  20917107.617                    20917110.445
        49.900          36.900
 18  3 16 10  4 44.0000000  0 17R01G27G30G15R10R07R16R17R18R24G20G21
                                R09G08G28G07G13
                  85725805.553 6  20618717.117                    20618720.563
                        36.700
 119912146.992 7  93438068.17245  22818526.000                    22818530.836
        42.700          30.500
 112941253.938 8  88006128.88546  21492005.742                    21492011.047
        50.700          38.900
 114815330.003 8  89466506.53245  21848631.281                    21848634.598
        48.800          35.500
                  88952773.313 6  21455109.555                    21455113.520
                        36.500
                  95393464.099 5  22911813.953                    22911815.590
                        33.100
                  92031889.507 6  22151008.469                    22151011.422
                        36.400
                  87259729.866 6  20965581.508                    20965586.348
                        39.600
                  88475995.629 6  21310115.305                    21310115.984
                        39.600
                                  23652850.242

 114898361.354 7  89531201.75545  21864432.094                    21864434.117
        45.100          32.500
 126268798.728 7  98391303.98944  24028157.789                    24028160.809
        42.900          25.700
                  81184583.876 6  19547055.719                    19547055.664
                        41.800
 117794374.815 7  91787997.81745  22415561.547                    22415567.211
        47.200          34.800
 117599889.340 7  91636291.39045  22378513.875                    22378516.754
        45.100          31.700
 120446732.804 7  93854588.39745  22920250.094                    22920253.785
        45.000          31.400
 109920111.641 8  85652011.46146  20917101.156                    20917104.242
        49.400          36.800
 18  3 16 10  4 45.0000000  0 17R01G27G30G15R10R07R16R17R18R24G20G21
                                R09G08G28G07G13
                  85724087.844 6  20618303.984                    20618307.512
                        36.700
 119914376.782 7  93439805.66545  22818950.211                    22818955.570
        42.700          30.000
 112943261.330 8  88007693.09446  21492387.359                    21492393.262
        50.300          38.900
 114813622.246 8  89465175.82045  21848306.336                    21848309.613
        48.700          35.700
                  88949986.570 6  21454437.047                    21454440.980
                        36.700
                  95397123.643 5  22912692.039                    22912694.266
                        32.500
                  92035241.332 6  22151815.656                    22151817.961
                        36.400
                  87261092.674 6  20965909.406                    20965913.543
                        39.400
                  88474170.720 6  21309675.391                    21309676.750
                        39.800
                                  23653716.477

 114899702.456 7  89532246.77145  21864686.500                    21864689.586
        45.300          32.400
 126270904.282 7  98392944.68144  24028558.797                    24028561.465
        43.400          24.400
                  81184901.799 6  19547132.281                    19547132.043
                        41.800
 117793855.322 7  91787593.01645  22415462.914                    22415467.879
        47.500          34.900
 117597872.441 7  91634719.79145  22378129.789                    22378132.734
        45.000          32.300
 120449992.781 7  93857128.63445  22920870.578                    22920874.285
        44.700          31.600
 109920081.702 8  85651988.13146  20917095.633                    20917098.648
        49.400          36.900
 18  3 16 10  4 46.0000000  0 17R01G27G30G15R10R07R16R17R18R24G20G21
                                R09G08G28G07G13
                  85722370.604 6  20617891.016                    20617894.352
                        36.700
 119916607.062 7  93441543.54645  22819374.570                    22819379.527
        42.800          30.400
 112945269.198 8  88009257.67546  21492769.781                    21492775.258
        50.300          38.700
 114811914.956 8  89463845.46445  21847981.391                    21847984.578
        48.700          35.300
                  88947200.061 6  21453764.344                    21453768.559
                        37.000
                  95400783.315 5  22913572.031                    22913573.914
                        33.000
                  92038593.280 6  22152622.250                    22152624.059
                        36.700
                  87262456.092 6  20966238.859                    20966241.672
                        39.500
                  88472346.303 6  21309235.047                    21309236.727
                        39.700
                                  23654582.359

 114901044.114 7  89533292.22745  21864942.867                    21864944.879
        46.000          32.300
 126273010.153 7  98394585.62044  24028959.406                    24028962.363
        42.900          24.700
                  81185220.301 6  19547208.969                    19547208.711
                        41.800
 117793336.381 7  91787188.64245  22415363.969                    22415369.039
        47.900          34.300
 117595855.871 7  91633148.44645  22377746.125                    22377749.137
        44.700          31.800
 120453252.994 7  93859669.04745  22921491.156                    22921494.215
        44.700          31.800
 109920052.322 8  85651965.23346  20917089.867                    20917093.215
        49.000          36.200
 18  3 16 10  4 47.0000000  0 17R01G27G30G15R10R07R16R17R18R24G20G21
                                R09G08G28G07G13
                  85720653.850 6  20617477.859                    20617481.289
                        36.700
 119918837.833 7  93443281.80845  22819798.930                    22819804.219
        42.900          30.600
 112947277.491 8  88010822.59346  21493152.258                    21493157.457
        51.100          38.800
 114810208.159 8  89462515.49645  21847657.008                    21847660.082
        48.900          35.400
                  88944413.863 6  21453093.391                    21453096.914
                        37.100
                  95404443.059 5  22914450.758                    22914452.289
                        32.700
                  92041945.414 6  22153431.023                    22153431.508
                        37.100
                  87263820.092 6  20966569.813                    20966568.902
                        39.800
                  88470522.399 6  21308796.180                    21308797.930
                        39.800
                                  23655448.898

 114902386.311 7  89534338.09245  21865197.727                    21865200.203
        45.700          32.400
 126275116.367 7  98396226.83343  24029360.586                    24029362.789
        43.200          23.900
                  81185539.396 6  19547285.156                    19547285.660
                        41.800
 117792818.022 7  91786784.73245  22415265.492                    22415270.516
        47.800          35.200
 117593839.650 7  91631577.36145  22377362.422                    22377365.270
        44.900          32.500
 120456513.450 7  93862209.64345  22922111.781                    22922114.918
        44.900          31.400
 109920023.561 8  85651942.82046  20917084.430                    20917087.375
        49.300          36.500
 18  3 16 10  4 48.0000000  0 17R01G27G30G15R10R07R16R17R18R24G20G21
                                R09G08G28G07G13
                  85718937.578 6  20617065.633                    20617068.746
                        36.400
 119921069.109 7  93445020.46345  22820223.375                    22820228.957
        43.000          31.500
 112949286.240 8  88012387.86146  21493534.063                    21493540.000
        50.300          38.600
 114808501.845 8  89461185.91345  21847332.000                    21847335.176
        48.700          35.400
                  88941627.897 6  21452420.297                    21452425.285
                        37.100
                  95408102.915 5  22915328.609                    22915331.078
                        32.800
                  92045297.729 6  22154236.148                    22154238.824
                        36.700
                  87265184.688 6  20966900.711                    20966897.207
                        39.600
                  88468698.965 6  21308357.227                    21308358.848
                        40.000
                                  23656314.625

 114903729.095 7  89535384.41045  21865453.398                    21865455.723
        44.700          32.200
 126277222.860 7  98397868.25744  24029761.055                    24029763.609
        43.500          25.000
                  81185859.051 6  19547363.289                    19547362.988
                        41.700
 117792300.231 8  91786381.26545  22415166.555                    22415172.016
        48.100          35.400
 117591823.768 7  91630006.54745  22376979.133                    22376981.438
        45.200          31.900
 120459774.136 7  93864750.41645  22922732.773                    22922735.523
        45.600          30.900
 109919995.365 8  85651920.84746  20917079.469                    20917082.125
        49.300          36.700
 18  3 16 10  4 49.0000000  0 17R01G27G30G15R10R07R16R17R18R24G20G21
                                R09G08G28G07G13
                  85717221.777 6  20616652.656                    20616655.418
                        36.600
 119923300.868 7  93446759.48945  22820648.250                    22820653.473
        42.900          30.800
 112951295.479 8  88013953.51746  21493916.383                    21493922.008
        50.000          38.700
 114806795.986 8  89459856.68345  21847007.555                    21847010.336
        48.600          35.700
                  88938842.213 6  21451749.148                    21451753.063
                        36.900
                  95411762.843 5  22916208.797                    22916210.629
                        32.100
                  92048650.265 6  22155042.789                    22155045.680
                        36.500
                  87266549.894 6  20967228.250                    20967225.512
                        39.700
                  88466876.054 6  21307918.148                    21307919.699
                        39.900
                                  23657181.891

 114905072.418 7  89536431.14145  21865708.938                    21865711.559
        44.900          32.200
 126279329.707 7  98399509.96544  24030162.016                    24030164.766
        43.600          24.300
                  81186179.293 6  19547439.508                    19547439.664
                        41.600
 117791782.985 8  91785978.22845  22415068.133                    22415073.809
        48.200          35.000
 117589808.208 7  91628435.98345  22376595.563                    22376597.980
        45.700          32.100
 120463035.049 7  93867291.37545  22923353.656                    22923355.984
        46.000          31.400
 109919967.707 8  85651899.29046  20917074.078                    20917076.727
        49.500          37.100
 18  3 16 10  4 50.0000000  0 17R01G27G30G15R10R07R16R17R18R24G20G21
                                R09G08G28G07G13
                  85715506.467 6  20616240.164                    20616243.262
                        36.500
 119925533.117 7  93448498.90545  22821073.148                    22821078.590
        43.100          30.400
 112953305.137 8  88015519.49946  21494299.031                    21494304.262
        50.300          38.600
 114805090.582 8  89458527.80345  21846682.813                    21846686.141
        48.400          35.400
                  88936056.813 6  21451077.563                    21451081.660
                        36.900
                  95415422.874 5  22917087.398                    22917090.316
                        32.900
                  92052002.974 6  22155850.102                    22155852.563
                        36.500
                  87267915.727 6  20967555.688                    20967553.832
                        39.800
                  88465053.655 6  21307478.773                    21307480.352
                        39.800
                                  23658047.453

 114906416.289 7  89537478.30945  21865964.500                    21865967.379
        45.300          32.300
 126281436.867 7  98401151.91444  24030563.586                    24030565.555
        43.800          25.300
                  81186500.104 6  19547517.055                    19547517.109
                        41.800
 117791266.297 8  91785575.61745  22414969.672                    22414975.117
        48.400          35.000
 117587793.017 7  91626865.70245  22376212.438                    22376214.156
        45.500          31.800
 120466296.198 7  93869832.53645  22923974.125                    22923976.508
        46.300          31.400
 109919940.644 8  85651878.19646  20917068.781                    20917071.938
        49.400          36.900
 18  3 16 10  4 51.0000000  0 17R01G27G30G15R10R07R16R17R18R24G20G21
                                R09G08G28G07G13
                  85713791.634 6  20615826.586                    20615830.277
                        36.700
 119927765.871 7  93450238.71345  22821498.063                    22821503.742
        42.800          31.400
 112955315.248 8  88017085.82546  21494681.391                    21494686.938
        50.700          38.300
 114803385.692 8  89457199.32445  21846358.367                    21846361.652
        48.500          35.500
                  88933271.659 6  21450405.516                    21450409.750
                        37.000
                  95419083.043 5  22917967.547                    22917968.457
                        32.900
                  92055355.867 6  22156657.711                    22156659.148
                        36.400
                  87269282.192 6  20967882.656                    20967882.797
                        39.800
                  88463231.778 6  21307039.992                    21307041.512
                        39.800
                                  23658913.297

 114907760.719 7  89538525.91645  21866220.602                    21866222.922
        45.300          32.500
 126283544.358 7  98402794.11744  24030964.391                    24030966.578
        44.000          25.700
                  81186821.515 6  19547594.391                    19547594.512
                        41.800
 117790750.206 8  91785173.46345  22414871.008                    22414876.578
        48.100          34.600
 117585778.189 7  91625295.70545  22375828.836                    22375831.355
        45.500          32.000
 120469557.594 7  93872373.89545  22924594.375                    22924597.309
        47.000          31.700
 109919914.162 8  85651857.54146  20917063.844                    20917066.688
        49.400          36.900
 18  3 16 10  4 52.0000000  0 17R01G27G30G15R10R07R16R17R18R24G20G21
                                R09G08G28G07G13
                  85712077.278 6  20615415.211                    20615418.629
                        36.900
 119929999.155 7  93451978.92945  22821923.125                    22821928.551
        43.600          31.300
 112957325.852 8  88018652.53746  21495063.836                    21495069.734
        50.300          38.600
 114801681.279 8  89455871.21045  21846034.281                    21846037.566
        48.200          35.400
                  88930486.809 6  21449734.102                    21449738.020
                        37.000
                  95422743.333 5  22918844.461                    22918847.996
                        32.000
                  92058708.956 6  22157464.352                    22157466.551
                        36.000
                  87270649.290 6  20968210.367                    20968211.500
                        40.000
                  88461410.438 6  21306601.023                    21306603.211
                        39.900
                  98404040.04513  23659779.805                    23659780.727
                        22.300
 114909105.725 7  89539573.96445  21866476.523                    21866478.859
        45.100          32.400
 126285652.226 7  98404436.61444  24031365.609                    24031367.598
        44.000          26.400
                  81187143.526 6  19547671.352                    19547671.930
                        41.700
 117790234.738 8  91784771.79445  22414773.039                    22414778.957
        48.400          35.200
 117583763.727 7  91623726.00645  22375445.008                    22375447.891
        45.600          31.600
 120472819.262 7  93874915.47345  22925214.734                    22925217.867
        46.700          31.300
 109919888.321 8  85651837.39346  20917058.734                    20917061.879
        49.100          36.200
 18  3 16 10  4 53.0000000  0 17R01G27G30G15R10R07R16R17R18R24G20G21
                                R09G08G28G07G13
                  85710363.429 6  20615003.273                    20615006.199
                        37.100
 119932232.917 7  93453719.52145  22822347.984                    22822353.918
        43.300          31.300
 112959336.938 8  88020219.61546  21495446.492                    21495452.324
        49.800          38.700
 114799977.364 8  89454543.49045  21845709.953                    21845712.824
        48.000          35.500
                  88927702.229 6  21449061.984                    21449066.813
                        36.600
                  95426403.721 5  22919724.594                    22919727.270
                        33.300
                  92062062.211 6  22158272.797                    22158273.156
                        36.600
                  87272016.972 6  20968537.320                    20968539.617
                        40.200
                  88459589.598 6  21306162.422                    21306164.699
                        39.900
                  98407642.90013  23660646.227                    23660647.313
                        22.300
 114910451.270 7  89540622.43245  21866732.547                    21866735.227
        43.900          32.800
 126287760.399 7  98406079.35144  24031766.750                    24031768.574
        43.400          25.200
                  81187466.138 6  19547749.500                    19547749.969
                        41.700
 117789719.840 8  91784370.56945  22414675.055                    22414680.934
        48.200          35.300
 117581749.603 7  91622156.55545  22375061.945                    22375064.898
        45.600          31.500
 120476081.188 7  93877457.23745  22925835.789                    22925838.648
        46.300          30.900
 109919863.047 8  85651817.69146  20917054.172                    20917056.957
        49.300          36.400
 18  3 16 10  4 54.0000000  0 17R01G27G30G15R10R07R16R17R18R24G20G21
                                R09G08G28G07G13
                  85708650.033 6  20614591.398                    20614593.824
                        36.500
 119934467.146 7  93455460.47945  22822773.234                    22822778.402
        43.100          31.300
 112961348.436 8  88021787.02146  21495829.391                    21495835.004
        50.000          38.800
 114798273.875 7  89453216.09445  21845385.852                    21845388.617
        47.800          35.600
                  88924917.827 6  21448388.289                    21448394.832
                        36.600
                  95430064.146 5  22920603.844                    22920606.340
                        31.600
                  92065415.646 6  22159079.477                    22159080.738
                        36.400
                  87273385.225 6  20968865.133                    20968867.805
                        40.200
                  88457769.255 6  21305724.703                    21305725.805
                        39.600
                  98411245.896 3  23661513.031                    23661514.102
                        21.600
 114911797.365 7  89541671.34045  21866988.609                    21866991.059
        44.000          33.000
 126289868.889 7  98407722.33544  24032167.719                    24032169.570
        42.900          25.300
                  81187789.302 6  19547826.938                    19547827.445
                        41.700
 117789205.476 8  91783969.75445  22414576.891                    22414582.797
        48.000          35.400
 117579735.801 7  91620587.36145  22374678.914                    22374681.348
        46.000          32.200
 120479343.327 7  93879999.17745  22926455.828                    22926459.059
        45.800          31.800
 109919838.338 8  85651798.44446  20917049.219                    20917052.141
        49.100          37.000
 18  3 16 10  4 55.0000000  0 17R01G27G30G15R10R07R16R17R18R24G20G21
                                R09G08G28G07G13
                  85706937.086 6  20614179.117                    20614182.207
                        36.700
 119936701.826 7  93457201.78845  22823198.727                    22823203.520
        43.000          31.800
 112963360.357 8  88023354.76246  21496212.805                    21496217.875
        50.000          38.800
 114796570.841 7  89451889.05145  21845061.391                    21845064.699
        47.900          35.300
                  88922133.791 6  21447721.063                    21447723.234
                        36.400
                  95433724.703 5  22921483.297                    22921486.004
                        32.500
                  92068769.256 6  22159886.539                    22159888.195
                        36.400
                  87274754.112 6  20969193.047                    20969196.488
                        39.400
                  88455949.391 6  21305285.711                    21305288.129
                        39.500
                                  23662378.039

 114913143.993 7  89542720.64645  21867244.656                    21867247.438
        43.800          31.900
 126291977.681 7  98409365.54544  24032568.711                    24032570.852
        42.900          24.700
                  81188113.015 6  19547905.563                    19547905.723
                        41.500
 117788691.692 8  91783569.39445  22414479.258                    22414485.270
        48.100          35.400
 117577722.271 7  91619018.37845  22374295.516                    22374298.000
        45.900          31.900
 120482605.700 7  93882541.30645  22927076.359                    22927079.832
        45.600          31.900
 109919814.204 8  85651779.64646  20917044.648                    20917047.863
        49.100          36.600
 18  3 16 10  4 56.0000000  0 17R01G27G30G15R10R07R16R17R18R24G20G21
                                R09G08G28G07G13
                  85705224.600 6  20613766.383                    20613770.430
                        36.400
 119938937.056 7  93458943.52345  22823624.172                    22823629.535
        43.300          31.400
 112965372.742 8  88024922.86246  21496595.313                    21496600.914
        50.400          38.900
 114794868.313 8  89450562.39945  21844737.422                    21844740.434
        48.100          35.700
                  88919349.948 6  21447046.828                    21447051.934
                        36.700
                  95437385.357 5  22922362.195                    22922364.641
                        32.000
                  92072123.049 6  22160692.820                    22160695.035
                        36.800
                  87276123.595 6  20969521.688                    20969524.629
                        39.600
                  88454130.047 6  21304847.398                    21304849.887
                        39.600
                                  23663244.813

 114914491.159 7  89543770.37145  21867501.086                    21867503.867
        44.000          32.000
 126294086.825 7  98411009.04044  24032969.016                    24032972.535
        42.500          24.600
                  81188437.311 6  19547983.469                    19547983.789
                        41.700
 117788178.492 8  91783169.48745  22414381.578                    22414387.645
        48.100          35.400
 117575709.170 7  91617449.71945  22373912.563                    22373915.289
        46.100          31.600
 120485868.320 7  93885083.61945  22927697.289                    22927700.898
        45.100          30.600
 109919790.650 8  85651761.30046  20917039.906                    20917043.473
        49.100          37.100
 18  3 16 10  4 57.0000000  0 17R01G27G30G15R10R07R16R17R18R24G20G21
                                R09G08G28G07G13
                  85703512.628 6  20613355.016                    20613358.273
                        36.800
 119941172.751 7  93460685.62745  22824049.883                    22824054.758
        43.500          32.100
 112967385.602 8  88026491.33246  21496978.227                    21496983.824
        50.200          38.900
 114793166.254 8  89449236.11845  21844413.828                    21844416.477
        48.400          35.700
                  88916566.366 6  21446375.148                    21446380.246
                        36.900
                  95441046.118 5  22923241.055                    22923244.227
                        32.200
                  92075477.026 6  22161500.422                    22161501.246
                        36.900
                  87277493.705 6  20969850.789                    20969853.668
                        39.500
                  88452311.232 6  21304409.719                    21304411.746
                        39.700
                                  23664110.703

 114915838.906 7  89544820.54245  21867757.984                    21867760.582
        44.900          32.400
 126296196.270 7  98412652.77444  24033371.070                    24033373.492
        42.000          24.400
                  81188762.204 6  19548061.930                    19548061.805
                        41.800
 117787665.889 8  91782770.05145  22414284.102                    22414290.254
        48.000          35.400
 117573696.418 7  91615881.33545  22373529.391                    22373532.684
        46.100          32.100
 120489131.177 7  93887626.10145  22928318.156                    22928321.793
        45.200          30.700
 109919767.663 8  85651743.39546  20917035.883                    20917039.121
        49.500          37.000
 18  3 16 10  4 58.0000000  0 17R01G27G30G15R10R07R16R17R18R24G20G21
                                R09G08G28G07G13
                  85701801.155 6  20612944.234                    20612946.789
                        37.200
 119943408.983 7  93462428.14245  22824475.141                    22824480.445
        43.900          31.500
 112969398.926 8  88028060.15546  21497361.570                    21497366.750
        50.700          39.000
 114791464.701 8  89447910.23145  21844089.711                    21844092.805
        49.000          35.600
                  88913783.073 6  21445704.195                    21445709.465
                        37.100
                  95444707.067 5  22924120.094                    22924123.156
                        32.300
                  92078831.162 6  22162308.430                    22162309.641
                        36.900
                  87278864.447 6  20970181.516                    20970182.848
                        39.800
                  88450492.939 6  21303971.672                    21303973.711
                        39.600
                                  23664976.711

 114917187.219 7  89545871.15245  21868014.086                    21868017.039
        45.100          31.700
 126298306.077 6  98414296.77244  24033771.539                    24033775.285
        41.800          25.300
                  81189087.700 6  19548140.164                    19548140.211
                        41.700
 117787153.822 8  91782371.03445  22414186.625                    22414192.836
        48.000          35.100
 117571683.988 7  91614313.21445  22373146.789                    22373149.289
        45.700          32.800
 120492394.300 7  93890168.78345  22928939.602                    22928942.844
        45.300          31.300
 109919745.279 8  85651725.95146  20917031.930                    20917034.824
        49.800          37.300
 18  3 16 10  4 59.0000000  0 17R01G27G30G15R10R07R16R17R18R24G20G21
                                R09G08G28G07G13
                  85700090.182 6  20612533.008                    20612535.547
                        37.200
 119945645.684 7  93464171.01845  22824900.609                    22824905.844
        44.100          31.800
 112971412.711 8  88029629.34246  21497745.086                    21497750.176
        50.800          38.800
 114789763.611 8  89446584.70445  21843765.625                    21843769.043
        49.100          35.400
                  88911000.057 6  21445032.867                    21445037.332
                        37.600
                  95448368.099 5  22925000.586                    22925002.820
                        32.400
                  92082185.486 6  22163115.453                    22163116.930
                        37.300
                  87280235.763 6  20970512.266                    20970512.941
                        39.900
                  88448675.123 6  21303534.242                    21303536.250
                        39.900
                                  23665843.992

 114918536.074 7  89546922.18845  21868270.688                    21868273.594
        44.700          32.400
 126300416.221 6  98415941.04344  24034173.398                    24034176.879
        41.300          26.500
                  81189413.784 6  19548218.992                    19548218.336
                        41.700
 117786642.301 7  91781972.43545  22414089.289                    22414095.664
        47.800          34.400
 117569671.897 7  91612745.35245  22372763.469                    22372766.453
        45.900          32.600
 120495657.652 7  93892711.65045  22929560.828                    22929563.723
        45.400          31.300
 109919723.477 8  85651708.96246  20917027.703                    20917030.852
        49.800          37.300
 18  3 16 10  5  0.0000000  0 17R01G27G30G15R10R07R16R17R18R24G20G21
                                R09G08G28G07G13
                  85698379.662 6  20612120.734                    20612123.645
                        37.200
 119947882.879 7  93465914.28545  22825326.727                    22825331.785
        43.700          31.900
 112973426.928 8  88031198.87246  21498127.773                    21498133.402
        50.500          38.400
 114788063.005 8  89445259.55645  21843442.766                    21843445.523
        48.600          35.100
                  88908217.317 6  21444362.672                    21444366.586
                        37.100
                  95452029.202 5  22925879.453                    22925881.996
                        31.300
                  92085539.975 6  22163922.445                    22163924.039
                        37.000
                  87281607.652 6  20970843.047                    20970842.574
                        39.600
                  88446857.843 6  21303095.828                    21303098.035
                        39.900
                                  23666710.180

 114919885.496 7  89547973.66245  21868527.961                    21868530.535
        45.000          32.400
 126302526.678 6  98417585.55644  24034574.766                    24034578.961
        40.800          25.800
                  81189740.450 6  19548296.969                    19548297.547
                        41.800
 117786131.426 8  91781574.32445  22413991.711                    22413998.082
        48.100          35.100
 117567660.125 7  91611177.72345  22372380.727                    22372383.539
        45.800          33.100
 120498921.245 7  93895254.70545  22930182.352                    22930184.691
        45.400          31.100
 109919702.240 8  85651692.40546  20917023.328                    20917026.426
        49.400          36.300
 18  3 16 10  5  1.0000000  0 17R01G27G30G15R10R07R16R17R18R24G20G21
                                R09G08G28G07G13
                  85696669.672 6  20611709.492                    20611712.680
                        37.000
 119950120.577 7  93467657.93845  22825752.258                    22825757.641
        43.700          30.900
 112975441.650 8  88032768.78846  21498511.188                    21498516.797
        50.300          38.700
 114786362.898 8  89443934.79745  21843118.992                    21843121.902
        48.800          34.500
                  88905434.867 6  21443691.633                    21443695.258
                        37.200
                  95455690.455 5  22926759.117                    22926761.859
                        31.300
                  92088894.706 6  22164731.023                    22164731.383
                        37.200
                  87282980.213 6  20971173.070                    20971172.184
                        39.600
                  88445041.063 6  21302658.352                    21302660.129
                        39.800
                  98436469.30713  23667577.305                    23667578.457
                        23.600
 114921235.522 7  89549025.62045  21868784.617                    21868787.121
        45.000          32.500
 126304637.489 6  98419230.34944  24034976.648                    24034980.387
        40.300          24.500
                  81190067.705 6  19548375.586                    19548375.813
                        41.600
 117785621.116 7  91781176.67045  22413895.133                    22413901.199
        47.900          34.900
 117565648.760 7  91609610.41345  22371998.102                    22372000.684
        45.700          33.100
 120502185.142 7  93897798.00745  22930803.492                    22930806.000
        46.000          31.400
 109919681.592 8  85651676.31046  20917019.141                    20917022.855
        48.700          36.600
 18  3 16 10  5  2.0000000  0 17R01G27G30G15R10R07R16R17R18R24G20G21
                                R09G08G28G07G13
                  85694960.144 6  20611298.328                    20611301.523
                        36.900
 119952358.737 7  93469401.95845  22826178.250                    22826183.301
        44.200          31.100
 112977456.806 8  88034339.04746  21498894.563                    21498900.301
        50.200          38.600
 114784663.236 8  89442610.38345  21842795.648                    21842798.473
        48.500          35.400
                  88902652.605 6  21443018.695                    21443024.258
                        36.700
                  95459351.692 5  22927638.422                    22927641.113
                        30.900
                  92092249.563 6  22165536.641                    22165539.664
                        37.200
                  87284353.361 6  20971502.930                    20971502.340
                        39.900
                  88443224.774 6  21302221.055                    21302223.332
                        40.000
                  98440073.33113  23668444.219                    23668445.297
                        23.800
 114922586.072 7  89550077.99045  21869041.930                    21869044.223
        45.000          32.400
 126306748.612 6  98420875.37144  24035378.828                    24035382.215
        40.000          25.800
                  81190395.538 6  19548454.969                    19548454.453
                        41.600
 117785111.361 7  91780779.45145  22413798.008                    22413803.824
        47.800          35.100
 117563637.692 7  91608043.33345  22371615.727                    22371617.668
        45.400          33.100
 120505449.222 7  93900341.47245  22931424.250                    22931427.086
        46.400          31.400
 109919661.519 8  85651660.66946  20917015.406                    20917018.863
        48.700          37.000
 18  3 16 10  5  3.0000000  0 17R01G27G30G15R10R07R16R17R18R24G20G21
                                R09G08G28G07G13
                  85693251.085 6  20610886.719                    20610890.301
                        36.800
 119954597.399 7  93471146.36645  22826603.859                    22826609.277
        44.500          30.700
 112979472.379 8  88035909.62746  21499278.375                    21499283.688
        50.000          38.800
 114782964.055 8  89441286.33945  21842472.430                    21842475.363
        48.700          35.700
                  88899870.640 6  21442349.438                    21442353.000
                        36.800
                  95463013.110 5  22928517.203                    22928519.965
                        30.200
                  92095604.648 6  22166343.555                    22166346.648
                        37.200
                  87285727.106 6  20971832.750                    20971832.031
                        39.900
                  88441408.927 6  21301784.695                    21301785.785
                        39.700
                  98443677.53913  23669311.203                    23669311.031
                        21.600
 114923937.194 7  89551130.81545  21869299.055                    21869301.504
        45.300          32.100
 126308860.057 6  98422520.63744  24035780.469                    24035783.801
        39.700          25.600
                  81190723.949 6  19548533.797                    19548533.816
                        41.700
 117784602.202 8  91780382.70445  22413700.852                    22413707.320
        48.100          34.800
 117561626.988 7  91606476.53045  22371232.867                    22371235.844
        45.400          33.200
 120508713.513 7  93902885.09445  22932045.641                    22932048.230
        46.300          31.000
 109919642.033 8  85651645.48246  20917011.773                    20917015.137
        49.000          37.200
 18  3 16 10  5  4.0000000  0 17R01G27G30G15R10R07R16R17R18R24G20G21
                                R09G08G28G07G13
                  85691542.519 6  20610476.633                    20610479.703
                        36.900
 119956836.563 7  93472891.16945  22827030.375                    22827035.398
        44.600          31.200
 112981488.384 8  88037480.53646  21499661.938                    21499667.504
        49.900          38.900
 114781265.355 8  89439962.68045  21842149.188                    21842152.156
        48.600          35.900
                  88897088.927 6  21441677.750                    21441682.531
                        36.400
                  95466674.585 5  22929397.719                    22929399.848
                        30.200
                  92098959.865 6  22167151.969                    22167153.723
                        37.200
                  87287101.440 6  20972162.328                    20972162.953
                        39.700
                  88439593.650 6  21301346.836                    21301348.316
                        40.200
                  98447281.869 3  23670179.055                    23670178.008
                        21.600
 114925288.866 7  89552184.08545  21869556.195                    21869558.961
        44.800          32.400
 126310971.839 6  98424166.16244  24036183.383                    24036185.551
        39.400          24.600
                  81191052.945 6  19548612.992                    19548613.258
                        41.600
 117784093.604 7  91779986.39545  22413604.133                    22413610.387
        47.600          34.600
 117559616.626 7  91604910.00745  22370850.398                    22370852.863
        45.500          33.100
 120511978.042 7  93905428.89245  22932666.500                    22932669.488
        46.000          30.200
 109919623.113 8  85651630.73646  20917008.500                    20917011.230
        49.200          37.400
 18  3 16 10  5  5.0000000  0 17R01G27G30G15R10R07R16R17R18R24G20G21
                                R09G08G28G07G13
                  85689834.428 6  20610065.656                    20610069.227
                        37.100
 119959076.199 7  93474636.33445  22827456.406                    22827462.023
        44.200          31.100
 112983504.872 8  88039051.81546  21500046.063                    21500051.191
        50.100          38.600
 114779567.134 8  89438639.38845  21841826.047                    21841829.281
        48.200          35.600
                  88894307.474 6  21441007.148                    21441011.543
                        36.500
                  95470336.233 5  22930276.742                    22930279.355
                        30.800
                  92102315.299 6  22167959.359                    22167962.070
                        37.300
                  87288476.385 6  20972490.930                    20972493.508
                        39.600
                  88437778.889 6  21300910.070                    21300911.613
                        39.800
                  98450886.304 3  23671043.508                    23671044.281
                        22.300
 114926641.112 7  89553237.78845  21869813.633                    21869815.988
        44.900          33.500
 126313083.938 6  98425811.92344  24036585.414                    24036587.379
        38.600          25.200
                  81191382.531 6  19548692.617                    19548692.914
                        41.900
 117783585.596 8  91779590.54945  22413508.070                    22413514.266
        48.100          34.800
 117557606.637 7  91603343.78145  22370467.789                    22370470.613
        45.500          31.900
 120515242.830 7  93907972.88145  22933287.797                    22933290.625
        46.400          32.100
 109919604.775 8  85651616.44446  20917004.695                    20917007.406
        48.800          36.900
 18  3 16 10  5  6.0000000  0 17R01G27G30G15R10R07R16R17R18R24G20G21
                                R09G08G28G07G13
                  85688126.808 6  20609654.688                    20609658.047
                        36.900
 119961316.373 7  93476381.91845  22827882.422                    22827888.348
        43.200          30.300
 112985521.823 8  88040623.45346  21500430.008                    21500435.277
        50.200          38.500
 114777869.398 7  89437316.48146  21841502.391                    21841505.871
        47.800          36.000
                  88891526.321 5  21440337.047                    21440340.781
                        35.900
                  95473997.951 5  22931156.742                    22931158.766
                        31.400
                  92105670.899 6  22168767.531                    22168769.598
                        37.000
                  87289851.984 6  20972820.484                    20972823.836
                        39.400
                  88435964.665 6  21300472.875                    21300474.676
                        39.900
                  98454490.895 3  23671909.625                    23671911.309
                        22.500
 114927993.881 7  89554291.90845  21870070.938                    21870073.551
        44.500          32.700
 126315196.386 6  98427457.98244  24036988.266                    24036989.488
        38.900          25.900
                  81191712.729 6  19548771.734                    19548772.602
                        41.700
 117783078.215 8  91779195.20545  22413411.281                    22413417.105
        48.500          34.900
 117555596.988 7  91601777.82245  22370085.625                    22370087.703
        45.800          32.600
 120518507.883 7  93910517.07545  22933908.836                    22933911.848
        46.100          31.300
 109919587.026 8  85651602.60646  20917001.563                    20917004.500
        48.900          37.000
 18  3 16 10  5  7.0000000  0 17R01G27G30G15R10R07R16R17R18R24G20G21
                                R09G08G28G07G13
                  85686419.656 6  20609244.547                    20609247.383
                        36.900
 119963557.022 7  93478127.87945  22828308.719                    22828314.137
        43.500          31.600
 112987539.238 8  88042195.45846  21500813.352                    21500819.105
        50.200          38.300
 114776172.092 7  89435993.89646  21841179.602                    21841182.797
        47.500          36.200
                  88888745.355 6  21439664.344                    21439669.691
                        36.100
                  95477659.793 5  22932036.070                    22932038.625
                        30.800
                  92109026.646 6  22169575.320                    22169577.426
                        37.300
                  87291228.181 6  20973150.227                    20973154.719
                        39.200
                  88434150.962 6  21300035.867                    21300038.211
                        39.700
                  98458095.601 3  23672777.492                    23672777.898
                        22.500
 114929347.200 7  89555346.43745  21870328.000                    21870331.293
        44.100          32.700
 126317309.159 6  98429104.30244  24037390.969                    24037391.773
        39.700          25.500
                  81192043.440 6  19548851.086                    19548851.215
                        41.600
 117782571.362 8  91778800.28145  22413314.766                    22413320.676
        48.400          34.900
 117553587.685 7  91600212.12945  22369703.141                    22369706.273
        45.900          32.100
 120521773.146 7  93913061.44245  22934530.289                    22934533.316
        45.800          31.300
 109919569.857 8  85651589.22446  20916997.922                    20917000.957
        48.800          37.500
 18  3 16 10  5  8.0000000  0 17R01G27G30G15R10R07R16R17R18R24G20G21
                                R09G08G28G07G13
                  85684712.996 6  20608833.906                    20608837.586
                        36.900
 119965798.164 7  93479874.22445  22828735.344                    22828741.063
        43.600          30.500
 112989557.090 8  88043767.81646  21501197.422                    21501203.336
        50.000          38.900
 114774475.284 7  89434671.69146  21840856.641                    21840859.992
        47.700          36.100
                  88885964.715 6  21438995.008                    21438999.090
                        36.200
                  95481321.743 5  22932915.539                    22932917.914
                        30.600
                  92112382.640 6  22170382.656                    22170385.168
                        36.800
                  87292604.958 6  20973482.094                    20973485.512
                        39.300
                  88432337.801 6  21299599.883                    21299601.676
                        39.900
                  98461700.471 3  23673645.344                    23673644.547
                        21.400
 114930701.064 7  89556401.38445  21870585.953                    21870588.480
        44.200          32.600
 126319422.230 6  98430750.85544  24037793.008                    24037793.609
        40.600          24.600
                  81192374.733 6  19548931.469                    19548931.262
                        41.700
 117782065.103 8  91778405.81245  22413218.680                    22413224.492
        48.300          34.800
 117551578.746 7  91598646.72945  22369320.672                    22369323.500
        46.000          32.400
 120525038.631 7  93915605.97645  22935151.750                    22935154.656
        45.700          30.500
 109919553.277 8  85651576.30246  20916995.094                    20916998.430
        49.200          37.100
 18  3 16 10  5  9.0000000  0 17R01G27G30G15R10R07R16R17R18R24G20G21
                                R09G08G28G07G13
                  85683006.836 6  20608423.445                    20608426.824
                        36.900
 119968039.816 7  93481620.96345  22829161.680                    22829166.973
        43.400          31.100
 112991575.449 8  88045340.56546  21501581.500                    21501587.188
        50.600          38.800
 114772778.976 7  89433349.87245  21840534.031                    21840537.199
        47.900          35.500
                  88883184.382 6  21438325.438                    21438329.156
                        36.600
                  95484983.768 5  22933795.711                    22933797.586
                        30.300
                  92115738.804 6  22171191.133                    22171192.555
                        36.400
                  87293982.369 6  20973814.000                    20973816.414
                        39.600
                  88430525.185 6  21299162.188                    21299164.438
                        39.800
                  98465305.464 3  23674510.281                    23674511.535
                        22.300
 114932055.575 7  89557456.83045  21870843.398                    21870846.441
        44.900          32.100
 126321535.687 6  98432397.71543  24038195.031                    24038196.207
        41.300          23.200
                  81192706.621 6  19549011.648                    19549011.602
                        41.600
 117781559.418 8  91778011.79745  22413122.211                    22413128.430
        48.100          35.100
 117549570.170 7  91597081.60645  22368938.344                    22368941.332
        46.100          31.800
 120528304.435 7  93918150.76245  22935773.133                    22935776.039
        45.600          30.400
 109919537.316 8  85651563.86546  20916992.094                    20916994.891
        49.400          36.800
 18  3 16 10  5 10.0000000  0 17R01G27G30G15R10R07R16R17R18R24G20G21
                                R09G08G28G07G13
                  85681301.138 6  20608013.398                    20608016.355
                        36.700
 119970281.944 7  93483368.07545  22829588.523                    22829593.953
        43.800          31.200
 112993594.232 8  88046913.64746  21501966.063                    21501970.945
        51.000          38.900
 114771083.133 8  89432028.42145  21840211.477                    21840214.195
        48.400          35.200
                  88880404.248 6  21437652.813                    21437657.684
                        36.400
                  95488645.883 5  22934674.148                    22934676.668
                        30.100
                  92119095.132 6  22171998.445                    22172000.363
                        37.000
                  87295360.360 6  20974147.109                    20974147.211
                        39.800
                  88428713.077 6  21298725.445                    21298727.992
                        40.100
                  98468910.613 3  23675377.438                    23675378.246
                        21.400
 114933410.616 7  89558512.70845  21871101.773                    21871104.051
        45.400          32.500
 126323649.417 7  98434044.78344  24038596.781                    24038598.301
        42.200          24.700
                  81193039.097 6  19549091.508                    19549091.211
                        41.700
 117781054.257 8  91777618.17445  22413026.570                    22413032.305
        48.000          35.000
 117547561.901 7  91595516.71545  22368556.500                    22368558.891
        46.000          31.600
 120531570.444 7  93920695.70745  22936394.313                    22936397.738
        45.400          31.200
 109919521.906 8  85651551.86046  20916989.141                    20916992.191
        49.500          36.400
 18  3 16 10  5 11.0000000  0 17R01G27G30G15R10R07R16R17R18R24G20G21
                                R09G08G28G07G13
                  85679595.990 6  20607603.297                    20607605.848
                        36.200
 119972524.588 7  93485115.58345  22830015.828                    22830020.840
        43.300          31.100
 112995613.508 8  88048487.11846  21502349.898                    21502355.402
        51.300          38.600
 114769387.815 8  89430707.37645  21839888.828                    21839891.898
        48.300          35.300
                  88877624.466 6  21436984.117                    21436987.367
                        36.000
                  95492308.138 5  22935553.078                    22935556.078
                        30.400
                  92122451.669 6  22172807.602                    22172808.582
                        37.400
                  87296738.993 6  20974479.391                    20974478.648
                        39.700
                  88426901.526 6  21298289.563                    21298291.594
                        39.800
                  98472515.887 3  23676243.133                    23676245.344
                        23.000
 114934766.282 7  89559569.09245  21871359.508                    21871362.160
        45.400          32.700
 126325763.506 7  98435692.13544  24038999.523                    24039000.707
        42.100          25.100
                  81193372.229 6  19549171.813                    19549171.891
                        41.600
 117780549.713 7  91777225.01645  22412930.219                    22412935.777
        47.900          34.700
 117545554.059 7  91593952.15245  22368173.992                    22368176.895
        45.400          31.600
 120534836.767 7  93923240.89645  22937015.875                    22937018.828
        45.400          30.700
 109919507.122 8  85651540.34846  20916986.766                    20916989.500
        49.600          37.200
 18  3 16 10  5 12.0000000  0 17R01G27G30G15R10R07R16R17R18R24G20G21
                                R09G08G28G07G13
                  85677891.297 6  20607191.969                    20607196.156
                        36.700
 119974767.727 7  93486863.48945  22830442.258                    22830447.246
        43.400          30.700
 112997633.193 8  88050060.90346  21502734.344                    21502739.777
        51.200          38.700
 114767692.962 8  89429386.69945  21839566.188                    21839569.703
        48.300          35.100
                  88874844.959 6  21436313.406                    21436317.270
                        36.700
                  95495970.492 5  22936434.000                    22936436.414
                        30.200
                  92125808.397 6  22173614.172                    22173616.379
                        36.700
                  87298118.207 6  20974811.766                    20974809.984
                        39.400
                  88425090.446 6  21297853.500                    21297855.871
                        39.900
                  98476121.271 3  23677110.477                    23677111.996
                        22.700
 114936122.448 7  89560625.87345  21871617.578                    21871620.465
        44.100          32.300
 126327877.927 7  98437339.73244  24039401.227                    24039403.000
        42.700          24.900
                  81193705.928 6  19549251.789                    19549252.266
                        41.700
 117780045.744 8  91776832.31045  22412834.430                    22412840.180
        48.300          34.800
 117543546.507 7  91592387.82145  22367791.906                    22367794.852
        45.200          31.400
 120538103.301 7  93925786.25945  22937638.070                    22937641.035
        44.900          31.500
 109919492.875 8  85651529.23746  20916983.438                    20916986.707
        49.800          37.200
 18  3 16 10  5 13.0000000  0 17R01G27G30G15R10R07R16R17R18R24G20G21
                                R09G08G28G07G13
                  85676187.074 6  20606782.234                    20606786.156
                        37.000
 119977011.351 7  93488611.75745  22830869.406                    22830874.277
        43.400          31.600
 112999653.297 8  88051635.00046  21503118.672                    21503124.332
        51.000          38.800
 114765998.531 8  89428066.36345  21839244.008                    21839247.082
        48.600          35.100
                  88872065.639 6  21435640.922                    21435646.313
                        36.700
                  95499632.931 5  22937313.695                    22937316.254
                        30.900
                  92129165.247 6  22174423.133                    22174424.477
                        36.200
                  87299498.023 6  20975142.648                    20975142.031
                        39.800
                  88423279.871 6  21297417.805                    21297419.203
                        40.200
                  98479726.838 3  23677978.578                    23677978.781
                        21.400
 114937479.164 7  89561683.07845  21871875.617                    21871878.492
        44.500          32.800
 126329992.668 7  98438987.58344  24039803.344                    24039805.324
        42.600          24.800
                  81194040.187 6  19549332.570                    19549332.895
                        41.800
 117779542.305 8  91776440.01845  22412738.578                    22412744.297
        48.100          34.700
 117541539.300 7  91590823.76245  22367409.961                    22367413.324
        45.400          31.400
 120541370.048 7  93928331.79045  22938259.844                    22938262.344
        45.600          31.800
 109919479.208 8  85651518.58946  20916980.695                    20916984.121
        49.400          37.300
 18  3 16 10  5 14.0000000  0 17R01G27G30G15R10R07R16R17R18R24G20G21
                                R09G08G28G07G13
                  85674483.343 6  20606373.250                    20606376.273
                        36.900
 119979255.438 7  93490360.38945  22831295.922                    22831301.188
        43.400          30.700
 113001673.868 8  88053209.43846  21503503.547                    21503508.656
        50.700          39.000
 114764304.563 8  89426746.37045  21838921.438                    21838924.754
        48.000          34.800
                  88869286.645 6  21434972.969                    21434976.195
                        36.900
                  95503295.448 4  22938192.469                    22938195.480
                        29.900
                  92132522.310 6  22175231.344                    22175232.445
                        36.200
                  87300878.467 6  20975474.297                    20975473.797
                        39.900
                  88421469.782 6  21296980.938                    21296983.047
                        40.200
                  98483332.505 3  23678845.156                    23678846.051
                        22.300
 114938836.405 7  89562740.68545  21872133.688                    21872136.797
        44.700          32.400
 126332107.699 7  98440635.66444  24040205.734                    24040207.777
        42.400          25.300
                  81194375.034 6  19549412.945                    19549412.992
                        41.600
 117779039.458 8  91776048.19345  22412643.141                    22412648.555
        48.000          34.700
 117539532.465 7  91589260.00645  22367028.250                    22367031.066
        45.000          31.200
 120544637.024 7  93930877.49845  22938881.406                    22938884.172
        46.200          31.300
 109919466.107 8  85651508.38046  20916978.453                    20916980.922
        48.400          36.900
 18  3 16 10  5 15.0000000  0 17R01G27G30G15R10R07R16R17R18R24G20G21
                                R09G08G28G07G13
                  85672780.110 6  20605963.445                    20605966.828
                        36.800
 119981500.058 7  93492109.44845  22831723.609                    22831728.141
        43.800          30.200
 113003694.889 8  88054784.23646  21503887.992                    21503893.434
        49.900          39.100
 114762611.133 8  89425426.78845  21838599.438                    21838602.590
        48.100          34.600
                  88866507.877 6  21434301.328                    21434306.352
                        36.700
                  95506958.140 4  22939072.703                    22939075.277
                        29.000
                  92135879.582 6  22176038.352                    22176040.523
                        36.300
                  87302259.565 6  20975804.727                    20975805.637
                        39.900
                  88419660.235 6  21296545.688                    21296547.125
                        40.200
                  98486938.325 3  23679712.766                    23679712.984
                        22.100
 114940194.239 7  89563798.74645  21872392.266                    21872395.129
        44.600          32.200
 126334223.103 7  98442284.04744  24040608.383                    24040610.387
        42.200          25.300
                  81194710.512 6  19549494.148                    19549493.797
                        41.700
 117778537.236 8  91775656.85445  22412546.914                    22412553.418
        48.300          35.200
 117537525.990 7  91587696.53545  22366646.477                    22366649.289
        45.600          32.100
 120547904.248 7  93933423.38745  22939503.289                    22939505.875
        45.800          31.600
 109919453.655 7  85651498.67746  20916976.109                    20916979.195
        47.900          36.500
