     2.11           OBSERVATION DATA    M (MIXED)           RINEX VERSION / TYPE
teqc  2018Mar15                         20180319 14:17:33UTCPGM / RUN BY / DATE
Linux 2.6.32-573.12.1.x86_64|x86_64|gcc -static|Linux 64|=+ COMMENT
END OF STATIC MODE OBSERVATION                              COMMENT
BIT 2 OF LLI FLAGS DATA COLLECTED UNDER A/S CONDITION       COMMENT
-Unknown-                                                   MARKER NAME
4625                                                        MARKER NUMBER
-Unknown-           -Unknown-                               OBSERVER / AGENCY
5127468778          TRIMBLE             4.63                REC # / TYPE / VERS
47477114                            NONE                    ANT # / TYPE
  6378137.0000        0.0000        0.0000                  APPROX POSITION XYZ
        0.0000        0.0000        0.0000                  ANTENNA: DELTA H/E/N
     1     1                                                WAVELENGTH FACT L1/2
     7    L1    L2    C1    P1    P2    S1    S2            # / TYPES OF OBSERV
    18                                                      LEAP SECONDS
 SNR is mapped to RINEX snr flag value [0-9]                COMMENT
  L1 & L2: min(max(int(snr_dBHz/6), 0), 9)                  COMMENT
  2018     3    15    10     9   16.0000000     GPS         TIME OF FIRST OBS
                                                            END OF HEADER
 18  3 15 10  9 16.0000000  0 16R09R07R15R16R23R24G30R17G21G07G08G27
                                G15G20G13G28
                  89621589.255 6  21578461.305                    21578462.711
                        40.200
                  83567581.168 7  20071450.008                    20071451.418
                        42.000
                  95689629.657 4  23023294.938                    23023298.625
                        28.900
                  81444454.128 6  19602736.109                    19602737.340
                        40.000
                  97136885.784 5  23346916.836                    23346921.219
                        30.800
                  87547825.506 5  21049564.781                    21049565.316
                        32.600
 113577102.991 8  88501632.71946  21612995.727                    21613000.852
        49.900          37.000
                  89775487.734 6  21570036.508                    21570037.629
                        41.100
 126890355.215 7  98875610.15044  24146432.320                    24146434.934
        44.100          27.100
 121108827.104 7  94370587.84144  23046260.602                    23046263.402
        46.800          28.900
 118355049.964 7  92224797.17245  22522232.656                    22522237.828
        45.300          33.400
 120543917.017 6  93930285.17244  22938744.836                    22938750.152
        41.600          29.100
 115330592.672 8  89868044.52545  21946689.344                    21946692.418
        49.400          35.700
 115539731.078 7  90031013.02945  21986489.109                    21986491.371
        44.200          31.900
 110486153.284 8  86093112.25545  21024813.969                    21024816.832
        48.800          35.800
 118117445.005 7  92039596.05444  22477006.852                    22477009.344
        45.200          29.800
 18  3 15 10  9 17.0000000  0 16R09R07R15R16R23R24G30R17G21G07G08G27
                                G15G20G13G28
                  89618865.828 6  21577804.867                    21577806.398
                        40.200
                  83568882.286 7  20071761.969                    20071763.664
                        42.600
                  95693218.094 4  23024158.023                    23024162.484
                        28.400
                  81445012.396 6  19602870.500                    19602871.328
                        40.400
                  97140384.022 5  23347757.672                    23347761.816
                        31.200
                  87549084.563 5  21049867.977                    21049868.238
                        32.700
 113579149.216 8  88503227.17946  21613384.891                    21613390.488
        49.800          37.500
                  89773542.408 6  21569569.156                    21569569.719
                        41.400
 126892493.302 7  98877276.20244  24146838.898                    24146841.953
        43.800          26.100
 121112117.373 7  94373151.68844  23046887.328                    23046889.598
        47.300          29.300
 118354571.998 7  92224424.71145  22522142.242                    22522147.141
        45.800          32.800
 120546182.671 7  93932050.61744  22939175.508                    22939181.242
        42.300          28.300
 115328922.529 8  89866743.12245  21946371.695                    21946374.660
        49.500          35.900
 115541148.948 7  90032117.85845  21986758.828                    21986761.496
        44.100          32.600
 110486162.632 8  86093119.53945  21024815.898                    21024818.453
        48.400          35.800
 118115461.505 7  92038050.47845  22476629.523                    22476631.895
        45.800          30.100
 18  3 15 10  9 18.0000000  0 16R09R07R15R16R23R24G30R17G21G07G08G27
                                G15G20G13G28
                  89616142.841 6  21577148.891                    21577150.266
                        38.900
                  83570184.113 7  20072074.898                    20072076.410
                        42.100
                  95696806.760 4  23025022.648                    23025026.258
                        27.600
                  81445571.377 6  19603005.539                    19603006.391
                        40.600
                  97143882.592 5  23348598.352                    23348602.367
                        30.900
                  87550344.396 5  21050170.500                    21050171.246
                        32.500
 113581196.064 8  88504822.12846  21613773.852                    21613779.746
        49.800          37.200
                  89771597.693 6  21569102.570                    21569102.586
                        41.500
 126894631.926 7  98878942.66144  24147246.055                    24147248.867
        43.700          26.900
 121115408.066 7  94375715.86844  23047513.078                    23047515.836
        47.000          28.500
 118354094.787 7  92224052.84245  22522051.195                    22522055.668
        45.800          32.600
 120548449.011 7  93933816.60244  22939607.492                    22939612.230
        42.200          28.500
 115327253.082 8  89865442.26346  21946054.102                    21946057.230
        49.800          36.900
 115542567.558 7  90033223.26845  21987028.625                    21987031.355
        43.600          32.500
 110486172.726 8  86093127.40445  21024817.484                    21024820.246
        48.400          35.800
 118113478.521 7  92036505.29845  22476252.492                    22476254.598
        46.600          30.200
 18  3 15 10  9 19.0000000  0 16R09R07R15R16R23R24G30R17G21G07G08G27
                                G15G20G13G28
                  89613420.219 6  21576494.602                    21576494.207
                        39.300
                  83571486.670 7  20072388.109                    20072389.551
                        42.100
                  95700395.618 4  23025885.797                    23025889.242
                        28.100
                  81446131.040 6  19603140.234                    19603140.926
                        40.100
                  97147381.463 5  23349439.422                    23349443.633
                        31.700
                  87551604.960 5  21050473.773                    21050473.801
                        32.900
 113583243.504 8  88506417.53446  21614163.789                    21614169.391
        49.800          37.000
                  89769653.560 6  21568636.016                    21568636.188
                        41.700
 126896770.992 7  98880609.45744  24147652.539                    24147656.066
        43.000          27.500
 121118699.132 7  94378280.33544  23048139.219                    23048142.246
        47.200          29.600
 118353618.307 7  92223681.54845  22521960.469                    22521965.340
        46.600          33.200
 120550715.970 7  93935583.06744  22940038.258                    22940043.926
        42.400          28.800
 115325584.230 8  89864141.86546  21945736.844                    21945739.691
        50.000          37.000
 115543986.875 7  90034329.22945  21987298.703                    21987301.801
        43.900          33.000
 110486183.548 8  86093135.83645  21024819.438                    21024822.848
        48.000          35.900
 118111496.048 7  92034960.50545  22475875.281                    22475877.379
        46.800          30.400
 18  3 15 10  9 20.0000000  0 16R09R07R15R16R23R24G30R17G21G07G08G27
                                G15G20G13G28
                  89610697.984 6  21575839.641                    21575838.387
                        40.100
                  83572789.965 7  20072701.078                    20072702.961
                        42.000
                  95703984.743 4  23026749.820                    23026752.996
                        27.400
                  81446691.445 6  19603275.266                    19603276.023
                        40.000
                  97150880.658 5  23350279.984                    23350285.000
                        31.400
                  87552866.237 5  21050777.023                    21050777.746
                        32.800
 113585291.574 8  88508013.42946  21614553.742                    21614559.273
        49.600          36.900
                  89767710.028 6  21568168.984                    21568169.656
                        41.700
 126898910.558 7  98882276.65344  24148059.719                    24148063.133
        43.400          26.200
 121121990.604 7  94380845.12244  23048765.609                    23048768.734
        46.900          29.400
 118353142.565 7  92223310.83345  22521870.508                    22521874.949
        47.000          33.900
 120552983.586 7  93937350.03544  22940470.336                    22940475.207
        42.400          28.800
 115323916.026 8  89862841.96546  21945418.570                    21945421.926
        49.800          36.300
 115545406.904 7  90035435.74545  21987568.922                    21987571.652
        43.800          32.300
 110486195.116 8  86093144.83545  21024821.859                    21024824.863
        48.200          35.400
 118109514.095 7  92033416.10845  22475497.789                    22475500.188
        47.200          30.900
 18  3 15 10  9 21.0000000  0 16R09R07R15R16R23R24G30R17G21G07G08G27
                                G15G20G13G28
                  89607976.173 6  21575185.750                    21575183.879
                        40.000
                  83574093.952 7  20073014.148                    20073015.992
                        42.300
                  95707574.103 4  23027612.953                    23027616.145
                        26.600
                  81447252.611 6  19603410.023                    19603411.656
                        40.000
                  97154380.219 5  23351121.133                    23351126.285
                        31.900
                  87554128.320 5  21051081.539                    21051080.832
                        34.100
 113587340.294 8  88509609.83246  21614943.680                    21614948.973
        49.800          36.600
                  89765767.131 6  21567701.039                    21567703.164
                        41.300
 126901050.631 7  98883944.24044  24148467.023                    24148470.719
        42.900          27.600
 121125282.505 7  94383410.24444  23049392.625                    23049394.980
        46.400          29.000
 118352667.575 7  92222940.71245  22521779.633                    22521784.430
        47.300          34.700
 120555251.855 7  93939117.51844  22940901.516                    22940906.875
        42.100          28.900
 115322248.492 8  89861542.58846  21945101.352                    21945104.762
        49.900          37.100
 115546827.666 7  90036542.81645  21987838.719                    21987842.238
        44.500          32.700
 110486207.467 8  86093154.45146  21024824.289                    21024827.059
        48.900          36.600
 118107532.646 7  92031872.10745  22475120.438                    22475123.246
        46.000          31.200
 18  3 15 10  9 22.0000000  0 16R09R07R15R16R23R24G30R17G21G07G08G27
                                G15G20G13G28
                  89605254.779 6  21574530.922                    21574529.590
                        40.400
                  83575398.661 7  20073328.273                    20073329.746
                        42.300
                  95711163.676 4  23028476.844                    23028479.918
                        26.600
                  81447814.527 6  19603545.719                    19603546.762
                        39.800
                  97157880.122 5  23351961.695                    23351967.316
                        32.600
                  87555391.186 5  21051385.047                    21051384.418
                        33.100
 113589389.654 8  88511206.73446  21615333.570                    21615338.801
        49.500          36.600
                  89763824.874 6  21567235.031                    21567237.066
                        41.400
 126903191.220 7  98885612.23944  24148873.930                    24148877.848
        43.200          26.000
 121128574.859 7  94385975.71044  23050018.727                    23050021.324
        46.900          27.900
 118352193.339 7  92222571.18845  22521689.016                    22521694.117
        46.600          34.300
 120557520.853 7  93940885.56744  22941333.484                    22941338.859
        42.000          28.300
 115320581.636 8  89860243.73246  21944783.906                    21944787.539
        49.600          36.800
 115548249.172 7  90037650.47745  21988109.977                    21988112.879
        45.800          33.000
 110486220.569 8  86093164.64846  21024826.531                    21024829.711
        48.800          36.100
 118105551.769 7  92030328.56545  22474742.695                    22474746.602
        44.000          30.300
 18  3 15 10  9 23.0000000  0 16R09R07R15R16R23R24G30R17G21G07G08G27
                                G15G20G13G28
                  89602533.769 6  21573874.609                    21573875.410
                        41.000
                  83576704.034 6  20073640.555                    20073642.125
                        41.900
                  95714753.464 4  23029338.859                    23029343.484
                        26.800
                  81448377.131 6  19603680.563                    19603682.344
                        40.000
                  97161380.309 5  23352803.563                    23352808.879
                        32.900
                  87556654.766 5  21051689.031                    21051689.113
                        32.600
 113591439.581 8  88512804.08346  21615723.781                    21615729.406
        49.900          36.500
                  89761883.179 6  21566767.273                    21566770.398
                        41.500
 126905332.299 7  98887280.61744  24149281.867                    24149285.305
        43.100          25.800
 121131867.560 7  94388541.45044  23050645.375                    23050648.266
        46.400          28.400
 118351719.808 7  92222202.20345  22521598.656                    22521604.160
        47.100          33.700
 120559790.420 7  93942654.04644  22941765.648                    22941770.641
        42.300          28.200
 115318915.338 8  89858945.32145  21944467.453                    21944470.168
        49.100          35.700
 115549671.349 7  90038758.66345  21988379.734                    21988383.602
        44.100          31.100
 110486234.388 8  86093175.40546  21024829.242                    21024832.301
        49.700          36.600
 118103571.334 7  92028785.35345  22474365.438                    22474369.699
        43.200          30.100
 18  3 15 10  9 24.0000000  0 16R09R07R15R16R23R24G30R17G21G07G08G27
                                G15G20G13G28
                  89599813.099 6  21573219.086                    21573219.738
                        40.400
                  83578010.131 6  20073954.914                    20073956.309
                        40.900
                  95718343.415 4  23030202.070                    23030206.898
                        25.800
                  81448940.448 6  19603816.336                    19603817.484
                        39.000
                  97164880.837 5  23353645.070                    23353650.441
                        31.900
                  87557919.106 5  21051992.773                    21051992.773
                        32.200
 113593490.134 8  88514401.91846  21616114.211                    21616119.441
        49.500          36.100
                  89759942.174 6  21566300.813                    21566304.270
                        41.100
 126907473.857 7  98888949.34844  24149689.930                    24149692.570
        43.000          25.300
 121135160.667 7  94391107.50844  23051272.273                    23051274.961
        46.800          28.700
 118351247.003 7  92221833.78345  22521509.000                    22521514.098
        47.100          33.600
 120562060.695 7  93944423.09544  22942197.469                    22942202.387
        42.600          28.700
 115317249.742 8  89857647.45846  21944150.594                    21944153.387
        49.700          36.300
 115551094.233 7  90039867.43445  21988651.477                    21988653.914
        45.000          31.100
 110486248.951 8  86093186.75045  21024832.133                    21024835.262
        50.100          35.800
 118101591.402 7  92027242.56445  22473988.133                    22473992.777
        42.600          30.300
 18  3 15 10  9 25.0000000  0 16R09R07R15R16R23R24G30R17G21G07G08G27
                                G15G20G13G28
                  89597092.867 6  21572562.672                    21572564.957
                        40.400
                  83579316.963 6  20074268.141                    20074270.609
                        41.300
                  95721933.608 4  23031067.258                    23031070.887
                        26.800
                  81449504.499 6  19603952.094                    19603953.438
                        39.400
                  97168381.638 5  23354485.727                    23354492.086
                        32.000
                  87559184.221 5  21052297.398                    21052297.207
                        32.700
 113595541.290 8  88516000.22746  21616504.422                    21616509.527
        49.000          36.500
                  89758001.757 6  21565834.680                    21565837.781
                        41.200
 126909615.874 7  98890618.44344  24150097.414                    24150100.387
        42.700          25.600
 121138454.151 7  94393673.85544  23051899.102                    23051901.480
        46.800          28.000
 118350774.955 7  92221465.94145  22521419.195                    22521424.309
        47.300          34.100
 120564331.610 7  93946192.63344  22942629.719                    22942634.742
        42.000          29.400
 115315584.732 8  89856350.04645  21943833.406                    21943836.984
        49.500          35.800
 115552517.833 7  90040976.74645  21988922.461                    21988925.078
        45.300          31.500
 110486264.237 8  86093198.66245  21024834.992                    21024838.098
        50.200          35.900
 118099611.941 7  92025700.15444  22473613.016                    22473616.055
        43.400          29.100
 18  3 15 10  9 26.0000000  0 16R09R07R15R16R23R24G30R17G21G07G08G27
                                G15G20G13G28
                  89594373.011 6  21571907.320                    21571910.070
                        38.900
                  83580624.481 6  20074582.273                    20074583.625
                        40.900
                  95725523.979 4  23031931.641                    23031934.652
                        24.900
                  81450069.218 6  19604087.281                    19604089.293
                        39.100
                  97171882.737 5  23355326.688                    23355332.766
                        30.600
                  87560450.066 5  21052603.602                    21052601.105
                        32.000
 113597593.057 8  88517598.99946  21616894.633                    21616900.059
        49.600          36.800
                  89756061.981 6  21565369.102                    21565371.504
                        40.800
 126911758.360 7  98892287.91444  24150505.359                    24150507.953
        42.800          26.700
 121141748.007 7  94396240.49744  23052525.797                    23052528.059
        46.600          28.900
 118350303.617 8  92221098.65945  22521329.625                    22521334.770
        48.000          33.800
 120566603.169 7  93947962.68344  22943062.195                    22943066.637
        42.000          29.400
 115313920.360 8  89855053.13845  21943516.398                    21943520.031
        49.400          35.800
 115553942.141 7  90042086.60945  21989193.094                    21989196.094
        45.000          32.300
 110486280.253 8  86093211.14046  21024838.500                    21024841.305
        50.700          36.500
 118097633.021 7  92024158.17345  22473237.836                    22473239.488
        46.200          30.100
 18  3 15 10  9 27.0000000  0 16R09R07R15R16R23R24G30R17G21G07G08G27
                                G15G20G13G28
                  89591653.532 6  21571252.266                    21571254.055
                        38.700
                  83581932.664 6  20074897.469                    20074898.641
                        41.200
                  95729114.582 4  23032795.430                    23032798.809
                        26.000
                  81450634.660 6  19604224.438                    19604225.730
                        39.600
                  97175384.148 4  23356168.414                    23356174.238
                        29.600
                  87561716.687 5  21052906.797                    21052905.957
                        31.500
 113599645.429 8  88519198.25046  21617285.570                    21617290.754
        49.600          36.900
                  89754122.765 6  21564903.781                    21564905.086
                        40.100
 126913901.328 7  98893957.75644  24150912.383                    24150915.801
        43.000          24.900
 121145042.303 7  94398807.48644  23053152.000                    23053155.004
        46.200          28.300
 118349833.061 8  92220732.00145  22521240.172                    22521244.820
        48.000          33.500
 120568875.369 7  93949733.23444  22943494.406                    22943499.246
        42.000          28.600
 115312256.648 8  89853756.75545  21943199.867                    21943203.297
        49.600          35.700
 115555367.165 7  90043197.02745  21989463.992                    21989467.156
        44.400          31.700
 110486297.029 8  86093224.21346  21024841.438                    21024844.410
        50.700          36.200
 118095654.634 7  92022616.57945  22472861.867                    22472862.746
        47.600          30.900
 18  3 15 10  9 28.0000000  0 16R09R07R15R16R23R24G30R17G21G07G08G27
                                G15G20G13G28
                  89588934.485 6  21570598.727                    21570598.535
                        38.000
                  83583241.613 7  20075211.125                    20075213.348
                        42.400
                  95732705.498 4  23033659.352                    23033662.867
                        25.600
                  81451200.877 6  19604359.727                    19604361.422
                        40.000
                  97178885.910 4  23357010.055                    23357016.727
                        29.900
                  87562984.104 5  21053212.250                    21053210.691
                        31.700
 113601698.483 8  88520798.03546  21617676.039                    21617681.199
        49.500          36.500
                  89752184.198 6  21564438.695                    21564439.164
                        40.200
 126916044.898 7  98895628.07744  24151320.477                    24151323.410
        43.100          25.100
 121148337.054 7  94401374.82944  23053779.508                    23053782.270
        46.200          29.500
 118349363.274 8  92220365.94245  22521150.797                    22521155.910
        48.600          33.700
 120571148.284 7  93951504.34544  22943926.773                    22943932.250
        42.300          29.000
 115310593.614 8  89852460.89346  21942883.430                    21942886.949
        50.000          36.100
 115556792.970 7  90044308.03845  21989735.430                    21989738.707
        44.500          31.200
 110486314.617 8  86093237.92746  21024844.133                    21024847.383
        49.900          36.500
 118093676.828 8  92021075.41644  22472485.375                    22472486.719
        48.100          29.800
 18  3 15 10  9 29.0000000  0 16R09R07R15R16R23R24G30R17G21G07G08G27
                                G15G20G13G28
                  89586215.871 6  21569944.555                    21569944.066
                        38.500
                  83584551.285 6  20075525.969                    20075527.059
                        41.900
                  95736296.626 4  23034522.594                    23034526.547
                        25.500
                  81451767.839 6  19604497.484                    19604498.031
                        39.900
                  97182387.989 4  23357852.188                    23357858.043
                        29.000
                  87564252.273 5  21053516.984                    21053514.977
                        31.400
 113603752.157 8  88522398.31246  21618066.727                    21618072.289
        49.600          36.600
                  89750246.240 6  21563972.289                    21563973.625
                        40.700
 126918188.916 7  98897298.74844  24151728.633                    24151731.512
        44.100          26.900
 121151632.201 7  94403942.47744  23054406.273                    23054409.055
        46.000          27.900
 118348894.231 8  92220000.46545  22521061.578                    22521066.590
        48.400          33.700
 120573421.855 6  93953275.97244  22944359.211                    22944364.602
        41.900          28.900
 115308931.245 8  89851165.54845  21942567.289                    21942570.363
        50.100          35.900
 115558219.490 7  90045419.59545  21990006.445                    21990010.121
        43.700          32.100
 110486332.929 8  86093252.19346  21024847.805                    21024850.770
        50.400          36.400
 118091699.515 7  92019534.61744  22472107.773                    22472110.320
        47.400          29.900
 18  3 15 10  9 30.0000000  0 16R09R07R15R16R23R24G30R17G21G07G08G27
                                G15G20G13G28
                  89583497.446 6  21569289.789                    21569288.813
                        38.100
                  83585861.627 6  20075840.836                    20075841.875
                        41.900
                  95739887.917 4  23035386.781                    23035390.500
                        24.500
                  81452335.457 6  19604633.891                    19604634.688
                        39.600
                  97185890.354 4  23358694.602                    23358699.934
                        29.700
                  87565521.152 5  21053821.227                    21053820.297
                        32.600
 113605806.412 8  88523999.02946  21618457.563                    21618462.926
        49.600          37.000
                  89748308.862 6  21563506.609                    21563508.078
                        40.900
 126920333.361 7  98898969.74344  24152136.422                    24152139.699
        43.800          26.500
 121154927.678 7  94406510.37844  23055033.438                    23055036.172
        46.000          29.700
 118348425.899 8  92219635.54745  22520972.109                    22520977.660
        48.400          33.700
 120575696.028 7  93955048.05844  22944792.328                    22944797.688
        42.700          29.200
 115307269.439 8  89849870.63346  21942251.141                    21942253.953
        50.800          36.900
 115559646.644 7  90046531.64245  21990278.844                    21990281.719
        44.800          31.700
 110486351.962 8  86093267.01146  21024851.859                    21024855.090
        49.900          36.200
 118089722.663 7  92017994.16845  22471730.578                    22471734.301
        45.400          31.000
 18  3 15 10  9 31.0000000  0 16R09R07R15R16R23R24G30R17G21G07G08G27
                                G15G20G13G28
                  89580779.547 6  21568635.797                    21568635.125
                        41.800
                  83587172.647 6  20076155.109                    20076156.930
                        41.600
                  95743479.401 3  23036250.078                    23036255.063
                        22.800
                  81452903.818 6  19604769.891                    19604771.387
                        39.800
                  97189392.992 4  23359536.477                    23359541.715
                        29.800
                  87566790.796 5  21054124.789                    21054125.797
                        31.600
 113607861.278 8  88525600.22246  21618848.109                    21618854.059
        49.500          36.200
                  89746372.084 6  21563040.109                    21563043.398
                        41.000
 126922478.340 7  98900641.15244  24152545.008                    24152547.582
        43.500          26.500
 121158223.605 7  94409078.64144  23055660.359                    23055662.914
        46.400          28.700
 118347958.302 8  92219271.19545  22520882.867                    22520888.313
        48.400          33.200
 120577970.813 6  93956820.61344  22945224.922                    22945230.363
        41.800          28.400
 115305608.312 7  89848576.23145  21941934.953                    21941937.977
        47.800          31.900
 115561074.587 6  90047644.31344  21990550.203                    21990553.586
        41.500          26.900
 110486371.711 8  86093282.38645  21024855.203                    21024858.535
        50.000          35.600
 118087746.299 7  92016454.14344  22471353.992                    22471358.207
        43.900          29.800
 18  3 15 10  9 32.0000000  0 16R09R07R15R16R23R24G30R17G21G07G08G27
                                G15G20G13G28
                  89578062.026 6  21567981.039                    21567982.266
                        40.500
                  83588484.391 6  20076470.133                    20076472.332
                        40.900
                  95747071.159 4  23037114.008                    23037118.977
                        24.400
                  81453472.927 6  19604907.570                    19604908.254
                        37.900
                  97192896.069 4  23360379.531                    23360384.156
                        27.500
                  87568061.253 5  21054429.516                    21054430.988
                        31.000
 113609916.778 8  88527201.90845  21619239.586                    21619245.105
        48.800          35.200
                  89744435.974 6  21562575.102                    21562578.258
                        38.800
 126924623.773 7  98902312.89644  24152953.164                    24152955.828
        43.100          26.000
 121161519.938 7  94411647.21644  23056288.086                    23056290.473
        45.900          27.800
 118347491.468 8  92218907.43545  22520793.539                    22520799.477
        48.300          33.200
 120580246.338 7  93958593.75444  22945657.680                    22945663.246
        42.100          28.100
 115303947.829 7  89847282.34045  21941619.016                    21941622.336
        46.800          32.200
 115562503.254 6  90048757.54744  21990822.375                    21990825.273
        41.000          25.300
 110486392.257 8  86093298.38145  21024859.008                    21024862.477
        49.500          35.200
 118085770.468 7  92014914.55944  22470978.383                    22470981.852
        44.600          28.800
 18  3 15 10  9 33.0000000  0 16R09R07R15R16R23R24G30R17G21G07G08G27
                                G15G20G13G28
                  89575344.970 6  21567326.992                    21567329.523
                        40.400
                  83589796.909 6  20076785.633                    20076788.168
                        41.000
                  95750663.291 3  23037979.352                    23037983.293
                        21.900
                  81454042.803 6  19605044.211                    19605045.574
                        38.100
                  97196399.447 4  23361221.617                    23361225.676
                        28.000
                  87569332.516 4  21054734.313                    21054736.156
                        29.100
 113611972.979 8  88528804.13246  21619630.672                    21619636.242
        49.300          36.000
                  89742500.519 6  21562109.805                    21562113.004
                        39.000
 126926769.828 7  98903985.14444  24153361.234                    24153363.902
        43.000          24.700
 121164816.738 7  94414216.14644  23056915.492                    23056917.641
        46.500          28.200
 118347025.422 7  92218544.28945  22520705.016                    22520711.063
        47.900          33.700
 120582522.619 7  93960367.47444  22946091.148                    22946096.402
        42.300          28.500
 115302288.094 8  89845989.03346  21941303.273                    21941306.297
        49.400          36.300
 115563932.665 7  90049871.38245  21991093.953                    21991097.027
        43.900          31.400
 110486413.629 8  86093315.03746  21024863.484                    21024866.785
        49.600          36.100
 118083795.216 7  92013375.43645  22470603.328                    22470606.035
        44.800          30.300
 18  3 15 10  9 34.0000000  0 16R09R07R15R16R23R24G30R17G21G07G08G27
                                G15G20G13G28
                  89572628.397 6  21566672.156                    21566676.078
                        40.700
                  83591110.181 6  20077101.266                    20077103.203
                        40.900
                  95754255.605 3  23038843.977                    23038847.816
                        22.100
                  81454613.452 6  19605182.008                    19605182.930
                        38.800
                  97199903.233 4  23362062.313                    23362068.004
                        28.200
                  87570604.574 5  21055040.867                    21055042.055
                        31.400
 113614029.842 8  88530406.87546  21620022.344                    21620027.895
        49.800          36.600
                  89740565.766 6  21561645.297                    21561648.266
                        40.200
 126928916.416 7  98905657.81544  24153770.109                    24153772.738
        43.700          26.700
 121168114.021 7  94416785.46344  23057542.883                    23057545.113
        47.000          28.900
 118346560.166 8  92218181.75545  22520616.023                    22520622.457
        48.200          33.900
 120584799.529 7  93962141.67944  22946524.430                    22946529.969
        42.000          28.600
 115300629.047 8  89844696.27845  21940987.766                    21940991.203
        49.700          35.900
 115565362.844 7  90050985.80545  21991366.867                    21991369.246
        44.500          32.100
 110486435.755 8  86093332.28345  21024867.930                    21024870.844
        50.000          34.900
 118081820.592 7  92011836.79044  22470227.633                    22470230.629
        45.300          29.400
 18  3 15 10  9 35.0000000  0 16R09R07R15R16R23R24G30R17G21G07G08G27
                                G15G20G13G28
                  89569912.223 6  21566018.695                    21566020.926
                        41.600
                  83592424.158 6  20077417.227                    20077418.797
                        41.800
                  95757848.179 3  23039708.109                    23039712.422
                        22.500
                  81455184.751 6  19605319.883                    19605320.434
                        39.100
                  97203407.316 4  23362904.984                    23362910.324
                        28.400
                  87571877.394 5  21055346.836                    21055348.141
                        32.000
 113616087.315 8  88532010.10346  21620414.266                    21620419.039
        49.900          36.600
                  89738631.600 6  21561181.313                    21561183.219
                        40.300
 126931063.471 7  98907330.84744  24154178.680                    24154181.156
        44.100          26.100
 121171411.682 7  94419355.06244  23058170.336                    23058172.914
        46.900          29.400
 118346095.659 7  92217819.80045  22520527.852                    22520534.055
        47.900          34.500
 120587077.120 6  93963916.41844  22946957.578                    22946963.297
        41.100          28.700
 115298970.640 8  89843404.02445  21940671.594                    21940675.160
        50.200          35.800
 115566793.758 7  90052100.81045  21991638.555                    21991641.402
        44.600          31.500
 110486458.641 8  86093350.12545  21024872.336                    21024875.188
        49.500          35.700
 118079846.421 7  92010298.46545  22469852.023                    22469854.887
        44.800          31.000
 18  3 15 10  9 36.0000000  0 16R09R07R15R16R23R24G30R17G21G07G08G27
                                G15G20G13G28
                  89567196.409 6  21565365.305                    21565365.977
                        40.900
                  83593738.882 7  20077731.891                    20077734.430
                        42.000
                  95761440.959 3  23040571.609                    23040576.980
                        22.700
                  81455756.817 6  19605456.352                    19605458.230
                        39.400
                  97206911.715 4  23363746.992                    23363752.297
                        28.800
                  87573150.957 5  21055653.797                    21055654.711
                        32.900
 113618145.400 8  88533613.80746  21620805.750                    21620810.949
        49.800          37.100
                  89736698.008 6  21560717.297                    21560718.758
                        40.500
 126933210.993 7  98909004.24444  24154587.234                    24154589.684
        44.500          27.500
 121174709.717 7  94421924.96644  23058797.750                    23058800.289
        46.500          28.300
 118345631.903 7  92217458.43145  22520439.328                    22520445.785
        47.900          34.800
 120589355.353 6  93965691.66244  22947390.836                    22947397.031
        41.300          28.400
 115297312.858 8  89842112.25545  21940356.313                    21940359.859
        49.600          35.800
 115568225.369 7  90053216.35945  21991911.461                    21991913.938
        45.100          32.300
 110486482.257 8  86093368.53346  21024877.055                    21024879.863
        50.000          36.100
 118077872.747 7  92008760.53045  22469475.563                    22469479.289
        43.800          30.400
 18  3 15 10  9 37.0000000  0 16R09R07R15R16R23R24G30R17G21G07G08G27
                                G15G20G13G28
                  89564481.015 6  21564711.859                    21564711.102
                        41.200
                  83595054.260 6  20078049.133                    20078050.207
                        41.900
                  95765034.028 4  23041435.375                    23041441.266
                        24.300
                  81456329.574 6  19605594.328                    19605595.918
                        39.100
                  97210416.446 4  23364589.563                    23364594.086
                        28.700
                  87574425.267 5  21055960.336                    21055961.539
                        32.500
 113620204.112 8  88535217.99546  21621197.758                    21621202.719
        50.200          36.900
                  89734765.044 6  21560252.477                    21560253.789
                        40.400
 126935359.034 7  98910678.04944  24154995.578                    24154998.859
        43.700          25.600
 121178008.211 7  94424495.22944  23059425.367                    23059427.922
        47.100          29.000
 118345168.905 7  92217097.66545  22520351.109                    22520357.387
        47.500          34.000
 120591634.268 6  93967467.43944  22947824.703                    22947830.500
        41.600          28.300
 115295655.726 8  89840820.99046  21940041.109                    21940044.363
        49.900          36.500
 115569657.672 7  90054332.43945  21992183.820                    21992186.707
        45.100          32.100
 110486506.632 8  86093387.52346  21024881.008                    21024883.898
        49.900          36.300
 118075899.609 7  92007223.02044  22469099.984                    22469104.000
        43.800          29.800
 18  3 15 10  9 38.0000000  0 16R09R07R15R16R23R24G30R17G21G07G08G27
                                G15G20G13G28
                  89561765.939 6  21564057.992                    21564057.813
                        41.600
                  83596370.311 6  20078364.141                    20078366.148
                        41.600
                  95768627.262 4  23042300.648                    23042305.910
                        24.300
                  81456903.072 6  19605733.352                    19605734.207
                        39.400
                  97213921.472 4  23365432.219                    23365436.625
                        29.100
                  87575700.329 5  21056267.094                    21056267.652
                        31.800
 113622263.426 8  88536822.65446  21621589.352                    21621594.887
        50.300          36.800
                  89732832.711 6  21559788.625                    21559789.305
                        41.100
 126937507.544 7  98912352.21444  24155404.828                    24155407.535
        43.500          27.000
 121181307.069 7  94427065.76745  23060053.211                    23060055.734
        47.300          30.100
 118344706.620 7  92216737.45345  22520263.250                    22520269.738
        47.000          34.200
 120593913.819 6  93969243.71544  22948259.016                    22948264.484
        40.900          29.400
 115293999.241 8  89839530.21945  21939726.016                    21939729.098
        49.500          35.500
 115571090.740 7  90055449.11145  21992456.594                    21992459.191
        45.200          31.600
 110486531.745 8  86093407.08646  21024886.055                    21024889.109
        49.800          36.000
 118073926.981 7  92005685.92744  22468725.859                    22468727.668
        45.400          29.500
 18  3 15 10  9 39.0000000  0 16R09R07R15R16R23R24G30R17G21G07G08G27
                                G15G20G13G28
                  89559051.290 6  21563403.125                    21563404.008
                        41.400
                  83597687.098 7  20078680.438                    20078681.855
                        42.000
                  95772220.731 3  23043166.719                    23043170.113
                        23.800
                  81457477.298 6  19605870.820                    19605872.191
                        39.800
                  97217426.808 4  23366274.305                    23366279.883
                        28.700
                  87576976.164 5  21056575.047                    21056574.367
                        32.700
 113624323.390 8  88538427.82646  21621981.383                    21621986.633
        50.600          36.400
                  89730901.004 6  21559324.664                    21559325.352
                        41.200
 126939656.583 7  98914026.77844  24155813.875                    24155816.680
        43.500          26.400
 121184606.354 7  94429636.64244  23060681.063                    23060683.867
        46.900          29.100
 118344245.103 7  92216377.84045  22520175.375                    22520181.746
        47.100          34.000
 120596194.042 6  93971020.51844  22948692.781                    22948698.141
        41.100          29.400
 115292343.421 8  89838239.97145  21939411.078                    21939413.984
        49.500          35.400
 115572524.518 7  90056566.33845  21992729.438                    21992732.250
        45.100          32.100
 110486557.641 8  86093427.26846  21024890.625                    21024894.086
        49.300          36.400
 118071954.903 7  92004149.25345  22468351.398                    22468352.453
        46.800          30.400
 18  3 15 10  9 40.0000000  0 16R09R07R15R16R23R24G30R17G21G07G08G27
                                G15G20G13G28
                  89556337.019 6  21562748.297                    21562750.629
                        41.400
                  83599004.615 7  20078997.469                    20078999.090
                        42.100
                  95775814.378 4  23044030.023                    23044034.602
                        24.200
                  81458052.252 6  19606009.703                    19606010.316
                        40.200
                  97220932.465 4  23367116.875                    23367121.715
                        28.300
                  87578252.746 5  21056882.563                    21056882.074
                        32.700
 113626383.970 8  88540033.47646  21622373.625                    21622378.863
        50.200          36.600
                  89728969.895 6  21558859.938                    21558861.367
                        41.400
 126941806.069 7  98915701.69244  24156222.633                    24156225.168
        43.200          25.600
 121187906.039 7  94432207.82544  23061309.250                    23061311.676
        46.700          29.400
 118343784.285 7  92216018.77545  22520088.125                    22520094.027
        47.100          34.600
 120598474.892 6  93972797.80844  22949127.281                    22949132.438
        41.100          29.100
 115290688.261 8  89836950.23846  21939095.891                    21939099.219
        49.100          36.200
 115573958.989 7  90057684.10845  21993002.383                    21993005.320
        45.400          31.900
 110486584.252 8  86093448.00045  21024895.172                    21024899.320
        49.200          35.800
 118069983.354 7  92002612.96845  22467976.109                    22467977.406
        47.500          30.000
 18  3 15 10  9 41.0000000  0 16R09R07R15R16R23R24G30R17G21G07G08G27
                                G15G20G13G28
                  89553623.144 6  21562096.531                    21562097.066
                        41.700
                  83600322.871 6  20079313.758                    20079316.086
                        41.500
                  95779408.271 3  23044895.352                    23044899.695
                        23.600
                  81458627.909 6  19606148.242                    19606149.133
                        39.700
                  97224438.441 4  23367958.516                    23367963.980
                        29.300
                  87579530.080 5  21057190.070                    21057189.148
                        32.100
 113628445.146 8  88541639.59446  21622765.695                    21622770.852
        50.700          36.900
                  89727039.380 6  21558396.273                    21558397.395
                        40.500
 126943956.066 7  98917376.99944  24156631.813                    24156634.418
        42.800          26.400
 121191206.136 7  94434779.32444  23061936.922                    23061939.492
        46.700          29.800
 118343324.219 7  92215660.28945  22520000.180                    22520006.629
        46.400          33.800
 120600756.434 6  93974575.61644  22949560.773                    22949566.441
        41.100          29.600
 115289033.715 8  89835660.98746  21938780.984                    21938783.879
        49.700          36.000
 115575394.195 7  90058802.44345  21993274.547                    21993278.176
        44.300          31.200
 110486611.608 8  86093469.30745  21024900.969                    21024904.098
        49.700          35.900
 118068012.314 7  92001077.05944  22467600.680                    22467603.305
        47.000          29.500
 18  3 15 10  9 42.0000000  0 16R09R07R15R16R23R24G30R17G21G07G08G27
                                G15G20G13G28
                  89550909.694 6  21561444.047                    21561444.844
                        40.600
                  83601641.804 6  20079630.688                    20079632.453
                        41.100
                  95783002.343 3  23045761.031                    23045764.672
                        22.100
                  81459204.247 6  19606286.813                    19606288.000
                        39.400
                  97227944.733 4  23368802.023                    23368807.082
                        28.600
                  87580808.167 5  21057497.930                    21057496.398
                        32.300
 113630506.926 8  88543246.17446  21623158.008                    21623163.738
        50.300          37.100
                  89725109.529 6  21557932.703                    21557934.090
                        40.800
 126946106.528 7  98919052.67744  24157041.125                    24157043.680
        43.200          25.900
 121194506.597 7  94437351.10444  23062565.203                    23062567.496
        46.400          28.700
 118342864.876 7  92215302.36045  22519912.789                    22519919.004
        46.500          34.700
 120603038.589 6  93976353.91944  22949994.844                    22950000.402
        41.400          28.800
 115287379.814 8  89834372.25045  21938466.102                    21938469.637
        49.300          35.100
 115576830.096 7  90059921.31545  21993548.844                    21993551.484
        45.000          32.100
 110486639.680 8  86093491.17346  21024906.734                    21024909.336
        49.900          36.100
 118066041.736 7  91999541.50544  22467224.172                    22467227.574
        44.900          29.300
 18  3 15 10  9 43.0000000  0 16R09R07R15R16R23R24G30R17G21G07G08G27
                                G15G20G13G28
                  89548196.631 6  21560790.859                    21560790.984
                        40.700
                  83602961.443 6  20079947.117                    20079949.074
                        40.700
                  95786596.684 3  23046625.734                    23046629.469
                        22.300
                  81459781.312 6  19606424.508                    19606426.883
                        38.800
                  97231451.315 4  23369645.383                    23369649.535
                        29.200
                  87582086.977 5  21057803.953                    21057804.086
                        31.700
 113632569.333 8  88544853.24746  21623550.734                    21623555.895
        50.200          36.800
                  89723180.317 6  21557468.219                    21557470.301
                        40.200
 126948257.486 7  98920728.75344  24157450.281                    24157453.223
        43.000          25.200
 121197807.472 7  94439923.21244  23063193.273                    23063195.973
        46.200          28.300
 118342406.270 7  92214945.00645  22519825.781                    22519831.934
        46.100          33.700
 120605321.348 6  93978132.68744  22950429.398                    22950435.012
        41.100          27.900
 115285726.558 8  89833084.01245  21938150.898                    21938154.723
        49.500          35.300
 115578266.720 7  90061040.76145  21993821.688                    21993824.688
        44.600          30.300
 110486668.525 8  86093513.64845  21024912.352                    21024914.914
        50.100          35.800
 118064071.620 6  91998006.33444  22466847.922                    22466853.086
        41.400          29.400
 18  3 15 10  9 44.0000000  0 16R09R07R15R16R23R24G30R17G21G07G08G27
                                G15G20G13G28
                  89545483.970 6  21560138.195                    21560137.789
                        40.300
                  83604281.755 6  20080265.766                    20080265.961
                        40.200
                  95790191.221 3  23047490.094                    23047493.813
                        22.300
                  81460359.113 6  19606563.945                    19606565.930
                        38.000
                  97234958.256 4  23370487.828                    23370492.297
                        27.600
                  87583366.545 5  21058112.625                    21058111.422
                        30.300
 113634632.335 8  88546460.78046  21623943.031                    21623948.586
        49.500          36.300
                  89721251.704 6  21557005.547                    21557007.164
                        38.900
 126950408.973 7  98922405.23244  24157859.805                    24157862.355
        42.800          27.100
 121201108.737 7  94442495.62944  23063821.555                    23063824.078
        46.500          27.900
 118341948.415 7  92214588.22945  22519738.492                    22519744.617
        46.200          34.000
 120607604.851 6  93979912.02644  22950863.977                    22950869.480
        40.700          28.800
 115284073.962 8  89831796.27845  21937836.523                    21937839.926
        49.400          35.400
 115579704.065 7  90062160.77945  21994096.063                    21994098.680
        44.100          31.700
 110486698.108 8  86093536.69845  21024917.922                    21024920.613
        50.300          35.400
 118062101.995 7  91996471.59344  22466474.344                    22466477.477
        42.700          29.800
 18  3 15 10  9 45.0000000  0 16R09R07R15R16R23R24G30R17G21G07G08G27
                                G15G20G13G28
                  89542771.698 6  21559486.906                    21559485.371
                        41.500
                  83605602.737 6  20080582.188                    20080583.926
                        41.100
                  95793786.021 3  23048354.383                    23048359.480
                        22.800
                  81460937.579 6  19606703.656                    19606704.859
                        39.100
                  97238465.494 4  23371330.430                    23371336.051
                        29.600
                  87584646.949 5  21058419.891                    21058419.828
                        32.000
 113636695.986 8  88548068.82146  21624335.516                    21624340.941
        49.200          37.500
                  89719323.693 6  21556541.648                    21556544.133
                        40.500
 126952560.881 7  98924082.03244  24158269.758                    24158272.246
        42.800          26.400
 121204410.415 7  94445068.36544  23064450.055                    23064451.957
        47.000          28.000
 118341491.303 7  92214232.03545  22519651.984                    22519657.480
        45.700          34.300
 120609888.971 6  93981691.85444  22951298.102                    22951304.086
        41.100          27.900
 115282421.962 8  89830509.00945  21937522.266                    21937525.684
        49.500          35.200
 115581142.106 7  90063281.33645  21994369.281                    21994372.238
        43.900          31.400
 110486728.400 8  86093560.30045  21024923.414                    21024926.246
        49.900          35.400
 118060133.002 6  91994937.37844  22466100.219                    22466103.246
        41.800          24.400
 18  3 15 10  9 46.0000000  0 16R09R07R15R16R23R24G30R17G21G07G08G27
                                G15G20G13G28
                  89540059.812 6  21558834.875                    21558831.965
                        39.000
                  83606924.501 6  20080899.711                    20080901.109
                        41.500
                  95797381.037 3  23049220.047                    23049223.891
                        22.500
                  81461516.827 6  19606842.438                    19606844.121
                        39.100
                  97241972.956 4  23372174.109                    23372178.738
                        28.100
                  87585928.075 5  21058726.508                    21058727.758
                        30.900
 113638760.204 8  88549677.29646  21624727.961                    21624733.926
        48.800          36.200
                  89717396.301 6  21556079.922                    21556081.461
                        40.500
 126954713.313 6  98925759.24444  24158679.000                    24158681.559
        41.800          26.800
 121207712.487 7  94447641.41144  23065078.156                    23065080.992
        46.300          28.300
 118341034.881 7  92213876.39445  22519564.922                    22519571.078
        45.200          33.700
 120612173.701 6  93983472.15944  22951733.117                    22951739.156
        41.400          27.900
 115280770.624 8  89829222.26546  21937208.375                    21937211.715
        48.500          36.100
 115582580.847 7  90064402.42445  21994642.609                    21994645.465
        44.200          31.900
 110486759.475 8  86093584.52745  21024929.281                    21024932.160
        49.600          35.500
 118058164.455 7  91993403.46944  22465727.367                    22465728.328
        46.300          26.800
 18  3 15 10  9 47.0000000  0 16R09R07R15R16R23R24G30R17G21G07G08G27
                                G15G20G13G28
                  89537348.273 6  21558179.891                    21558179.363
                        41.400
                  83608246.929 7  20081217.258                    20081219.059
                        42.000
                  95800976.263 3  23050084.313                    23050089.027
                        22.500
                  81462096.775 6  19606982.828                    19606984.434
                        39.700
                  97245480.756 4  23373017.125                    23373021.621
                        28.300
                  87587209.991 5  21059033.438                    21059035.938
                        32.100
 113640825.063 8  88551286.28246  21625120.953                    21625127.074
        48.600          37.000
                  89715469.518 6  21555616.297                    21555618.867
                        41.100
 126956866.182 7  98927436.80144  24159089.117                    24159091.641
        42.500          25.500
 121211014.973 7  94450214.77344  23065706.383                    23065709.289
        46.400          28.200
 118340579.202 7  92213521.32745  22519478.016                    22519484.395
        44.900          33.600
 120614459.118 6  93985253.00044  22952167.992                    22952174.094
        41.700          28.200
 115279119.914 8  89827936.00345  21936894.266                    21936897.453
        48.600          35.800
 115584020.316 7  90065524.09745  21994917.234                    21994919.449
        44.900          31.800
 110486791.255 8  86093609.29846  21024935.359                    21024938.699
        49.600          36.000
 118056196.455 8  91991869.93745  22465353.359                    22465354.762
        48.300          30.400
 18  3 15 10  9 48.0000000  0 16R09R07R15R16R23R24G30R17G21G07G08G27
                                G15G20G13G28
                  89534637.149 6  21557525.086                    21557526.785
                        40.300
                  83609570.064 7  20081534.898                    20081536.738
                        42.100
                  95804571.713 3  23050949.289                    23050954.508
                        22.700
                  81462677.460 6  19607122.445                    19607123.863
                        39.900
                  97248988.863 4  23373859.828                    23373864.398
                        27.400
                  87588492.698 5  21059341.945                    21059344.309
                        31.400
 113642890.552 8  88552895.75346  21625514.828                    21625520.184
        48.500          36.100
                  89713543.363 6  21555153.648                    21555156.531
                        41.200
 126959019.583 7  98929114.77344  24159498.734                    24159501.543
        42.100          26.500
 121214317.833 7  94452788.43844  23066335.109                    23066337.879
        46.200          29.100
 118340124.294 7  92213166.85345  22519391.641                    22519397.582
        45.000          33.100
 120616745.179 6  93987034.33444  22952603.148                    22952609.117
        41.300          27.800
 115277469.831 8  89826650.23045  21936580.414                    21936583.488
        48.300          35.900
 115585460.492 7  90066646.29845  21995191.344                    21995193.770
        44.500          31.900
 110486823.805 8  86093634.65046  21024941.430                    21024944.344
        50.000          36.100
 118054229.011 7  91990336.82445  22464977.367                    22464980.066
        46.200          30.200
 18  3 15 10  9 49.0000000  0 16R09R07R15R16R23R24G30R17G21G07G08G27
                                G15G20G13G28
                  89531926.448 6  21556873.172                    21556873.652
                        38.100
                  83610893.906 7  20081853.078                    20081854.867
                        42.300
                  95808167.395 3  23051814.938                    23051819.848
                        21.400
                  81463258.847 6  19607262.727                    19607264.121
                        39.900
                  97252497.338 4  23374702.953                    23374708.141
                        27.900
                  87589776.155 5  21059649.578                    21059652.418
                        31.800
 113644956.647 8  88554505.69446  21625907.555                    21625912.910
        48.700          36.500
                  89711617.804 6  21554690.438                    21554694.000
                        41.400
 126961173.480 6  98930793.13744  24159908.523                    24159910.820
        41.500          26.300
 121217621.094 7  94455362.41344  23066963.344                    23066966.301
        45.800          28.600
 118339670.152 7  92212812.96945  22519305.531                    22519311.555
        45.000          33.300
 120619031.903 6  93988816.19344  22953038.445                    22953044.238
        41.800          28.700
 115275820.424 8  89825364.97145  21936266.313                    21936269.520
        48.500          35.300
 115586901.383 7  90067769.07945  21995464.711                    21995468.285
        43.700          31.500
 110486857.091 8  86093660.57645  21024947.953                    21024951.059
        49.900          35.900
 118052261.979 7  91988804.04344  22464601.398                    22464605.664
        43.700          29.100
 18  3 15 10  9 50.0000000  0 16R09R07R15R16R23R24G30R17G21G07G08G27
                                G15G20G13G28
                  89529216.126 6  21556220.039                    21556220.484
                        39.200
                  83612218.420 7  20082171.055                    20082173.172
                        42.100
                                  23052680.273

                  81463840.955 6  19607402.109                    19607403.777
                        40.000
                  97256006.118 4  23375547.086                    23375551.520
                        29.300
                  87591060.322 5  21059958.016                    21059960.922
                        31.700
 113647023.315 8  88556116.08246  21626301.281                    21626306.301
        49.100          36.800
                  89709692.855 6  21554228.211                    21554231.164
                        41.500
 126963327.829 6  98932471.84144  24160317.984                    24160321.285
        41.600          25.700
 121220924.760 7  94457936.69344  23067592.422                    23067594.906
        46.500          29.700
 118339216.661 7  92212459.58445  22519219.352                    22519224.863
        45.600          33.700
 120621319.270 7  93990598.55744  22953473.695                    22953479.898
        42.200          29.100
 115274171.636 8  89824080.18946  21935952.391                    21935955.918
        49.000          36.400
 115588342.957 7  90068892.40145  21995739.625                    21995742.145
        43.900          31.400
 110486891.093 8  86093687.06145  21024954.375                    21024957.484
        49.500          35.800
 118050295.415 7  91987271.65645  22464227.375                    22464231.281
        43.000          30.000
 18  3 15 10  9 51.0000000  0 16R09R07R15R16R23R24G30R17G21G07G08G27
                                G15G20G13G28
                  89526506.202 6  21555568.773                    21555568.777
                        39.300
                  83613543.633 7  20082489.547                    20082491.340
                        42.100
                                  23053546.094

                  81464423.758 6  19607542.234                    19607544.625
                        40.100
                  97259515.182 4  23376390.563                    23376394.660
                        29.500
                  87592345.196 5  21060266.828                    21060269.488
                        31.200
 113649090.609 8  88557726.95546  21626694.469                    21626699.672
        49.500          36.900
                  89707768.495 6  21553765.961                    21553768.453
                        41.800
 126965482.665 6  98934150.92544  24160728.641                    24160731.152
        41.600          26.600
 121224228.819 7  94460511.28244  23068220.938                    23068223.770
        46.500          29.500
 118338763.963 7  92212106.82245  22519133.758                    22519138.586
        45.800          33.900
 120623607.263 6  93992381.40344  22953909.242                    22953915.090
        41.700          29.100
 115272523.495 8  89822795.92146  21935638.523                    21935642.254
        48.900          36.700
 115589785.264 7  90070016.28745  21996013.281                    21996016.598
        43.400          31.600
 110486925.840 8  86093714.12746  21024960.469                    21024963.805
        49.700          36.000
 118048329.408 7  91985739.74344  22463855.336                    22463857.250
        44.900          29.900
 18  3 15 10  9 52.0000000  0 16R09R07R15R16R23R24G30R17G21G07G08G27
                                G15G20G13G28
                  89523796.670 6  21554916.828                    21554915.426
                        39.300
                  83614869.549 6  20082808.039                    20082810.070
                        41.700
                                  23054410.594

                  81465007.266 6  19607682.797                    19607684.547
                        40.100
                  97263024.589 4  23377234.359                    23377239.156
                        29.100
                  87593630.771 5  21060576.984                    21060578.563
                        31.800
 113651158.521 8  88559338.31946  21627087.922                    21627093.316
        49.500          37.300
                  89705844.753 6  21553304.398                    21553306.012
                        41.100
 126967637.995 6  98935830.40244  24161138.320                    24161141.141
        41.300          26.200
 121227533.286 7  94463086.18844  23068850.125                    23068852.539
        46.500          29.000
 118338311.967 7  92211754.61245  22519047.477                    22519052.535
        46.200          34.000
 120625895.950 6  93994164.80844  22954344.563                    22954349.902
        40.900          28.500
 115270875.958 8  89821512.12446  21935325.133                    21935328.734
        48.700          36.000
 115591228.287 7  90071140.72545  21996288.195                    21996291.152
        44.000          31.400
 110486961.324 8  86093741.77345  21024967.781                    21024970.516
        49.600          35.400
 118046363.959 7  91984208.25345  22463481.367                    22463482.965
        46.400          30.200
 18  3 15 10  9 53.0000000  0 16R09R07R15R16R23R24G30R17G21G07G08G27
                                G15G20G13G28
                  89521087.600 6  21554264.719                    21554262.945
                        38.700
                  83616196.223 7  20083125.461                    20083127.945
                        42.100
                                  23055275.672

                  81465591.509 6  19607823.805                    19607825.273
                        40.300
                  97266534.277 4  23378078.609                    23378082.574
                        29.900
                  87594917.119 5  21060886.906                    21060887.367
                        31.800
 113653227.060 8  88560950.17446  21627482.156                    21627486.746
        49.400          36.900
                  89703921.645 6  21552841.422                    21552843.785
                        41.100
 126969793.848 6  98937510.28644  24161548.984                    24161551.430
        41.600          25.100
 121230838.169 7  94465661.42144  23069479.055                    23069481.453
        46.400          28.900
 118337860.753 7  92211403.00945  22518961.375                    22518967.281
        46.500          33.100
 120628185.271 6  93995948.69844  22954780.500                    22954786.328
        41.400          29.900
 115269229.101 8  89820228.85645  21935012.438                    21935015.570
        49.100          35.900
 115592672.033 7  90072265.71445  21996563.797                    21996565.711
        45.000          32.100
 110486997.591 8  86093770.03146  21024974.781                    21024977.719
        49.500          36.500
 118044399.049 7  91982677.14744  22463107.922                    22463109.336
        46.800          29.700
 18  3 15 10  9 54.0000000  0 16R09R07R15R16R23R24G30R17G21G07G08G27
                                G15G20G13G28
                  89518378.903 6  21553610.594                    21553611.852
                        40.700
                  83617523.560 6  20083445.648                    20083447.605
                        40.900
                                  23056140.375

                  81466176.492 6  19607965.461                    19607966.320
                        39.800
                  97270044.310 5  23378921.672                    23378925.750
                        30.100
                  87596204.236 5  21061195.742                    21061196.836
                        32.200
 113655296.239 8  88562562.52146  21627875.141                    21627880.461
        48.800          36.700
                  89701999.185 6  21552379.578                    21552380.723
                        40.800
 126971950.186 6  98939190.54744  24161959.250                    24161961.684
        41.600          26.500
 121234143.457 7  94468236.97344  23070107.844                    23070110.016
        45.800          27.900
 118337410.300 7  92211052.00645  22518875.805                    22518881.000
        46.600          32.800
 120630475.266 6  93997733.10544  22955216.047                    22955222.191
        41.100          28.700
 115267582.951 8  89818946.15246  21934698.742                    21934702.246
        49.500          36.000
 115594116.546 7  90073391.32045  21996838.164                    21996840.820
        45.500          32.600
 110487034.588 8  86093798.84945  21024981.336                    21024984.441
        48.800          34.300
 118042434.661 7  91981146.43044  22462733.750                    22462735.387
        46.600          28.900
 18  3 15 10  9 55.0000000  0 16R09R07R15R16R23R24G30R17G21G07G08G27
                                G15G20G13G28
                  89515670.557 6  21552958.914                    21552959.469
                        40.200
                  83618851.672 6  20083763.766                    20083766.125
                        41.300
                  95829755.35513  23057005.984                    23057013.172
                        22.500
                  81466762.185 6  19608105.711                    19608107.168
                        39.700
                  97273554.677 5  23379766.008                    23379769.695
                        30.400
                  87597492.083 5  21061506.406                    21061506.223
                        32.200
 113657366.060 8  88564175.36946  21628268.977                    21628274.320
        48.800          36.400
                  89700077.380 6  21551916.906                    21551919.051
                        40.600
 126974106.984 6  98940871.16144  24162369.836                    24162372.316
        41.400          26.000
 121237449.152 7  94470812.84744  23070736.750                    23070739.461
        46.800          29.300
 118336960.563 7  92210701.56345  22518790.055                    22518795.398
        47.100          33.600
 120632765.938 6  93999518.04044  22955652.148                    22955657.762
        41.300          27.900
 115265937.386 8  89817663.89445  21934385.328                    21934389.316
        49.100          34.900
 115595561.745 7  90074517.44345  21997113.211                    21997115.824
        44.800          31.700
 110487072.360 8  86093828.26945  21024988.930                    21024991.738
        49.000          35.000
 118040470.779 7  91979616.10444  22462358.648                    22462362.000
        45.400          29.500
 18  3 15 10  9 56.0000000  0 16R09R07R15R16R23R24G30R17G21G07G08G27
                                G15G20G13G28
                  89512962.657 5  21552305.227                    21552307.133
                        35.800
                  83620180.454 6  20084083.945                    20084084.531
                        39.800
                  95833352.60713  23057872.609                    23057878.398
                        21.400
                  81467348.617 6  19608246.594                    19608248.504
                        40.400
                  97277065.350 5  23380609.828                    23380613.809
                        30.300
                  87598780.727 5  21061817.523                    21061816.270
                        33.000
 113659436.496 8  88565788.69846  21628662.430                    21628668.484
        48.800          36.600
                  89698156.170 6  21551455.672                    21551457.207
                        41.500
 126976264.301 6  98942552.16344  24162779.688                    24162782.793
        41.500          26.700
 121240755.291 7  94473389.06644  23071365.930                    23071368.367
        46.300          28.500
 118336511.583 7  92210351.70345  22518704.922                    22518710.449
        47.200          33.200
 120635057.241 6  94001303.45944  22956088.172                    22956093.574
        40.200          27.200
 115264292.495 8  89816382.16245  21934072.852                    21934075.965
        49.200          35.500
 115597007.622 7  90075644.10945  21997388.500                    21997391.094
        44.700          31.800
 110487110.877 7  86093858.27045  21024996.461                    21024999.445
        46.800          31.200
 118038507.349 7  91978086.12844  22461984.219                    22461987.988
        43.700          29.800
 18  3 15 10  9 57.0000000  0 16R09R07R15R16R23R24G30R17G21G07G08G27
                                G15G20G13G28
                  89510255.144 6  21551654.367                    21551655.516
                        40.600
                  83621509.908 7  20084402.148                    20084404.734
                        42.100
                                  23058737.828

                  81467935.761 6  19608388.094                    19608389.406
                        40.900
                  97280576.354 5  23381453.602                    23381457.723
                        30.300
                  87600070.146 5  21062128.336                    21062126.309
                        33.400
 113661507.561 8  88567402.51446  21629056.805                    21629062.461
        49.300          37.300
                  89696235.589 6  21550995.578                    21550995.910
                        41.800
 126978422.128 7  98944233.56944  24163190.586                    24163193.230
        42.400          27.200
 121244061.771 7  94475965.53544  23071994.844                    23071997.914
        45.800          28.600
 118336063.325 7  92210002.40445  22518619.086                    22518624.977
        47.900          32.800
 120637349.215 6  94003089.40444  22956524.195                    22956529.844
        41.000          28.900
 115262648.230 8  89815100.91246  21933760.086                    21933763.348
        49.100          36.300
 115598454.291 7  90076771.39445  21997662.750                    21997666.508
        44.200          32.000
 110487150.116 8  86093888.83745  21025003.898                    21025006.832
        48.800          35.100
 118036544.486 7  91976556.65345  22461610.484                    22461614.477
        43.100          31.100
 18  3 15 10  9 58.0000000  0 16R09R07R15R16R23R24G30R17G21G07G08G27
                                G15G20G13G28
                  89507547.929 6  21551001.367                    21551002.984
                        40.100
                  83622840.098 7  20084722.383                    20084724.191
                        42.200
                                  23059603.438

                  81468523.622 6  19608529.195                    19608531.418
                        40.400
                  97284087.660 5  23382297.555                    23382301.234
                        30.600
                  87601360.288 5  21062438.594                    21062437.105
                        32.900
 113663579.198 8  88569016.77646  21629451.273                    21629457.063
        49.400          37.300
                  89694315.646 7  21550533.453                    21550534.992
                        42.000
 126980580.398 7  98945915.33144  24163601.609                    24163604.074
        42.700          27.200
 121247368.685 7  94478542.34444  23072624.125                    23072626.684
        46.000          28.500
 118335615.822 8  92209653.68845  22518534.281                    22518539.949
        48.200          33.600
 120639641.825 6  94004875.86744  22956960.852                    22956966.078
        41.800          28.700
 115261004.630 8  89813820.16945  21933446.898                    21933450.555
        49.100          35.500
 115599901.591 7  90077899.15345  21997939.617                    21997941.848
        45.400          31.800
 110487190.116 8  86093919.99346  21025011.539                    21025014.215
        49.600          36.300
 118034582.116 7  91975027.58045  22461238.133                    22461241.137
        44.700          30.400
 18  3 15 10  9 59.0000000  0 16R09R07R15R16R23R24G30R17G21G07G08G27
                                G15G20G13G28
                  89504841.140 6  21550351.781                    21550352.012
                        40.000
                  83624170.968 7  20085041.922                    20085043.316
                        42.300
                                  23060468.695

                  81469112.197 6  19608671.719                    19608672.590
                        40.600
                  97287599.280 5  23383141.719                    23383145.836
                        31.200
                  87602651.233 5  21062749.641                    21062747.523
                        32.800
 113665651.469 8  88570631.52946  21629845.844                    21629851.750
        49.500          37.200
                  89692396.309 6  21550072.430                    21550074.035
                        41.800
 126982739.228 7  98947597.52944  24164011.656                    24164014.438
        43.000          27.700
 121250675.982 7  94481119.45144  23073253.688                    23073256.098
        45.900          28.300
 118335169.044 8  92209305.53445  22518449.672                    22518454.848
        48.700          34.200
 120641935.111 6  94006662.84544  22957396.898                    22957402.566
        41.600          27.800
 115259361.660 8  89812539.91846  21933134.117                    21933137.594
        49.200          36.700
 115601349.681 7  90079027.53945  21998213.789                    21998217.648
        44.600          32.100
 110487230.868 8  86093951.73846  21025019.188                    21025022.313
        49.400          36.600
 118032620.266 7  91973498.90444  22460866.320                    22460867.863
        47.000          29.800
 18  3 15 10 10  0.0000000  0 16R09R07R15R16R23R24G30R17G21G07G08G27
                                G15G20G13G28
                  89502134.746 6  21549700.773                    21549701.836
                        39.300
                  83625502.566 7  20085361.805                    20085363.453
                        42.200
                                  23061334.781

                  81469701.475 6  19608813.547                    19608814.301
                        40.200
                  97291111.182 5  23383984.414                    23383989.918
                        30.000
                  87603942.910 5  21063059.664                    21063058.000
                        33.300
 113667724.350 8  88572246.76046  21630240.367                    21630245.879
        49.100          37.100
                  89690477.551 6  21549611.508                    21549613.727
                        41.500
 126984898.470 7  98949280.04744  24164423.023                    24164425.621
        43.200          26.000
 121253983.633 7  94483696.82244  23073883.328                    23073885.621
        46.800          28.900
 118334723.011 8  92208957.97145  22518364.414                    22518369.414
        48.800          34.000
 120644229.014 7  94008450.30244  22957833.609                    22957838.734
        42.300          28.600
 115257719.277 8  89811260.13346  21932821.258                    21932824.941
        49.300          36.100
 115602798.389 7  90080156.38145  21998491.523                    21998493.102
        45.500          32.000
 110487272.320 8  86093984.02746  21025026.977                    21025029.992
        49.400          36.800
 118030658.931 7  91971970.59345  22460493.359                    22460494.602
        47.900          30.900
 18  3 15 10 10  1.0000000  0 16R09R07R15R16R23R24G30R17G21G07G08G27
                                G15G20G13G28
                  89499428.826 6  21549049.539                    21549049.465
                        39.600
                  83626834.865 7  20085681.625                    20085684.117
                        42.300
                                  23062200.398

                  81470291.480 6  19608955.313                    19608956.379
                        40.500
                  97294623.457 5  23384828.250                    23384833.746
                        30.300
                  87605235.354 5  21063370.273                    21063368.914
                        33.800
 113669797.821 8  88573862.45346  21630635.047                    21630640.000
        49.800          37.200
                  89688559.397 6  21549150.141                    21549152.691
                        41.600
 126987058.246 7  98950962.99344  24164834.375                    24164837.102
        43.500          26.900
 121257291.756 7  94486274.57644  23074512.953                    23074515.477
        46.500          28.100
 118334277.748 8  92208611.01145  22518279.781                    22518285.254
        48.700          34.100
 120646523.599 6  94010238.28044  22958269.805                    22958275.617
        41.300          27.300
 115256077.613 8  89809980.88846  21932509.234                    21932512.785
        49.500          36.300
 115604247.862 7  90081285.84645  21998765.969                    21998768.992
        46.300          32.100
 110487314.555 8  86094016.92746  21025035.234                    21025038.375
        49.300          36.400
 118028698.157 8  91970442.69045  22460119.656                    22460121.461
        48.200          30.600
 18  3 15 10 10  2.0000000  0 16R09R07R15R16R23R24G30R17G21G07G08G27
                                G15G20G13G28
                  89496723.313 7  21548397.656                    21548398.055
                        42.800
                  83628167.851 7  20086001.953                    20086003.473
                        42.600
                                  23063067.469

                  81470882.228 6  19609096.766                    19609098.633
                        40.000
                  97298136.011 5  23385673.813                    23385677.742
                        30.300
                  87606528.565 5  21063680.133                    21063680.094
                        33.300
 113671871.932 8  88575478.64546  21631029.547                    21631034.926
        49.800          37.000
                  89686641.870 6  21548689.375                    21548691.863
                        41.100
 126989218.517 7  98952646.32644  24165244.969                    24165248.078
        43.500          26.200
 121260600.227 7  94488852.60444  23075142.555                    23075145.121
        46.600          29.100
 118333833.218 8  92208264.63045  22518194.859                    22518200.168
        48.400          34.000
 120648818.813 6  94012026.75944  22958707.445                    22958712.328
        41.500          28.700
 115254436.529 8  89808702.10446  21932197.016                    21932200.457
        49.700          36.100
 115605698.076 7  90082415.88045  21999041.555                    21999045.102
        44.900          31.700
 110487357.513 8  86094050.39346  21025043.484                    21025046.238
        49.600          36.700
 118026737.847 7  91968915.13245  22459745.742                    22459748.273
        47.200          31.000
 18  3 15 10 10  3.0000000  0 16R09R07R15R16R23R24G30R17G21G07G08G27
                                G15G20G13G28
                  89494018.042 7  21547744.469                    21547747.691
                        42.200
                  83629501.483 6  20086322.484                    20086324.117
                        41.900
                                  23063933.070

                  81471473.646 6  19609239.797                    19609241.195
                        39.800
                  97301648.829 5  23386517.461                    23386522.199
                        30.300
                  87607822.515 5  21063991.336                    21063991.434
                        33.300
 113673946.610 8  88577095.27646  21631424.422                    21631429.695
        50.000          37.600
                  89684724.931 6  21548228.805                    21548230.648
                        41.300
 126991379.201 7  98954329.97744  24165656.531                    24165659.359
        43.700          26.400
 121263909.089 7  94491430.93944  23075772.055                    23075774.445
        46.000          28.400
 118333389.386 8  92207918.78245  22518110.453                    22518116.750
        48.600          34.400
 120651114.649 6  94013815.72844  22959143.414                    22959149.504
        40.400          28.300
 115252796.056 8  89807423.79846  21931884.766                    21931888.461
        49.600          36.300
 115607148.948 7  90083546.42945  21999317.859                    21999320.781
        45.500          32.000
 110487401.170 8  86094084.40245  21025051.711                    21025054.738
        49.800          35.900
 118024778.008 7  91967387.95845  22459371.445                    22459375.699
        45.100          30.600
 18  3 15 10 10  4.0000000  0 16R09R07R15R16R23R24G30R17G21G07G08G27
                                G15G20G13G28
                  89491313.220 6  21547092.938                    21547095.535
                        41.500
                  83630835.810 6  20086642.172                    20086644.125
                        41.900
                                  23064797.844

                  81472065.755 6  19609381.828                    19609383.242
                        39.700
                  97305161.920 4  23387362.484                    23387366.797
                        28.700
                  87609117.200 5  21064301.141                    21064303.488
                        33.700
 113676021.861 8  88578712.35546  21631819.117                    21631824.539
        49.800          36.900
                  89682808.602 6  21547767.828                    21547771.043
                        41.300
 126993540.354 7  98956013.98844  24166067.695                    24166070.645
        43.400          25.900
 121267218.304 7  94494009.54444  23076401.766                    23076404.168
        45.800          28.800
 118332946.238 8  92207573.46945  22518026.008                    22518031.859
        48.600          34.900
 120653411.132 6  94015605.21344  22959580.852                    22959586.367
        41.600          28.000
 115251156.216 8  89806145.98146  21931573.313                    21931576.156
        49.300          36.400
 115608600.502 7  90084677.52045  21999594.500                    21999596.578
        45.600          31.500
 110487445.536 8  86094118.97145  21025060.281                    21025063.242
        49.700          35.700
 118022818.598 7  91965861.15145  22458998.672                    22459002.395
        44.400          30.400
 18  3 15 10 10  5.0000000  0 16R09R07R15R16R23R24G30R17G21G07G08G27
                                G15G20G13G28
                  89488608.828 6  21546442.484                    21546443.883
                        41.600
                  83632170.880 6  20086963.680                    20086965.043
                        41.900
                                  23065665.055

                  81472658.579 6  19609525.750                    19609526.410
                        39.600
                  97308675.323 4  23388206.313                    23388211.125
                        29.700
                  87610412.639 5  21064613.445                    21064615.238
                        33.100
 113678097.754 8  88580329.93546  21632213.789                    21632219.734
        50.000          36.900
                  89680892.899 6  21547307.617                    21547309.938
                        40.900
 126995702.030 7  98957698.40644  24166478.992                    24166481.914
        42.700          27.400
 121270527.922 7  94496588.44944  23077031.805                    23077033.898
        46.200          29.100
 118332503.860 8  92207228.75445  22517941.828                    22517947.914
        48.300          34.400
 120655708.256 6  94017395.20144  22960017.773                    22960023.660
        41.400          27.100
 115249517.031 8  89804868.68746  21931261.313                    21931264.215
        48.800          36.200
 115610052.755 7  90085809.15345  21999871.352                    21999873.313
        45.400          31.800
 110487490.684 8  86094154.13645  21025068.156                    21025071.590
        50.000          35.200
 118020859.715 7  91964334.79745  22458626.719                    22458629.883
        45.800          30.900
 18  3 15 10 10  6.0000000  0 16R09R07R15R16R23R24G30R17G21G07G08G27
                                G15G20G13G28
                  89485904.818 6  21545792.797                    21545793.422
                        40.900
                  83633506.629 6  20087284.250                    20087287.035
                        41.700
                                  23066530.961

                  81473252.122 6  19609668.234                    19609669.203
                        39.700
                  97312189.082 4  23389050.859                    23389055.344
                        28.900
                  87611708.801 5  21064924.305                    21064925.809
                        33.400
 113680174.249 8  88581947.98046  21632609.250                    21632615.055
        49.200          37.100
                  89678977.823 6  21546847.734                    21546850.313
                        41.000
 126997864.146 7  98959383.17144  24166890.227                    24166893.293
        42.100          26.600
 121273837.941 7  94499167.67244  23077661.336                    23077664.031
        46.700          29.800
 118332062.199 8  92206884.59145  22517857.516                    22517863.773
        48.100          34.200
 120658006.012 6  94019185.67144  22960455.273                    22960460.582
        40.900          27.900
 115247878.503 8  89803591.90145  21930949.305                    21930952.930
        48.800          35.900
 115611505.734 7  90086941.34845  22000146.750                    22000149.766
        45.100          31.600
 110487536.569 8  86094189.88146  21025077.453                    21025080.340
        49.500          36.000
 118018901.422 7  91962808.89345  22458255.141                    22458257.188
        46.700          31.000
 18  3 15 10 10  7.0000000  0 16R09R07R15R16R23R24G30R17G21G07G08G27
                                G15G20G13G28
                  89483201.209 6  21545142.523                    21545142.031
                        40.800
                  83634843.086 6  20087605.648                    20087607.414
                        41.900
                                  23067398.305

                  81473846.393 6  19609810.609                    19609812.016
                        40.000
                  97315703.118 4  23389895.352                    23389899.961
                        28.700
                  87613005.737 5  21065235.867                    21065238.324
                        32.800
 113682251.370 8  88583566.51246  21633004.430                    21633010.215
        49.500          36.900
                  89677063.364 6  21546388.445                    21546390.398
                        41.100
 127000026.748 6  98961068.30844  24167301.734                    24167304.578
        41.800          26.200
 121277148.376 7  94501747.21944  23078291.258                    23078293.773
        47.100          27.900
 118331621.274 8  92206541.01145  22517773.891                    22517779.914
        48.400          34.200
 120660304.414 6  94020976.61444  22960892.570                    22960897.688
        40.900          28.100
 115246240.621 8  89802315.61845  21930637.406                    21930641.199
        49.300          35.900
 115612959.441 7  90088074.10845  22000424.047                    22000426.645
        45.000          31.800
 110487583.186 8  86094226.19345  21025086.156                    21025089.441
        49.300          35.200
 118016943.659 7  91961283.36245  22457882.227                    22457884.539
        47.200          31.400
 18  3 15 10 10  8.0000000  0 16R09R07R15R16R23R24G30R17G21G07G08G27
                                G15G20G13G28
                  89480497.968 6  21544491.969                    21544491.242
                        40.900
                  83636180.250 7  20087926.531                    20087928.375
                        42.100
                                  23068262.750

                  81474441.391 6  19609954.469                    19609955.375
                        39.900
                  97319217.493 4  23390740.773                    23390744.070
                        28.300
                  87614303.427 5  21065547.531                    21065550.426
                        33.500
 113684329.096 8  88585185.51246  21633399.836                    21633405.160
        49.300          36.900
                  89675149.554 6  21545928.195                    21545930.410
                        41.200
 127002189.896 6  98962753.86544  24167713.281                    24167716.199
        41.800          27.400
 121280459.183 7  94504327.06144  23078921.320                    23078923.910
        46.400          28.900
 118331181.108 8  92206198.02545  22517689.547                    22517695.996
        48.800          34.600
 120662603.480 6  94022768.08044  22961329.961                    22961335.219
        41.600          28.800
 115244603.392 8  89801039.84646  21930325.805                    21930329.402
        49.100          36.000
 115614413.864 7  90089207.42745  22000700.313                    22000703.676
        44.700          31.600
 110487630.582 8  86094263.10845  21025095.516                    21025098.418
        49.300          35.500
 118014986.402 7  91959758.19545  22457509.953                    22457512.570
        46.600          31.000
 18  3 15 10 10  9.0000000  0 16R09R07R15R16R23R24G30R17G21G07G08G27
                                G15G20G13G28
                  89477795.104 6  21543840.625                    21543840.605
                        41.100
                  83637518.086 7  20088247.570                    20088250.051
                        42.000
                                  23069127.109

                  81475037.088 6  19610097.414                    19610098.789
                        39.400
                  97322732.168 4  23391585.109                    23391589.121
                        28.000
                  87615601.854 5  21065860.883                    21065861.746
                        32.900
 113686407.431 8  88586804.98246  21633795.586                    21633801.004
        49.100          37.200
                  89673236.342 6  21545468.078                    21545470.777
                        41.200
 127004353.478 6  98964439.76644  24168125.383                    24168128.164
        41.400          26.700
 121283770.408 7  94506907.22544  23079551.711                    23079553.824
        46.400          28.700
 118330741.682 8  92205855.62545  22517606.023                    22517612.266
        48.600          33.300
 120664903.208 6  94024560.07144  22961767.367                    22961772.988
        41.300          28.600
 115242966.813 8  89799764.59345  21930014.273                    21930017.887
        48.900          35.500
 115615868.952 7  90090341.25345  22000977.305                    22000980.336
        44.700          32.100
 110487678.688 8  86094300.58246  21025104.445                    21025107.309
        49.400          36.000
 118013029.601 7  91958233.38045  22457136.023                    22457140.121
        44.700          30.900
 18  3 15 10 10 10.0000000  0 16R09R07R15R16R23R24G30R17G21G07G08G27
                                G15G20G13G28
                  89475092.636 6  21543189.359                    21543189.664
                        40.200
                  83638856.681 7  20088569.469                    20088571.250
                        42.300
                                  23069993.547

                  81475633.496 6  19610241.445                    19610242.414
                        39.900
                  97326247.146 4  23392429.961                    23392433.621
                        28.500
                  87616901.047 5  21066173.148                    21066174.395
                        32.900
 113688486.354 8  88588424.91346  21634191.406                    21634196.594
        48.800          37.000
                  89671323.714 6  21545009.805                    21545011.727
                        41.100
 127006517.519 6  98966126.02044  24168537.219                    24168539.746
        41.600          26.900
 121287081.975 7  94509487.65144  23080181.938                    23080184.184
        46.700          28.500
 118330303.015 8  92205513.81845  22517522.578                    22517529.102
        48.000          33.300
 120667203.560 6  94026352.54744  22962205.109                    22962210.477
        41.400          27.500
 115241330.847 8  89798489.81745  21929703.352                    21929706.355
        49.300          35.300
 115617324.769 7  90091475.65345  22001255.531                    22001257.211
        45.000          32.700
 110487727.547 8  86094338.63946  21025113.727                    21025116.520
        49.700          36.700
 118011073.278 7  91956708.95345  22456763.109                    22456767.449
        42.700          30.000
 18  3 15 10 10 11.0000000  0 16R09R07R15R16R23R24G30R17G21G07G08G27
                                G15G20G13G28
                  89472390.451 6  21542537.375                    21542538.867
                        39.600
                  83640195.991 6  20088891.078                    20088893.316
                        41.600
                                  23070860.992

                  81476230.641 6  19610384.539                    19610386.258
                        39.600
                  97329762.454 4  23393273.984                    23393278.645
                        29.900
                  87618201.001 5  21066485.719                    21066486.930
                        32.700
 113690565.920 8  88590045.35446  21634587.094                    21634592.344
        48.800          36.700
                  89669411.753 6  21544549.922                    21544551.379
                        41.000
 127008682.089 6  98967812.68444  24168948.805                    24168951.473
        41.400          25.600
 121290393.987 7  94512068.42244  23080811.813                    23080814.395
        46.700          29.100
 118329865.070 8  92205172.57145  22517439.047                    22517445.871
        48.000          33.700
 120669504.533 6  94028145.51844  22962643.203                    22962648.484
        40.400          28.200
 115239695.553 8  89797215.56445  21929392.195                    21929395.582
        49.700          35.200
 115618781.314 7  90092610.63345  22001531.742                    22001534.820
        44.500          32.100
 110487777.150 8  86094377.28245  21025123.242                    21025126.203
        49.300          35.800
 118009117.481 7  91955184.98545  22456392.039                    22456395.152
        44.200          30.100
 18  3 15 10 10 12.0000000  0 16R09R07R15R16R23R24G30R17G21G07G08G27
                                G15G20G13G28
                  89469688.823 6  21541886.906                    21541887.617
                        39.900
                  83641535.979 6  20089212.711                    20089215.016
                        41.800
                                  23071727.367

                  81476828.478 6  19610528.664                    19610529.531
                        39.600
                  97333278.060 5  23394119.289                    23394123.582
                        30.800
                  87619501.687 5  21066798.313                    21066798.980
                        33.500
 113692646.089 8  88591666.26946  21634982.820                    21634988.258
        48.500          36.500
                  89667500.341 6  21544090.906                    21544091.141
                        40.800
 127010847.138 6  98969499.73044  24169360.680                    24169363.570
        41.600          26.100
 121293706.347 7  94514649.46344  23081441.836                    23081444.719
        46.800          28.000
 118329427.864 7  92204831.89645  22517356.180                    22517362.426
        47.900          33.600
 120671806.174 6  94029938.99944  22963080.898                    22963086.336
        40.800          27.300
 115238060.877 8  89795941.79745  21929081.203                    21929084.199
        49.600          35.700
 115620238.582 7  90093746.16345  22001809.258                    22001811.344
        44.800          32.400
 110487827.462 8  86094416.48546  21025133.203                    21025135.602
        49.200          36.200
 118007162.244 7  91953661.46745  22456021.203                    22456023.000
        46.300          30.400
 18  3 15 10 10 13.0000000  0 16R09R07R15R16R23R24G30R17G21G07G08G27
                                G15G20G13G28
                  89466987.578 6  21541237.953                    21541237.465
                        39.800
                  83642876.705 6  20089534.492                    20089536.613
                        41.900
                                  23072594.531

                  81477427.044 6  19610671.945                    19610674.051
                        40.000
                  97336793.981 5  23394964.352                    23394968.824
                        30.300
                  87620803.182 5  21067112.898                    21067112.238
                        33.100
 113694726.884 8  88593287.67646  21635378.391                    21635384.227
        48.400          36.200
                  89665589.565 6  21543631.867                    21543632.484
                        40.500
 127013012.692 6  98971187.18544  24169773.180                    24169775.633
        41.700          26.900
 121297019.131 7  94517230.83144  23082072.547                    23082075.352
        46.500          27.600
 118328991.396 8  92204491.80245  22517272.813                    22517278.949
        48.000          33.300
 120674108.500 6  94031733.00644  22963519.570                    22963524.559
        40.800          28.800
 115236426.876 8  89794668.55446  21928770.242                    21928773.359
        49.600          36.000
 115621696.528 7  90094882.22545  22002086.539                    22002089.301
        44.500          31.800
 110487878.569 8  86094456.30645  21025142.352                    21025145.410
        49.200          35.800
 118005207.528 7  91952138.34145  22455649.906                    22455651.184
        47.700          30.400
 18  3 15 10 10 14.0000000  0 16R09R07R15R16R23R24G30R17G21G07G08G27
                                G15G20G13G28
                  89464286.756 6  21540587.852                    21540586.117
                        40.800
                  83644218.139 6  20089856.383                    20089859.102
                        41.700
                                  23073460.516

                  81478026.343 6  19610816.242                    19610818.539
                        40.400
                  97340310.230 5  23395809.648                    23395813.777
                        30.100
                  87622105.438 5  21067426.500                    21067425.023
                        32.700
 113696808.303 8  88594909.56046  21635774.414                    21635780.242
        48.600          36.700
                  89663679.420 6  21543172.492                    21543174.105
                        41.300
 127015178.727 6  98972875.00044  24170185.500                    24170187.867
        41.500          26.600
 121300332.369 7  94519812.55744  23082703.000                    23082705.449
        46.300          28.900
 118328555.701 7  92204152.29745  22517189.789                    22517196.184
        47.900          33.800
 120676411.470 6  94033527.51944  22963957.422                    22963962.801
        40.900          28.900
 115234793.534 8  89793395.81946  21928458.938                    21928462.609
        49.500          36.100
 115623155.244 7  90096018.89645  22002363.578                    22002366.609
        44.600          32.300
 110487930.431 8  86094496.71645  21025152.117                    21025155.180
        49.200          35.600
 118003253.349 7  91950615.59545  22455277.773                    22455279.371
        47.300          30.900
 18  3 15 10 10 15.0000000  0 16R09R07R15R16R23R24G30R17G21G07G08G27
                                G15G20G13G28
                  89461586.321 6  21539937.133                    21539937.254
                        41.300
                  83645560.303 7  20090179.469                    20090181.570
                        42.000
                                  23074326.664

                  81478626.355 6  19610961.586                    19610962.277
                        40.200
                  97343826.771 4  23396654.734                    23396659.855
                        28.800
                  87623408.425 5  21067739.898                    21067738.762
                        33.300
 113698890.364 8  88596531.95846  21636170.516                    21636176.469
        48.600          36.800
                  89661769.925 6  21542713.961                    21542715.180
                        41.100
 127017345.263 6  98974563.21044  24170597.320                    24170599.980
        41.900          27.100
 121303646.004 7  94522394.60144  23083333.547                    23083336.180
        46.600          28.900
 118328120.753 7  92203813.37745  22517106.992                    22517113.379
        46.600          33.800
 120678715.113 6  94035322.56344  22964396.055                    22964401.289
        40.200          28.800
 115233160.861 8  89792123.59146  21928148.102                    21928151.539
        49.500          36.200
 115624614.665 7  90097156.10945  22002642.023                    22002644.832
        45.600          32.100
 110487983.044 8  86094537.71446  21025162.172                    21025165.648
        49.500          36.200
 118001299.726 8  91949093.25945  22454905.898                    22454907.691
        48.100          30.800
 18  3 15 10 10 16.0000000  0 16R09R07R15R16R23R24G30R17G21G07G08G27
                                G15G20G13G28
                  89458886.255 6  21539287.289                    21539287.191
                        41.500
                  83646903.175 7  20090501.945                    20090504.113
                        42.000
                                  23075194.555

                  81479227.090 6  19611105.289                    19611107.238
                        40.000
                  97347343.613 5  23397500.438                    23397504.129
                        30.200
                  87624712.126 5  21068053.922                    21068051.895
                        33.300
 113700973.036 8  88598154.81146  21636566.883                    21636572.738
        48.100          36.500
                  89659861.054 6  21542255.344                    21542257.332
                        41.100
 127019512.295 6  98976251.80144  24171009.922                    24171012.730
        41.900          26.900
 121306960.031 7  94524976.95844  23083964.414                    23083966.914
        47.200          29.300
 118327686.549 7  92203475.02745  22517024.133                    22517031.004
        46.800          33.900
 120681019.374 6  94037118.07844  22964834.203                    22964839.719
        40.600          28.000
 115231528.815 8  89790851.85646  21927837.766                    21927841.438
        49.600          36.400
 115626074.834 7  90098293.91645  22002918.859                    22002922.238
        45.400          32.600
 110488036.417 8  86094579.30146  21025171.992                    21025175.570
        49.800          36.900
 117999346.590 7  91947571.28845  22454533.047                    22454535.895
        47.000          31.200
 18  3 15 10 10 17.0000000  0 16R09R07R15R16R23R24G30R17G21G07G08G27
                                G15G20G13G28
                  89456186.565 6  21538636.578                    21538639.035
                        41.600
                  83648246.725 7  20090824.523                    20090826.895
                        42.300
                                  23076060.070

                  81479828.525 6  19611250.008                    19611252.063
                        39.800
                  97350860.757 4  23398346.289                    23398349.285
                        29.900
                  87626016.587 5  21068368.180                    21068366.066
                        33.500
 113703056.290 8  88599778.12646  21636963.367                    21636969.191
        48.900          36.800
                  89657952.771 6  21541796.633                    21541798.801
                        41.500
 127021679.790 7  98977940.75944  24171422.422                    24171425.234
        42.600          26.300
 121310274.426 7  94527559.59844  23084595.000                    23084597.559
        46.700          29.000
 118327253.053 7  92203137.24245  22516942.023                    22516948.199
        47.000          34.200
 120683324.290 6  94038914.11344  22965273.406                    22965278.543
        41.300          28.100
 115229897.415 8  89789580.63446  21927527.344                    21927531.129
        49.300          36.500
 115627535.672 7  90099432.23345  22003197.398                    22003200.770
        45.200          31.900
 110488090.506 8  86094621.43945  21025182.266                    21025185.523
        49.800          35.400
 117997393.875 7  91946049.66545  22454159.617                    22454164.367
        42.700          30.900
 18  3 15 10 10 18.0000000  0 16R09R07R15R16R23R24G30R17G21G07G08G27
                                G15G20G13G28
                  89453487.277 6  21537986.867                    21537988.633
                        41.500
                  83649591.004 7  20091147.289                    20091149.793
                        42.200
                                  23076925.453

                  81480430.691 6  19611394.758                    19611396.629
                        39.800
                  97354378.198 5  23399191.688                    23399194.813
                        31.400
                  87627321.786 5  21068680.703                    21068680.078
                        33.200
 113705140.190 8  88601401.93346  21637360.227                    21637365.828
        49.000          36.500
                  89656045.108 6  21541338.555                    21541340.434
                        41.200
 127023847.771 7  98979630.09444  24171835.320                    24171837.871
        42.500          27.000
 121313589.225 7  94530142.54644  23085226.016                    23085228.598
        46.700          29.200
 118326820.282 7  92202800.02445  22516859.383                    22516865.504
        46.900          33.600
 120685629.857 6  94040710.65244  22965711.586                    22965717.594
        40.600          28.300
 115228266.636 8  89788309.90545  21927217.602                    21927220.938
        49.500          35.200
 115628997.210 7  90100571.08045  22003476.484                    22003478.434
        45.800          31.700
 110488145.340 8  86094664.16745  21025193.336                    21025195.988
        49.800          35.900
 117995441.655 7  91944528.48345  22453789.188                    22453792.617
        43.700          31.200
 18  3 15 10 10 19.0000000  0 16R09R07R15R16R23R24G30R17G21G07G08G27
                                G15G20G13G28
                  89450788.467 6  21537336.969                    21537339.438
                        41.300
                  83650935.962 7  20091470.313                    20091472.695
                        42.200
                                  23077792.930

                  81481033.580 6  19611540.500                    19611542.238
                        39.600
                  97357895.979 5  23400035.820                    23400040.539
                        30.600
                  87628627.769 5  21068993.492                    21068993.969
                        33.100
 113707224.696 8  88603026.22446  21637757.031                    21637762.469
        49.200          36.700
                  89654138.106 6  21540880.359                    21540883.250
                        40.500
 127026016.212 7  98981319.77544  24172247.297                    24172250.758
        42.700          27.000
 121316904.445 7  94532725.81744  23085856.539                    23085858.934
        46.900          28.200
 118326388.298 7  92202463.42645  22516776.938                    22516783.441
        46.300          33.600
 120687936.058 6  94042507.68144  22966150.281                    22966156.398
        40.800          27.800
 115226636.526 8  89787039.69646  21926907.242                    21926910.547
        49.500          36.400
 115630459.485 7  90101710.51745  22003752.945                    22003756.617
        44.700          32.100
 110488200.947 8  86094707.49746  21025204.094                    21025206.813
        50.000          36.000
 117993490.031 7  91943007.79444  22453419.859                    22453421.555
        46.700          29.900
 18  3 15 10 10 20.0000000  0 16R09R07R15R16R23R24G30R17G21G07G08G27
                                G15G20G13G28
                  89448090.029 6  21536687.422                    21536689.195
                        41.000
                  83652281.627 7  20091793.234                    20091795.871
                        42.200
                                  23078659.289

                  81481637.185 6  19611685.914                    19611687.391
                        39.800
                  97361414.069 4  23400882.570                    23400886.324
                        29.500
                  87629934.523 5  21069306.250                    21069308.516
                        33.500
 113709309.812 8  88604650.99646  21638153.719                    21638159.266
        49.100          36.900
                  89652231.727 6  21540422.984                    21540424.816
                        40.900
 127028185.164 7  98983009.86044  24172660.383                    24172663.016
        42.600          27.800
 121320220.075 7  94535309.41344  23086487.594                    23086490.031
        46.900          28.900
 118325957.037 7  92202127.39245  22516695.750                    22516701.789
        46.800          34.500
 120690242.972 6  94044305.25844  22966588.938                    22966595.031
        40.500          28.400
 115225007.079 8  89785770.00946  21926597.391                    21926600.133
        49.900          36.500
 115631922.477 7  90102850.51045  22004032.445                    22004035.035
        45.200          32.100
 110488257.278 8  86094751.38646  21025214.844                    21025217.688
        50.100          36.200
 117991538.944 7  91941487.49445  22453049.164                    22453050.414
        47.900          30.500
 18  3 15 10 10 21.0000000  0 16R09R07R15R16R23R24G30R17G21G07G08G27
                                G15G20G13G28
                  89445392.039 6  21536039.023                    21536039.480
                        40.100
                  83653628.046 7  20092117.789                    20092119.648
                        42.200
                                  23079526.258

                  81482241.578 6  19611830.680                    19611832.832
                        39.600
                  97364932.506 4  23401728.422                    23401732.066
                        29.400
                  87631242.063 5  21069620.156                    21069623.059
                        33.500
 113711395.604 8  88606276.29346  21638550.539                    21638556.113
        49.400          36.900
                  89650325.993 6  21539964.242                    21539966.480
                        40.900
 127030354.681 7  98984700.38744  24173073.398                    24173075.805
        42.900          26.500
 121323536.152 7  94537893.35944  23087118.875                    23087121.199
        46.300          29.100
 118325526.577 7  92201791.96645  22516613.844                    22516619.828
        46.200          34.300
 120692550.630 6  94046103.43444  22967028.813                    22967034.258
        40.500          28.700
 115223378.341 8  89784500.86646  21926286.977                    21926290.434
        49.900          36.300
 115633386.249 7  90103991.11445  22004310.977                    22004313.730
        44.700          31.700
 110488314.423 8  86094795.91646  21025225.453                    21025228.336
        50.100          36.100
 117989588.452 8  91939967.62445  22452677.609                    22452679.133
        48.100          30.400
 18  3 15 10 10 22.0000000  0 16R09R07R15R16R23R24G30R17G21G07G08G27
                                G15G20G13G28
                  89442694.391 6  21535388.000                    21535389.086
                        38.800
                  83654975.173 7  20092440.102                    20092442.926
                        42.400
                                  23080394.398

                  81482846.672 6  19611976.813                    19611978.523
                        39.700
                  97368451.285 4  23402572.758                    23402577.879
                        29.200
                  87632550.377 5  21069933.781                    21069936.762
                        33.100
 113713482.025 8  88607902.08146  21638947.984                    21638953.285
        49.600          36.700
                  89648420.922 6  21539507.523                    21539508.008
                        40.900
 127032524.711 7  98986391.31344  24173486.148                    24173488.840
        43.200          26.200
 121326852.647 7  94540477.63444  23087749.844                    23087752.059
        46.200          29.000
 118325096.878 7  92201457.12745  22516531.859                    22516538.133
        45.800          34.000
 120694858.855 6  94047902.06944  22967467.625                    22967473.637
        40.900          28.700
 115221750.250 8  89783232.22345  21925976.891                    21925980.754
        49.800          35.600
 115634850.732 7  90105132.27245  22004589.797                    22004592.195
        45.400          32.400
 110488372.311 8  86094841.02045  21025236.297                    21025239.645
        50.000          35.800
 117987638.458 7  91938448.11745  22452305.930                    22452308.012
        47.200          30.900
 18  3 15 10 10 23.0000000  0 16R09R07R15R16R23R24G30R17G21G07G08G27
                                G15G20G13G28
                  89439997.146 6  21534738.641                    21534738.801
                        39.000
                  83656323.020 7  20092764.445                    20092766.750
                        42.100
                                  23081261.633

                  81483452.510 6  19612122.492                    19612124.582
                        39.800
                  97371970.385 4  23403418.398                    23403424.000
                        29.100
                  87633859.450 5  21070248.648                    21070252.344
                        33.300
 113715569.070 8  88609528.36046  21639344.805                    21639350.617
        49.600          37.100
                  89646516.438 6  21539048.781                    21539049.965
                        41.200
 127034695.196 7  98988082.60044  24173899.281                    24173902.043
        43.200          26.800
 121330169.559 7  94543062.23544  23088380.805                    23088383.445
        46.500          28.100
 118324667.939 7  92201122.88145  22516450.586                    22516456.406
        45.600          34.200
 120697167.780 6  94049701.25144  22967907.219                    22967912.691
        40.700          29.300
 115220122.771 8  89781964.04945  21925667.219                    21925670.910
        49.300          35.700
 115636315.957 7  90106274.01945  22004868.344                    22004871.039
        45.500          32.100
 110488430.959 8  86094886.72046  21025247.805                    21025250.848
        50.000          36.700
 117985688.979 7  91936929.01745  22451934.023                    22451937.621
        45.800          30.200
 18  3 15 10 10 24.0000000  0 16R09R07R15R16R23R24G30R17G21G07G08G27
                                G15G20G13G28
                  89437300.295 6  21534088.672                    21534088.672
                        39.400
                  83657671.555 7  20093087.969                    20093090.676
                        42.000
                                  23082128.977

                  81484059.088 6  19612268.852                    19612270.133
                        39.800
                  97375489.774 4  23404264.609                    23404269.719
                        27.300
                  87635169.247 5  21070564.594                    21070566.621
                        32.900
 113717656.741 8  88611155.12546  21639742.203                    21639747.879
        49.600          36.700
                  89644612.592 6  21538591.547                    21538591.918
                        41.000
 127036866.182 7  98989774.27444  24174313.102                    24174315.020
        43.600          27.400
 121333486.865 7  94545647.13944  23089012.180                    23089014.770
        46.400          28.300
 118324239.718 7  92200789.19545  22516369.273                    22516374.914
        45.900          33.700
 120699477.355 6  94051500.92444  22968346.750                    22968352.348
        40.700          28.700
 115218495.977 8  89780696.41045  21925357.984                    21925361.359
        49.900          35.900
 115637781.862 7  90107416.29445  22005147.922                    22005150.008
        45.500          31.700
 110488490.360 8  86094933.00846  21025258.680                    21025262.145
        49.800          36.100
 117983739.998 7  91935410.32144  22451562.531                    22451566.328
        44.700          29.400
 18  3 15 10 10 25.0000000  0 16R09R07R15R16R23R24G30R17G21G07G08G27
                                G15G20G13G28
                  89434603.862 6  21533440.602                    21533439.418
                        40.600
                  83659020.774 7  20093412.352                    20093414.398
                        42.200
                                  23082995.977

                  81484666.352 6  19612414.563                    19612415.930
                        39.800
                  97379009.488 4  23405110.117                    23405115.219
                        29.900
                  87636479.840 5  21070879.523                    21070882.285
                        32.800
 113719745.000 8  88612782.34346  21640138.914                    21640144.883
        49.900          36.100
                  89642709.339 6  21538133.867                    21538134.992
                        40.800
 127039037.647 7  98991466.32544  24174725.484                    24174728.020
        43.400          26.000
 121336804.537 7  94548232.32444  23089643.703                    23089645.969
        46.300          28.500
 118323812.234 7  92200456.08145  22516287.938                    22516293.809
        45.900          34.100
 120701787.497 6  94053301.02944  22968786.070                    22968792.051
        41.000          29.300
 115216869.793 8  89779429.24846  21925048.758                    21925051.871
        49.600          36.300
 115639248.493 7  90108559.13045  22005425.688                    22005429.414
        45.200          31.600
 110488550.483 8  86094979.85445  21025270.164                    21025273.090
        50.000          35.800
 117981791.494 7  91933892.02344  22451192.117                    22451195.367
        45.200          28.900
 18  3 15 10 10 26.0000000  0 15R09R07R16R23R24G30R17G21G07G08G27G15
                                G20G13G28
                  89431907.831 6  21532791.211                    21532791.762
                        41.500
                  83660370.657 7  20093736.414                    20093738.609
                        42.200
                  81485274.283 6  19612561.539                    19612562.305
                        39.700
                  97382529.438 5  23405957.078                    23405961.742
                        30.900
                  87637791.111 5  21071196.141                    21071197.063
                        33.100
 113721833.827 8  88614410.00346  21640536.453                    21640542.395
        50.200          36.400
                  89640806.652 6  21537677.430                    21537677.797
                        41.000
 127041209.575 7  98993158.72744  24175138.836                    24175141.348
        43.600          25.500
 121340122.577 7  94550817.80644  23090275.000                    23090277.781
        46.300          28.600
 118323385.469 7  92200123.52145  22516206.766                    22516212.094
        45.200          33.100
 120704098.327 6  94055101.65444  22969226.258                    22969231.910
        40.800          28.900
 115215244.215 8  89778162.55745  21924739.438                    21924742.438
        50.300          35.700
 115640715.766 7  90109702.46145  22005706.258                    22005708.035
        45.700          32.100
 110488611.300 8  86095027.24645  21025282.125                    21025284.836
        50.400          35.900
 117979843.514 7  91932374.13644  22450821.531                    22450824.492
        46.000          29.300
 18  3 15 10 10 27.0000000  0 15R09R07R16R23R24G30R17G21G07G08G27G15
                                G20G13G28
                  89429212.150 7  21532142.695                    21532143.844
                        42.000
                  83661721.285 6  20094060.656                    20094063.309
                        41.900
                  81485882.944 6  19612707.023                    19612708.555
                        39.800
                  97386049.722 5  23406802.195                    23406808.008
                        30.900
                  87639103.158 5  21071511.125                    21071512.758
                        32.700
 113723923.257 8  88616038.13046  21640934.047                    21640940.129
        49.600          36.700
                  89638904.637 6  21537220.430                    21537221.070
                        41.200
 127043381.968 7  98994851.50044  24175551.992                    24175554.656
        43.600          25.600
 121343441.025 7  94553403.60444  23090906.844                    23090909.273
        46.400          29.000
 118322959.436 7  92199791.53245  22516125.789                    22516131.281
        45.200          33.900
 120706409.783 6  94056902.76144  22969666.117                    22969671.691
        41.400          28.900
 115213619.306 8  89776896.38245  21924429.813                    21924432.957
        50.300          35.800
 115642183.775 7  90110846.37845  22005984.641                    22005988.090
        45.300          31.900
 110488672.869 8  86095075.22646  21025293.602                    21025297.105
        50.200          36.000
 117977896.053 7  91930856.65544  22450451.766                    22450454.398
        46.600          29.600
 18  3 15 10 10 28.0000000  0 15R09R07R16R23R24G30R17G21G07G08G27G15
                                G20G13G28
                  89426516.871 7  21531493.914                    21531495.879
                        42.100
                  83663072.613 7  20094385.398                    20094387.988
                        42.000
                  81486492.316 6  19612854.617                    19612855.953
                        39.900
                  97389570.304 5  23407649.016                    23407654.082
                        30.600
                  87640415.956 5  21071827.805                    21071827.836
                        32.800
 113726013.312 8  88617666.74246  21641331.891                    21641337.695
        49.700          36.300
                  89637003.208 6  21536763.164                    21536764.734
                        41.400
 127045554.859 7  98996544.66444  24175966.117                    24175968.051
        43.900          25.600
 121346759.852 7  94555989.69644  23091537.680                    23091540.582
        46.600          28.100
 118322534.128 7  92199460.11645  22516045.164                    22516050.566
        44.700          33.600
 120708721.830 6  94058704.33144  22970105.828                    22970111.457
        40.400          29.400
 115211995.029 8  89775630.70045  21924121.125                    21924124.027
        50.300          35.800
 115643652.496 7  90111990.84945  22006263.984                    22006267.105
        45.200          32.400
 110488735.169 8  86095123.77946  21025305.539                    21025308.480
        50.100          36.100
 117975949.085 7  91929339.52944  22450081.125                    22450083.453
        47.000          29.400
 18  3 15 10 10 29.0000000  0 15R09R07R16R23R24G30R17G21G07G08G27G15
                                G20G13G28
                  89423822.048 6  21530845.430                    21530847.230
                        41.900
                  83664424.664 7  20094709.813                    20094712.320
                        42.100
                  81487102.438 6  19613001.227                    19613002.453
                        39.800
                  97393091.273 5  23408496.641                    23408500.563
                        30.800
                  87641729.538 5  21072144.188                    21072143.582
                        31.700
 113728104.016 8  88619295.85446  21641729.945                    21641735.773
        49.600          36.500
                  89635102.416 6  21536307.258                    21536308.914
                        41.400
 127047728.270 7  98998238.23444  24176379.328                    24176382.074
        43.700          25.800
 121350079.140 7  94558576.16044  23092169.734                    23092172.367
        46.300          28.600
 118322109.620 7  92199129.32245  22515964.781                    22515969.625
        45.000          34.200
 120711034.687 6  94060506.55144  22970546.000                    22970551.688
        40.400          29.400
 115210371.416 8  89774365.52945  21923811.828                    21923815.594
        49.900          35.200
 115645121.955 7  90113135.88345  22006544.852                    22006547.156
        45.700          32.300
 110488798.257 8  86095172.94345  21025317.789                    21025320.777
        49.600          35.800
 117974002.706 7  91927822.85544  22449710.711                    22449713.477
        45.700          29.300
 18  3 15 10 10 30.0000000  0 15R09R07R16R23R24G30R17G21G07G08G27G15
                                G20G13G28
                  89421127.603 6  21530195.000                    21530198.547
                        41.000
                  83665777.422 7  20095034.023                    20095037.422
                        42.300
                  81487713.240 6  19613147.875                    19613150.012
                        40.000
                  97396612.492 5  23409341.234                    23409346.375
                        30.500
                  87643043.871 5  21072460.141                    21072460.289
                        32.800
 113730195.308 8  88620925.42745  21642128.172                    21642133.836
        49.500          35.800
                  89633202.227 6  21535850.445                    21535852.863
                        40.700
 127049902.145 7  98999932.17144  24176793.195                    24176795.629
        43.500          25.500
 121353398.771 7  94561162.87944  23092801.234                    23092803.770
        46.400          27.200
 118321685.822 7  92198799.09245  22515883.883                    22515888.754
        45.300          33.700
 120713348.100 6  94062309.21944  22970986.617                    22970992.273
        40.800          29.200
 115208748.429 8  89773100.85546  21923502.891                    21923506.406
        50.300          36.000
 115646592.129 7  90114281.47245  22006823.938                    22006826.652
        45.800          32.500
 110488862.076 8  86095222.67346  21025329.969                    21025332.980
        49.400          36.000
 117972056.792 7  91926306.54245  22449340.133                    22449342.438
        45.800          30.200
 18  3 15 10 10 31.0000000  0 15R09R07R16R23R24G30R17G21G07G08G27G15
                                G20G13G28
                  89418433.629 6  21529545.641                    21529548.848
                        40.800
                  83667130.851 7  20095360.344                    20095362.027
                        42.200
                  81488324.757 6  19613294.891                    19613297.316
                        40.200
                  97400134.006 5  23410189.305                    23410193.578
                        30.600
                  87644358.928 5  21072776.523                    21072776.180
                        33.200
 113732287.212 8  88622555.47746  21642526.289                    21642531.898
        50.400          36.200
                  89631302.683 6  21535393.000                    21535396.207
                        41.400
 127052076.491 7  99001626.46944  24177207.055                    24177209.125
        42.800          26.400
 121356718.793 7  94563749.89344  23093433.203                    23093435.906
        47.000          29.300
 118321262.744 7  92198469.41445  22515803.734                    22515808.516
        45.800          34.200
 120715662.190 6  94064112.41944  22971426.547                    22971432.238
        40.800          29.100
 115207126.092 8  89771836.69146  21923194.367                    21923197.820
        49.900          36.400
 115648062.964 7  90115427.57545  22007104.258                    22007106.348
        46.000          31.900
 110488926.610 8  86095272.95546  21025342.398                    21025344.797
        50.000          36.000
 117970111.356 7  91924790.60445  22448968.914                    22448973.043
        43.900          30.000
 18  3 15 10 10 32.0000000  0 15R09R07R16R23R24G30R17G21G07G08G27G15
                                G20G13G28
                  89415739.967 6  21528897.734                    21528900.000
                        40.200
                  83668484.951 6  20095685.023                    20095687.367
                        41.900
                  81488937.005 6  19613442.641                    19613444.508
                        39.700
                  97403655.803 5  23411035.000                    23411040.313
                        30.300
                  87645674.722 5  21073092.914                    21073092.074
                        33.200
 113734379.703 8  88624185.98846  21642924.633                    21642929.793
        50.300          36.500
                  89629403.759 6  21534936.320                    21534939.602
                        41.200
 127054251.282 7  99003321.10144  24177620.820                    24177623.250
        42.900          26.000
 121360039.216 7  94566337.23344  23094065.203                    23094067.801
        46.900          28.200
 118320840.387 7  92198140.29445  22515723.500                    22515728.234
        45.400          33.800
 120717976.907 6  94065916.10744  22971867.070                    22971872.516
        40.500          28.200
 115205504.386 8  89770573.01746  21922885.766                    21922889.238
        50.000          36.200
 115649534.509 7  90116574.23845  22007383.875                    22007386.816
        45.600          32.200
 110488991.904 8  86095323.82646  21025354.453                    21025357.234
        50.300          36.000
 117968166.424 7  91923275.07744  22448599.008                    22448602.770
        42.800          29.900
 18  3 15 10 10 33.0000000  0 15R09R07R16R23R24G30R17G21G07G08G27G15
                                G20G13G28
                  89413046.700 6  21528249.969                    21528250.480
                        36.900
                  83669839.803 7  20096010.844                    20096013.250
                        42.100
                  81489549.979 6  19613590.508                    19613591.500
                        40.000
                  97407177.953 4  23411881.320                    23411886.406
                        29.900
                  87646991.327 5  21073409.414                    21073408.902
                        32.800
 113736472.851 8  88625817.00746  21643322.992                    21643328.430
        50.400          36.400
                  89627505.514 6  21534481.336                    21534482.535
                        40.900
 127056426.652 7  99005016.19844  24178034.859                    24178037.008
        43.000          27.200
 121363360.086 7  94568924.92844  23094697.141                    23094699.633
        45.900          28.700
 118320418.795 7  92197811.77145  22515643.039                    22515647.965
        45.300          32.900
 120720292.300 6  94067720.32444  22972307.242                    22972313.105
        41.100          28.900
 115203883.351 8  89769309.86346  21922577.258                    21922580.516
        49.800          36.200
 115651006.783 7  90117721.45945  22007663.195                    22007666.746
        43.900          33.000
 110489057.959 8  86095375.29345  21025366.891                    21025370.125
        49.900          35.500
 117966222.069 7  91921760.01845  22448230.141                    22448232.484
        44.500          30.800
 18  3 15 10 10 34.0000000  0 15R09R07R16R23R24G30R17G21G07G08G27G15
                                G20G13G28
                  89410353.776 6  21527600.781                    21527600.988
                        36.900
                  83671195.311 6  20096336.781                    20096338.406
                        41.900
                  81490163.671 6  19613738.102                    19613739.797
                        40.000
                  97410700.368 4  23412727.969                    23412733.523
                        29.600
                  87648308.679 5  21073726.406                    21073725.234
                        32.400
 113738566.580 8  88627448.48746  21643720.938                    21643726.852
        49.500          36.300
                  89625607.797 6  21534025.125                    21534025.895
                        41.100
 127058602.432 7  99006711.61744  24178448.227                    24178451.262
        42.500          26.900
 121366681.297 7  94571512.88244  23095329.031                    23095331.566
        47.000          29.000
 118319997.930 7  92197483.82345  22515562.648                    22515567.590
        45.600          33.600
 120722608.314 6  94069525.01644  22972748.500                    22972753.996
        41.400          29.500
 115202262.921 8  89768047.17545  21922268.852                    21922272.379
        49.700          35.500
 115652479.797 7  90118869.27145  22007944.016                    22007947.301
        44.300          31.200
 110489124.729 8  86095427.33246  21025379.766                    21025382.547
        49.500          36.500
 117964278.206 7  91920245.32645  22447861.539                    22447863.047
        47.800          32.700
 18  3 15 10 10 35.0000000  0 15R09R07R16R23R24G30R17G21G07G08G27G15
                                G20G13G28
                  89407661.337 6  21526952.188                    21526952.672
                        37.900
                  83672551.534 6  20096662.008                    20096664.340
                        41.600
                  81490778.064 6  19613886.414                    19613887.473
                        39.800
                  97414223.126 4  23413574.953                    23413579.645
                        26.800
                  87649626.819 5  21074042.352                    21074042.973
                        33.200
 113740660.927 8  88629080.45146  21644119.688                    21644125.273
        49.300          36.800
                  89623710.662 6  21533569.164                    21533569.250
                        41.300
 127060778.694 7  99008407.41144  24178862.922                    24178865.586
        42.400          25.800
 121370002.894 7  94574101.14444  23095961.203                    23095963.387
        46.700          28.000
 118319577.783 7  92197156.43745  22515483.281                    22515487.793
        45.800          33.400
 120724924.894 6  94071330.14344  22973189.125                    22973194.625
        40.200          28.500
 115200643.152 8  89766785.00446  21921960.992                    21921964.098
        50.000          36.300
 115653953.479 7  90120017.59545  22008224.430                    22008227.430
        44.600          31.900
 110489192.250 8  86095479.94645  21025392.406                    21025395.273
        49.100          34.900
 117962334.851 8  91918730.99245  22447491.195                    22447493.500
        48.200          33.100
 18  3 15 10 10 36.0000000  0 15R09R07R16R23R24G30R17G21G07G08G27G15
                                G20G13G28
                  89404969.233 6  21526304.969                    21526305.289
                        40.000
                  83673908.472 7  20096988.563                    20096990.180
                        42.200
                  81491393.172 6  19614033.813                    19614035.570
                        40.400
                  97417746.178 4  23414420.727                    23414426.488
                        25.500
                  87650945.689 5  21074358.328                    21074359.711
                        33.500
 113742755.855 8  88630712.86346  21644518.297                    21644523.805
        49.500          37.400
                  89621814.188 6  21533115.086                    21533114.004
                        41.800
 127062955.442 7  99010103.58244  24179276.680                    24179279.473
        43.300          27.600
 121373324.926 7  94576689.74144  23096593.047                    23096595.551
        47.500          28.700
 118319158.346 7  92196829.59845  22515402.914                    22515407.930
        45.400          32.700
 120727242.206 6  94073135.82444  22973630.422                    22973635.570
        41.100          28.900
 115199024.017 8  89765523.32745  21921652.977                    21921655.910
        50.000          35.200
 115655427.876 7  90121166.49245  22008504.844                    22008507.836
        45.300          32.300
 110489260.503 8  86095533.12746  21025405.609                    21025408.254
        49.800          36.600
 117960392.033 8  91917217.09045  22447120.672                    22447123.410
        48.000          33.200
 18  3 15 10 10 37.0000000  0 15R09R07R16R23R24G30R17G21G07G08G27G15
                                G20G13G28
                  89402277.522 6  21525657.977                    21525657.719
                        40.800
                  83675266.111 6  20097314.266                    20097316.730
                        41.800
                  81492008.973 6  19614181.852                    19614183.816
                        40.400
                  97421269.539 4  23415268.359                    23415272.926
                        27.000
                  87652265.292 5  21074675.602                    21074677.039
                        33.100
 113744851.401 8  88632345.75246  21644917.039                    21644922.703
        49.000          37.700
                  89619918.334 6  21532659.555                    21532659.180
                        41.300
 127065132.675 7  99011800.13044  24179691.516                    24179693.941
        42.600          25.800
 121376647.318 7  94579278.60944  23097225.375                    23097228.059
        46.800          27.400
 118318739.687 7  92196503.37045  22515323.305                    22515328.359
        45.900          32.900
 120729560.151 6  94074942.00044  22974071.172                    22974076.789
        41.400          29.100
 115197405.530 8  89764262.14145  21921344.539                    21921348.098
        49.700          35.700
 115656902.959 7  90122315.91145  22008785.820                    22008788.863
        45.700          32.200
 110489329.491 8  86095586.88746  21025418.828                    21025421.730
        49.900          36.300
 117958449.686 7  91915703.55345  22446750.266                    22446753.914
        46.400          33.100
 18  3 15 10 10 38.0000000  0 15R09R07R16R23R24G30R17G21G07G08G27G15
                                G20G13G28
                  89399586.178 6  21525009.508                    21525009.816
                        41.000
                  83676624.442 6  20097640.313                    20097643.289
                        41.600
                  81492625.519 6  19614330.016                    19614332.449
                        40.500
                  97424793.239 4  23416114.906                    23416120.246
                        27.200
                  87653585.623 5  21074993.023                    21074995.297
                        32.600
 113746947.574 8  88633979.14146  21645316.016                    21645321.539
        49.500          37.600
                  89618023.105 6  21532203.758                    21532204.824
                        41.500
 127067310.388 7  99013497.03844  24180105.586                    24180108.402
        42.000          26.200
 121379970.134 7  94581867.80444  23097857.438                    23097860.133
        46.100          29.100
 118318321.739 7  92196177.69445  22515243.625                    22515248.848
        46.200          32.500
 120731878.751 6  94076748.68844  22974512.289                    22974518.109
        41.000          28.700
 115195787.653 8  89763001.43145  21921036.742                    21921040.176
        49.900          35.700
 115658378.795 7  90123465.90545  22009066.781                    22009069.637
        46.300          32.500
 110489399.234 8  86095641.22945  21025431.773                    21025434.781
        49.800          35.700
 117956507.844 7  91914190.44045  22446380.430                    22446384.145
        44.900          32.400
 18  3 15 10 10 39.0000000  0 15R09R07R16R23R24G30R17G21G07G08G27G15
                                G20G13G28
                  89396895.237 6  21524361.352                    21524362.699
                        40.800
                  83677983.482 7  20097967.016                    20097968.766
                        42.000
                  81493242.779 6  19614478.969                    19614480.703
                        40.600
                  97428317.227 4  23416962.008                    23416966.371
                        27.700
                  87654906.699 5  21075310.539                    21075312.910
                        33.400
 113749044.372 8  88635613.01346  21645714.883                    21645720.449
        49.600          37.300
                  89616128.490 6  21531748.117                    21531750.605
                        41.800
 127069488.601 6  99015194.33944  24180519.648                    24180522.621
        41.700          26.200
 121383293.349 7  94584457.31544  23098490.086                    23098492.719
        45.900          29.100
 118317904.561 7  92195852.62745  22515164.094                    22515169.234
        47.000          33.100
 120734198.011 6  94078555.91544  22974953.977                    22974959.477
        41.400          29.100
 115194170.465 8  89761741.24545  21920728.844                    21920731.977
        50.100          35.900
 115659855.331 7  90124616.44845  22009346.867                    22009350.430
        45.400          32.100
 110489469.729 8  86095696.16145  21025445.461                    21025448.367
        50.100          35.200
 117954566.515 7  91912677.75945  22446011.758                    22446014.746
        44.800          31.900
 18  3 15 10 10 40.0000000  0 15R09R07R16R23R24G30R17G21G07G08G27G15
                                G20G13G28
                  89394204.785 6  21523713.578                    21523713.773
                        39.800
                  83679343.208 6  20098293.289                    20098295.602
                        41.600
                  81493860.756 6  19614627.359                    19614629.852
                        40.600
                  97431841.549 4  23417809.734                    23417813.535
                        26.900
                  87656228.490 5  21075628.242                    21075630.223
                        33.300
 113751141.774 8  88637247.34745  21646113.797                    21646119.699
        49.100          35.900
                  89614234.498 6  21531291.820                    21531296.293
                        41.800
 127071667.304 6  99016892.02644  24180934.508                    24180936.949
        41.200          26.400
 121386616.969 7  94587047.14344  23099122.523                    23099125.039
        46.500          29.300
 118317488.084 7  92195528.09145  22515084.852                    22515089.898
        47.400          33.200
 120736517.924 6  94080363.65244  22975394.773                    22975400.801
        41.900          29.500
 115192553.924 8  89760481.57346  21920421.508                    21920424.605
        50.100          36.100
 115661332.592 7  90125767.56245  22009629.156                    22009631.809
        45.000          31.600
 110489540.962 8  86095751.65845  21025458.930                    21025462.004
        50.300          35.800
 117952625.775 8  91911165.52745  22445644.188                    22445645.473
        48.000          32.300
 18  3 15 10 10 41.0000000  0 15R09R07R16R23R24G30R17G21G07G08G27G15
                                G20G13G28
                  89391514.707 6  21523064.945                    21523066.305
                        41.100
                  83680703.633 6  20098620.234                    20098622.371
                        41.900
                  81494479.461 6  19614777.094                    19614778.473
                        40.500
                  97435366.112 4  23418656.242                    23418660.121
                        27.800
                  87657551.013 5  21075948.031                    21075948.285
                        33.300
 113753239.815 8  88638882.18046  21646512.867                    21646519.152
        48.700          36.000
                  89612341.153 6  21530837.570                    21530841.867
                        41.500
 127073846.472 6  99018590.07444  24181348.586                    24181351.996
        41.200          26.200
 121389940.990 7  94589637.28544  23099755.141                    23099757.133
        47.300          28.400
 118317072.355 7  92195204.13145  22515006.117                    22515010.605
        47.500          33.300
 120738838.479 6  94082171.87944  22975836.508                    22975842.160
        41.300          28.300
 115190938.058 8  89759222.44845  21920114.422                    21920117.652
        49.900          35.700
 115662810.571 7  90126919.23645  22009910.078                    22009913.070
        44.700          31.800
 110489612.939 8  86095807.73645  21025472.648                    21025475.355
        49.600          35.700
 117950685.557 8  91909653.67245  22445275.336                    22445276.188
        49.100          33.100
 18  3 15 10 10 42.0000000  0 15R09R07R16R23R24G30R17G21G07G08G27G15
                                G20G13G28
                  89388824.987 6  21522417.945                    21522418.648
                        40.200
                  83682064.735 7  20098946.953                    20098949.203
                        42.300
                  81495098.831 6  19614925.516                    19614927.172
                        40.400
                  97438890.983 4  23419503.047                    23419506.902
                        28.500
                  87658874.279 5  21076266.531                    21076266.328
                        32.900
 113755338.404 8  88640517.43846  21646911.961                    21646918.219
        48.000          36.100
                  89610448.414 6  21530382.250                    21530386.863
                        41.300
 127076026.093 6  99020288.47044  24181763.617                    24181766.777
        41.200          25.800
 121393265.355 7  94592227.69444  23100387.758                    23100390.227
        46.800          27.400
 118316657.329 7  92194880.72045  22514927.141                    22514931.695
        47.800          32.600
 120741159.643 6  94083980.60044  22976278.469                    22976284.590
        41.300          28.500
 115189322.808 8  89757963.80046  21919807.039                    21919810.199
        50.200          36.200
 115664289.232 7  90128071.43845  22010192.078                    22010193.930
        45.100          31.800
 110489685.631 8  86095864.37446  21025486.352                    21025489.496
        50.200          36.500
 117948745.823 8  91908142.16245  22444905.352                    22444906.992
        49.000          31.700
 18  3 15 10 10 43.0000000  0 15R09R07R16R23R24G30R17G21G07G08G27G15
                                G20G13G28
                  89386135.640 6  21521770.734                    21521770.609
                        40.600
                  83683426.539 7  20099273.953                    20099276.652
                        42.000
                  81495718.896 6  19615075.781                    19615076.750
                        40.000
                  97442416.087 4  23420350.023                    23420354.449
                        29.400
                  87660198.306 5  21076584.969                    21076584.980
                        33.100
 113757437.570 8  88642153.14946  21647311.727                    21647317.711
        48.000          36.200
                  89608556.248 6  21529927.797                    21529931.898
                        40.900
 127078206.142 6  99021987.19644  24182179.539                    24182182.004
        41.300          26.500
 121396590.078 7  94594818.39444  23101020.195                    23101022.805
        47.300          28.900
 118316243.058 7  92194557.89745  22514848.023                    22514853.168
        47.600          32.800
 120743481.432 6  94085789.79644  22976719.688                    22976726.023
        41.000          28.400
 115187708.171 8  89756705.63745  21919499.422                    21919502.844
        50.100          35.900
 115665768.510 7  90129224.12545  22010473.117                    22010475.895
        45.600          32.400
 110489759.010 8  86095921.55546  21025500.578                    21025503.684
        49.900          36.000
 117946806.530 7  91906630.97445  22444535.648                    22444537.875
        47.200          31.700
 18  3 15 10 10 44.0000000  0 15R09R07R16R23R24G30R17G21G07G08G27G15
                                G20G13G28
                  89383446.709 6  21521123.922                    21521122.719
                        40.800
                  83684789.081 7  20099600.875                    20099603.211
                        42.100
                  81496339.709 6  19615224.648                    19615226.219
                        40.700
                  97445941.532 4  23421199.039                    23421201.848
                        29.300
                  87661523.130 5  21076904.070                    21076903.441
                        33.400
 113759537.407 8  88643789.38446  21647711.484                    21647717.563
        48.200          36.600
                  89606664.751 6  21529474.008                    21529476.563
                        40.900
 127080386.763 6  99023686.37344  24182594.570                    24182596.563
        41.600          25.800
 121399915.231 7  94597409.41544  23101653.523                    23101656.074
        47.200          29.300
 118315829.563 7  92194235.69645  22514768.945                    22514773.977
        47.800          33.300
 120745803.860 6  94087599.47944  22977162.172                    22977167.777
        41.100          27.400
 115186094.206 8  89755447.99045  21919191.789                    21919195.660
        49.500          35.600
 115667248.593 7  90130377.44945  22010754.148                    22010757.570
        45.400          31.900
 110489833.170 8  86095979.34046  21025514.313                    21025517.520
        49.900          36.300
 117944867.773 7  91905120.22445  22444165.102                    22444168.770
        44.300          32.200
 18  3 15 10 10 45.0000000  0 15R09R07R16R23R24G30R17G21G07G08G27G15
                                G20G13G28
                  89380758.158 6  21520476.734                    21520475.480
                        41.500
                  83686152.292 7  20099928.766                    20099931.043
                        42.300
                  81496961.229 6  19615374.430                    19615376.477
                        40.800
                  97449467.313 4  23422045.641                    23422048.863
                        28.600
                  87662848.736 5  21077222.078                    21077222.461
                        32.800
 113761637.834 8  88645426.07846  21648111.648                    21648117.223
        48.600          37.200
                  89604773.853 6  21529020.188                    21529021.328
                        40.500
 127082567.874 6  99025385.92644  24183009.656                    24183011.656
        41.600          25.900
 121403240.806 7  94600000.77944  23102286.203                    23102288.477
        47.200          28.400
 118315416.796 7  92193914.06845  22514690.391                    22514695.805
        47.800          33.400
 120748126.994 7  94089409.70044  22977604.852                    22977610.223
        42.000          27.800
 115184480.884 8  89754190.84345  21918884.844                    21918888.434
        49.600          35.200
 115668729.354 7  90131531.29445  22011036.672                    22011039.469
        44.500          31.800
 110489908.075 8  86096037.69745  21025528.570                    21025531.645
        50.100          35.900
 117942929.469 7  91903609.87345  22443795.703                    22443800.457
        43.700          32.600
 18  3 15 10 10 46.0000000  0 15R09R07R16R23R24G30R17G21G07G08G27G15
                                G20G13G28
                  89378070.025 7  21519828.742                    21519829.027
                        42.300
                  83687516.182 7  20100256.539                    20100258.375
                        42.200
                  81497583.454 6  19615523.484                    19615525.723
                        40.500
                  97452993.380 4  23422892.664                    23422897.430
                        28.200
                  87664175.104 5  21077541.266                    21077541.012
                        33.700
 113763738.871 8  88647063.25146  21648511.320                    21648516.863
        48.900          37.000
                  89602883.579 6  21528565.617                    21528566.043
                        41.000
 127084749.467 6  99027085.87344  24183424.523                    24183426.898
        41.800          27.400
 121406566.735 7  94602592.41044  23102919.313                    23102921.465
        47.100          29.100
 118315004.800 7  92193593.04445  22514611.961                    22514617.645
        47.600          33.200
 120750450.735 7  94091220.39144  22978046.789                    22978052.234
        42.000          27.600
 115182868.208 8  89752934.19545  21918578.047                    21918581.496
        49.300          35.300
 115670210.852 7  90132685.72145  22011317.219                    22011321.258
        43.300          31.500
 110489983.711 8  86096096.62245  21025542.898                    21025546.352
        50.100          35.600
 117940991.726 7  91902099.99445  22443428.602                    22443431.574
        46.400          32.900
 18  3 15 10 10 47.0000000  0 15R09R07R16R23R24G30R17G21G07G08G27G15
                                G20G13G28
                  89375382.315 7  21519180.078                    21519183.105
                        42.200
                  83688880.794 7  20100584.383                    20100586.520
                        42.100
                  81498206.427 6  19615673.008                    19615675.660
                        40.200
                  97456519.777 4  23423739.477                    23423744.980
                        28.900
                  87665502.229 5  21077858.531                    21077860.508
                        33.300
 113765840.514 8  88648700.90146  21648911.422                    21648917.109
        48.300          37.000
                  89600993.925 6  21528111.945                    21528111.078
                        41.500
 127086931.517 7  99028786.18444  24183839.406                    24183842.102
        42.000          26.500
 121409893.087 7  94605184.36544  23103552.102                    23103554.699
        47.100          28.700
 118314593.531 8  92193272.58345  22514533.859                    22514539.141
        48.100          33.700
 120752775.106 6  94093031.58844  22978488.633                    22978494.426
        41.800          27.500
 115181256.211 8  89751678.08946  21918271.867                    21918274.918
        49.600          36.000
 115671693.027 7  90133840.66045  22011600.945                    22011602.945
        44.100          31.600
 110490060.077 8  86096156.09945  21025557.578                    21025560.449
        50.000          35.500
 117939054.556 8  91900590.55045  22443061.195                    22443062.789
        48.200          32.800
 18  3 15 10 10 48.0000000  0 15R09R07R16R23R24G30R17G21G07G08G27G15
                                G20G13G28
                  89372695.056 7  21518533.516                    21518536.523
                        42.600
                  83690246.107 7  20100912.414                    20100914.828
                        42.100
                  81498830.119 6  19615824.039                    19615825.691
                        40.500
                  97460046.487 4  23424586.742                    23424592.309
                        28.400
                  87666830.115 5  21078178.297                    21078179.527
                        33.700
 113767942.796 8  88650339.04346  21649311.438                    21649317.148
        48.500          37.200
                  89599104.887 6  21527657.281                    21527657.535
                        40.900
 127089114.054 6  99030486.88244  24184255.102                    24184257.391
        41.900          26.900
 121413219.838 7  94607776.64244  23104184.969                    23104187.480
        46.300          28.900
 118314183.013 8  92192952.69645  22514455.211                    22514460.828
        48.200          33.600
 120755100.176 6  94094843.33544  22978930.680                    22978937.172
        41.500          28.100
 115179644.861 8  89750422.49346  21917965.414                    21917968.543
        49.600          36.000
 115673175.949 7  90134996.17545  22011882.391                    22011884.977
        44.100          31.000
 110490137.232 8  86096216.20045  21025572.320                    21025575.195
        50.000          35.700
 117937117.891 8  91899081.45945  22442692.797                    22442694.449
        48.300          33.400
 18  3 15 10 10 49.0000000  0 15R09R07R16R23R24G30R17G21G07G08G27G15
                                G20G13G28
                  89370008.201 6  21517886.164                    21517889.168
                        41.600
                  83691612.113 6  20101240.211                    20101242.512
                        41.700
                  81499454.517 6  19615974.430                    19615976.098
                        40.800
                  97463573.525 4  23425435.875                    23425439.852
                        27.800
                  87668158.731 5  21078498.133                    21078498.730
                        33.400
 113770045.666 8  88651977.65246  21649711.414                    21649717.371
        48.100          36.900
                  89597216.477 6  21527204.305                    21527204.160
                        41.000
 127091297.094 6  99032187.95244  24184670.430                    24184672.887
        41.700          27.900
 121416546.971 7  94610369.21444  23104818.398                    23104821.047
        46.400          29.100
 118313773.217 8  92192633.38145  22514377.180                    22514383.352
        48.300          33.500
 120757425.893 6  94096655.57644  22979373.688                    22979379.184
        41.200          27.900
 115178034.162 8  89749167.40845  21917659.055                    21917662.129
        49.300          35.800
 115674659.520 7  90136152.19045  22012165.547                    22012167.406
        44.200          31.300
 110490215.134 8  86096276.89145  21025587.266                    21025590.070
        49.900          35.800
 117935181.739 7  91897572.74245  22442323.625                    22442326.281
        47.800          33.600
 18  3 15 10 10 50.0000000  0 15R09R07R16R23R24G30R17G21G07G08G27G15
                                G20G13G28
                  89367321.760 6  21517241.266                    21517241.930
                        40.200
                  83692978.826 6  20101568.484                    20101570.707
                        41.800
                  81500079.633 6  19616124.719                    19616126.141
                        41.000
                  97467100.861 5  23426283.883                    23426288.375
                        30.200
                  87669488.122 5  21078816.133                    21078818.703
                        33.300
 113772149.191 8  88653616.76346  21650111.039                    21650117.246
        48.100          37.400
                  89595328.705 6  21526749.664                    21526751.582
                        41.400
 127093480.596 7  99033889.37944  24185085.805                    24185088.078
        42.400          26.800
 121419874.541 7  94612962.12844  23105451.523                    23105454.012
        46.200          29.600
 118313364.174 7  92192314.64845  22514299.508                    22514305.313
        47.800          34.100
 120759752.244 6  94098468.31444  22979817.250                    22979822.801
        40.600          28.500
 115176424.146 8  89747912.86145  21917351.906                    21917355.680
        49.300          35.900
 115676143.819 7  90137308.79045  22012447.070                    22012449.605
        44.300          30.800
 110490293.778 8  86096338.16945  21025602.352                    21025605.152
        50.000          35.300
 117933246.091 7  91896064.42145  22441954.391                    22441957.551
        47.000          32.300
 18  3 15 10 10 51.0000000  0 15R09R07R16R23R24G30R17G21G07G08G27G15
                                G20G13G28
                  89364635.676 6  21516595.156                    21516594.355
                        40.600
                  83694346.262 6  20101896.430                    20101899.367
                        41.800
                  81500705.504 6  19616274.906                    19616276.898
                        40.800
                  97470628.537 5  23427131.203                    23427136.086
                        30.100
                  87670818.259 5  21079135.031                    21079138.469
                        33.300
 113774253.313 7  88655256.34246  21650511.688                    21650517.773
        47.900          36.900
                  89593441.591 6  21526296.859                    21526299.715
                        41.900
 127095664.611 7  99035591.19744  24185501.641                    24185503.996
        42.500          26.900
 121423202.524 7  94615555.35744  23106084.734                    23106087.648
        45.900          29.400
 118312955.891 7  92191996.51345  22514221.469                    22514227.758
        47.800          33.200
 120762079.273 6  94100281.59044  22980258.969                    22980265.254
        40.500          28.300
 115174814.786 8  89746658.82145  21917045.703                    21917049.582
        49.300          35.800
 115677628.872 7  90138465.96745  22012729.477                    22012732.223
        44.200          31.000
 110490373.200 8  86096400.05946  21025617.586                    21025620.352
        50.100          36.000
 117931311.005 7  91894556.55645  22441586.000                    22441589.289
        46.400          32.600
 18  3 15 10 10 52.0000000  0 15R09R07R16R23R24G30R17G21G07G08G27G15
                                G20G13G28
                  89361949.994 6  21515948.781                    21515947.398
                        39.300
                  83695714.414 7  20102225.328                    20102227.391
                        42.000
                  81501332.065 6  19616426.398                    19616428.008
                        40.400
                  97474156.487 5  23427979.453                    23427984.191
                        30.400
                  87672149.155 5  21079453.008                    21079458.250
                        32.800
 113776358.075 8  88656896.41246  21650911.773                    21650918.250
        48.100          37.200
                  89591555.052 7  21525844.750                    21525846.801
                        42.000
 127097849.107 7  99037293.38144  24185916.719                    24185919.410
        42.600          26.500
 121426530.892 7  94618148.88544  23106718.102                    23106720.383
        46.100          29.400
 118312548.343 7  92191678.95345  22514143.828                    22514150.332
        47.300          33.600
 120764406.947 6  94102095.36044  22980702.547                    22980708.227
        40.200          29.100
 115173206.038 8  89745405.26546  21916739.570                    21916743.469
        49.100          36.200
 115679114.622 7  90139623.70045  22013012.781                    22013015.387
        44.200          31.300
 110490453.328 8  86096462.50045  21025632.492                    21025635.332
        50.000          35.500
 117929376.406 7  91893049.08445  22441218.430                    22441221.469
        46.700          32.400
 18  3 15 10 10 53.0000000  0 15R09R07R16R23R24G30R17G21G07G08G27G15
                                G20G13G28
                  89359264.728 6  21515300.945                    21515299.551
                        40.000
                  83697083.295 6  20102554.625                    20102557.258
                        41.900
                  81501959.376 6  19616576.641                    19616578.555
                        40.500
                  97477684.800 5  23428827.672                    23428831.973
                        30.300
                  87673480.871 5  21079773.922                    21079778.387
                        33.700
 113778463.502 8  88658536.99746  21651312.758                    21651319.012
        48.200          37.000
                  89589669.232 6  21525391.453                    21525394.363
                        41.700
 127100034.200 7  99038996.04944  24186332.953                    24186335.582
        43.000          26.500
 121429859.717 7  94620742.77144  23107351.953                    23107354.250
        46.000          29.100
 118312141.597 7  92191362.00945  22514066.430                    22514072.434
        46.800          33.600
 120766735.311 6  94103909.67444  22981145.984                    22981151.211
        40.300          28.300
 115171598.011 8  89744152.25845  21916433.836                    21916437.234
        49.100          35.900
 115680601.144 7  90140782.03145  22013295.484                    22013298.172
        43.400          30.800
 110490534.291 8  86096525.57446  21025648.227                    21025651.090
        49.800          36.100
 117927442.398 7  91891542.06945  22440850.492                    22440853.176
        46.800          32.500
 18  3 15 10 10 54.0000000  0 15R09R07R16R23R24G30R17G21G07G08G27G15
                                G20G13G28
                  89356579.809 6  21514653.891                    21514653.336
                        40.800
                  83698452.900 6  20102882.609                    20102885.621
                        41.900
                  81502587.403 6  19616728.641                    19616729.613
                        40.400
                  97481213.395 5  23429675.273                    23429680.688
                        30.300
                  87674813.295 5  21080095.453                    21080099.129
                        34.000
 113780569.546 8  88660178.06646  21651714.023                    21651719.758
        48.100          36.900
                  89587784.031 6  21524938.008                    21524941.566
                        41.500
 127102219.755 7  99040699.08244  24186748.711                    24186751.500
        43.000          26.500
 121433188.933 7  94623336.96444  23107984.977                    23107987.656
        46.300          29.100
 118311735.586 7  92191045.64445  22513989.305                    22513995.387
        46.800          33.600
 120769064.351 6  94105724.50744  22981588.633                    22981594.242
        40.600          27.900
 115169990.633 8  89742899.75346  21916127.852                    21916131.316
        49.800          36.100
 115682088.379 7  90141940.91245  22013578.742                    22013580.844
        44.000          31.000
 110490615.991 8  86096589.22345  21025663.219                    21025666.660
        49.700          35.900
 117925508.916 7  91890035.46345  22440482.047                    22440485.277
        46.600          32.900
 18  3 15 10 10 55.0000000  0 15R09R07R16R23R24G30R17G21G07G08G27G15
                                G20G13G28
                  89353895.303 6  21514007.211                    21514007.934
                        41.100
                  83699823.242 7  20103212.563                    20103214.773
                        42.100
                  81503216.123 6  19616879.289                    19616881.430
                        40.500
                  97484742.295 4  23430523.602                    23430528.512
                        29.000
                  87676146.501 5  21080418.109                    21080419.410
                        33.800
 113782676.165 8  88661819.58446  21652115.383                    21652120.742
        48.600          36.900
                  89585899.443 6  21524485.258                    21524488.258
                        41.200
 127104405.768 7  99042402.48344  24187164.570                    24187167.035
        42.300          26.500
 121436518.533 7  94625931.45644  23108618.922                    23108621.055
        46.400          28.700
 118311330.283 7  92190729.81745  22513911.945                    22513918.270
        47.100          33.700
 120771394.013 6  94107539.81844  22982032.359                    22982037.320
        40.900          27.500
 115168383.868 8  89741647.71146  21915822.500                    21915825.203
        49.800          36.000
 115683576.306 7  90143100.32945  22013861.836                    22013864.281
        44.700          31.500
 110490698.385 8  86096653.40646  21025678.859                    21025682.340
        49.600          36.000
 117923575.921 7  91888529.23545  22440114.406                    22440117.559
        45.800          32.800
 18  3 15 10 10 56.0000000  0 15R09R07R16R23R24G30R17G21G07G08G27G15
                                G20G13G28
                  89351211.251 6  21513360.266                    21513362.680
                        41.400
                  83701194.321 7  20103541.289                    20103544.184
                        42.100
                  81503845.597 6  19617031.281                    19617032.246
                        40.600
                  97488271.506 4  23431372.352                    23431377.105
                        29.300
                  87677480.438 5  21080740.859                    21080740.344
                        33.400
 113784783.424 8  88663461.60546  21652516.086                    21652521.352
        48.800          36.700
                  89584015.518 6  21524032.805                    21524034.676
                        40.600
 127106592.253 7  99044106.24344  24187580.844                    24187583.547
        42.000          26.400
 121439848.524 7  94628526.25544  23109252.461                    23109255.145
        46.400          28.200
 118310925.755 7  92190414.59345  22513834.789                    22513841.457
        46.400          34.100
 120773724.331 6  94109355.66744  22982475.508                    22982480.797
        40.500          28.900
 115166777.794 8  89740396.21246  21915516.758                    21915520.031
        49.500          36.400
 115685065.003 7  90144260.35245  22014144.750                    22014147.242
        44.500          31.200
 110490781.516 8  86096718.15845  21025694.844                    21025697.824
        49.600          35.200
 117921643.458 7  91887023.43045  22439746.625                    22439749.484
        46.600          33.400
 18  3 15 10 10 57.0000000  0 15R09R07R16R23R24G30R17G21G07G08G27G15
                                G20G13G28
                  89348527.610 6  21512714.320                    21512717.000
                        41.700
                  83702566.057 6  20103871.758                    20103874.277
                        41.900
                  81504475.774 6  19617183.242                    19617184.496
                        40.800
                  97491801.024 4  23432220.414                    23432225.418
                        28.900
                  87678815.110 5  21081062.523                    21081061.094
                        33.000
 113786891.273 8  88665104.09346  21652916.789                    21652922.648
        49.100          36.800
                  89582132.239 6  21523579.688                    21523580.742
                        41.000
 127108779.196 7  99045810.34944  24187996.492                    24187999.703
        42.700          25.300
 121443178.925 7  94631121.37344  23109886.289                    23109888.574
        46.200          29.200
 118310521.972 7  92190099.95645  22513758.000                    22513764.465
        46.300          33.700
 120776055.319 6  94111172.01844  22982919.664                    22982924.582
        41.100          29.700
 115165172.360 8  89739145.22546  21915210.813                    21915214.320
        49.600          36.400
 115686554.354 7  90145420.87345  22014429.781                    22014431.152
        45.500          31.500
 110490865.429 8  86096783.52045  21025710.672                    21025714.301
        49.900          35.900
 117919711.519 7  91885518.03145  22439379.203                    22439381.902
        46.600          33.200
 18  3 15 10 10 58.0000000  0 15R09R07R16R23R24G30R17G21G07G08G27G15
                                G20G13G28
                  89345844.425 6  21512070.109                    21512070.934
                        41.400
                  83703938.507 7  20104199.781                    20104203.254
                        42.200
                  81505106.698 6  19617334.734                    19617336.914
                        40.200
                  97495330.845 5  23433068.234                    23433073.617
                        30.300
                  87680150.573 5  21081383.789                    21081382.730
                        32.600
 113788999.753 8  88666747.06946  21653318.156                    21653323.637
        49.400          37.000
                  89580249.530 6  21523126.711                    21523128.133
                        41.200
 127110966.666 7  99047514.85044  24188412.875                    24188415.766
        42.500          26.000
 121446509.717 7  94633716.79344  23110520.055                    23110522.566
        46.200          29.400
 118310118.926 7  92189785.89745  22513681.625                    22513687.918
        46.100          34.000
 120778386.931 6  94112988.86144  22983362.367                    22983368.344
        41.100          29.900
 115163567.575 8  89737894.75245  21914905.680                    21914909.008
        48.800          35.300
 115688044.451 7  90146581.99145  22014711.406                    22014714.746
        45.000          31.000
 110490950.087 8  86096849.45545  21025727.070                    21025730.266
        50.000          35.700
 117917780.118 7  91884013.04545  22439011.883                    22439014.777
        46.700          32.700
 18  3 15 10 10 59.0000000  0 15R09R07R16R23R24G30R17G21G07G08G27G15
                                G20G13G28
                  89343161.619 6  21511424.922                    21511424.902
                        41.600
                  83705311.547 7  20104531.039                    20104532.637
                        42.300
                  81505738.274 6  19617487.086                    19617488.578
                        39.800
                  97498860.915 5  23433917.297                    23433922.375
                        30.200
                  87681486.761 5  21081704.969                    21081703.973
                        33.000
 113791108.771 8  88668390.46345  21653719.148                    21653725.344
        48.700          35.400
                  89578367.377 6  21522675.156                    21522674.707
                        41.000
 127113154.542 6  99049219.66044  24188829.563                    24188831.941
        41.800          26.700
 121449840.834 7  94636312.47144  23111153.656                    23111156.168
        46.200          29.300
 118309716.566 7  92189472.37845  22513604.500                    22513611.516
        45.300          32.800
 120780719.109 6  94114806.14644  22983806.203                    22983812.086
        41.600          28.500
 115161963.400 8  89736644.75145  21914600.453                    21914604.098
        49.000          35.900
 115689535.201 7  90147743.62045  22014995.578                    22014998.273
        44.400          31.600
 110491035.438 8  86096915.94146  21025743.305                    21025746.602
        49.600          36.000
 117915849.157 7  91882508.39945  22438644.469                    22438647.277
        45.800          32.800
 18  3 15 10 11  0.0000000  0 15R09R07R16R23R24G30R17G21G07G08G27G15
                                G20G13G28
                  89340479.236 6  21510779.008                    21510778.980
                        41.600
                  83706685.307 7  20104859.563                    20104862.781
                        42.100
                  81506370.629 6  19617639.117                    19617640.836
                        40.400
                  97502391.374 4  23434766.266                    23434771.090
                        29.400
                  87682823.765 5  21082025.938                    21082025.594
                        33.300
 113793218.493 8  88670034.39946  21654120.719                    21654126.777
        49.100          36.500
                  89576485.938 6  21522223.773                    21522223.055
                        41.200
 127115343.021 7  99050924.96144  24189245.961                    24189248.582
        42.600          26.500
 121453172.416 7  94638908.50244  23111787.898                    23111790.609
        46.500          29.500
 118309315.035 7  92189159.51045  22513528.445                    22513534.762
        45.200          33.300
 120783052.055 6  94116624.02144  22984250.070                    22984256.152
        41.200          28.900
 115160359.950 8  89735395.31446  21914294.914                    21914298.734
        49.100          36.300
 115691026.735 7  90148905.85045  22015279.891                    22015282.395
        44.400          30.900
 110491121.608 8  86096983.06946  21025759.922                    21025762.984
        50.200          36.600
 117913918.793 7  91881004.21845  22438276.938                    22438280.035
        45.300          32.400
 18  3 15 10 11  1.0000000  0 15R09R07R16R23R24G30R17G21G07G08G27G15
                                G20G13G28
                  89337797.199 6  21510133.375                    21510133.098
                        40.800
                  83708059.770 7  20105190.750                    20105192.977
                        42.100
                  81507003.700 6  19617791.766                    19617793.199
                        40.100
                  97505922.129 5  23435615.289                    23435619.613
                        30.400
                  87684161.479 5  21082346.625                    21082347.520
                        33.600
 113795328.838 8  88671678.82145  21654522.453                    21654528.438
        49.200          35.900
                  89574605.128 6  21521771.180                    21521771.793
                        41.700
 127117531.995 7  99052630.64644  24189662.195                    24189665.359
        42.600          26.000
 121456504.418 7  94641504.85644  23112421.719                    23112424.492
        46.500          28.300
 118308914.292 7  92188847.25245  22513452.367                    22513458.754
        44.800          33.600
 120785385.593 6  94118442.35544  22984695.102                    22984700.199
        40.600          28.300
 115158757.132 8  89734146.37746  21913990.219                    21913993.578
        49.100          36.100
 115692518.978 7  90150068.63445  22015563.164                    22015566.223
        44.900          31.300
 110491208.540 8  86097050.79446  21025776.242                    21025779.672
        49.900          36.300
 117911988.935 7  91879500.43445  22437909.359                    22437912.441
        45.500          32.600
 18  3 15 10 11  2.0000000  0 15R09R07R16R23R24G30R17G21G07G08G27G15
                                G20G13G28
                  89335115.562 6  21509486.438                    21509486.996
                        40.200
                  83709434.888 7  20105520.695                    20105523.480
                        42.200
                  81507637.518 6  19617944.070                    19617945.813
                        40.100
                  97509453.229 4  23436463.359                    23436467.965
                        29.000
                  87685499.915 5  21082668.297                    21082669.313
                        32.600
 113797439.791 8  88673323.71245  21654924.102                    21654930.105
        49.200          35.900
                  89572724.921 6  21521319.789                    21521320.668
                        41.700
 127119721.475 7  99054336.75244  24190079.164                    24190081.715
        42.600          25.900
 121459836.828 7  94644101.52544  23113055.781                    23113058.754
        46.600          29.300
 118308514.292 7  92188535.57145  22513376.195                    22513382.359
        44.700          33.000
 120787719.844 6  94120261.25644  22985138.656                    22985144.379
        40.700          28.900
 115157155.006 8  89732897.97646  21913685.320                    21913688.965
        49.200          36.100
 115694011.937 7  90151231.97245  22015847.797                    22015850.547
        44.900          31.100
 110491296.275 8  86097119.16546  21025793.117                    21025795.996
        49.900          36.700
 117910059.607 7  91877997.06645  22437542.430                    22437545.250
        45.600          32.200
 18  3 15 10 11  3.0000000  0 15R09R07R16R23R24G30R17G21G07G08G27G15
                                G20G13G28
                  89332434.298 6  21508839.500                    21508840.504
                        40.600
                  83710810.811 7  20105851.063                    20105854.137
                        42.000
                  81508272.085 6  19618096.766                    19618098.621
                        40.000
                  97512984.640 4  23437312.070                    23437316.301
                        28.200
                  87686839.104 5  21082988.898                    21082991.566
                        32.900
 113799551.357 8  88674969.08946  21655326.164                    21655331.840
        49.200          36.100
                  89570845.278 6  21520868.625                    21520870.574
                        41.700
 127121911.459 7  99056043.26944  24190495.750                    24190498.492
        42.300          27.000
 121463169.636 7  94646698.50644  23113690.164                    23113693.141
        47.200          28.100
 118308115.046 7  92188224.48145  22513300.984                    22513306.414
        45.000          32.800
 120790054.751 6  94122080.66644  22985582.961                    22985588.520
        41.200          28.700
 115155553.536 8  89731650.09046  21913380.445                    21913383.801
        49.900          36.200
 115695505.631 7  90152395.89045  22016131.727                    22016134.684
        44.900          30.500
 110491384.771 8  86097188.14746  21025809.844                    21025813.379
        49.500          36.700
 117908130.832 7  91876494.13045  22437175.820                    22437178.160
        45.900          31.900
 18  3 15 10 11  4.0000000  0 15R09R07R16R23R24G30R17G21G07G08G27G15
                                G20G13G28
                  89329753.473 6  21508193.945                    21508195.223
                        41.100
                  83712187.419 7  20106183.242                    20106184.477
                        42.100
                  81508907.324 6  19618249.750                    19618251.824
                        40.100
                  97516516.346 4  23438161.578                    23438165.988
                        26.400
                  87688179.030 5  21083310.609                    21083312.582
                        32.900
 113801663.548 8  88676614.94946  21655728.172                    21655733.930
        49.500          36.200
                  89568966.255 6  21520416.000                    21520419.754
                        41.800
 127124101.882 7  99057750.10944  24190912.922                    24190915.559
        43.000          26.400
 121466502.845 7  94649295.81344  23114324.359                    23114327.227
        47.200          28.100
 118307716.532 7  92187913.95445  22513225.047                    22513230.664
        45.000          33.100
 120792390.280 6  94123900.55844  22986027.344                    22986033.301
        41.500          28.600
 115153952.700 8  89730402.70146  21913076.008                    21913079.891
        50.500          36.700
 115697000.047 7  90153560.36645  22016415.867                    22016418.781
        44.500          30.700
 110491474.019 8  86097257.71246  21025826.734                    21025829.844
        49.200          36.300
 117906202.578 7  91874991.60045  22436809.094                    22436811.340
        46.500          32.100
 18  3 15 10 11  5.0000000  0 15R09R07R16R23R24G30R17G21G07G08G27G15
                                G20G13G28
                  89327073.066 6  21507549.602                    21507550.582
                        41.500
                  83713564.778 7  20106512.188                    20106515.398
                        42.000
                  81509543.279 6  19618403.297                    19618404.652
                        40.300
                  97520048.327 4  23439010.969                    23439014.145
                        25.900
                  87689519.754 5  21083632.961                    21083634.711
                        33.000
 113803776.337 8  88678261.27946  21656130.094                    21656135.750
        49.300          36.400
                  89567087.843 6  21519966.086                    21519969.414
                        41.400
 127126292.794 7  99059457.33244  24191329.539                    24191332.262
        43.300          26.400
 121469836.442 7  94651893.42444  23114958.781                    23114961.852
        47.500          28.900
 118307318.730 7  92187603.97945  22513149.273                    22513155.012
        44.700          33.400
 120794726.450 6  94125720.95444  22986472.383                    22986477.551
        41.600          29.500
 115152352.496 8  89729155.79946  21912771.953                    21912775.164
        50.100          36.400
 115698495.137 7  90154725.36745  22016700.688                    22016703.324
        45.200          31.900
 110491564.012 8  86097327.85746  21025844.078                    21025847.309
        49.500          36.200
 117904274.836 7  91873489.45445  22436442.000                    22436444.477
        46.300          32.300
 18  3 15 10 11  6.0000000  0 15R09R07R16R23R24G30R17G21G07G08G27G15
                                G20G13G28
                  89324393.063 7  21506906.039                    21506905.738
                        42.000
                  83714942.869 7  20106844.703                    20106846.500
                        42.000
                  81510179.955 6  19618555.711                    19618557.797
                        40.000
                  97523580.625 4  23439859.055                    23439863.133
                        26.100
                  87690861.229 5  21083955.711                    21083957.512
                        32.700
 113805889.740 8  88679908.09246  21656532.586                    21656538.164
        49.800          36.500
                  89565210.079 6  21519514.125                    21519518.133
                        41.600
 127128484.183 7  99061164.92244  24191746.844                    24191749.598
        42.700          26.800
 121473170.436 7  94654491.34044  23115593.438                    23115596.355
        46.800          28.500
 118306921.638 7  92187294.54345  22513074.383                    22513079.125
        45.200          32.200
 120797063.262 6  94127541.83944  22986916.977                    22986922.383
        41.900          28.700
 115150752.993 8  89727909.43946  21912467.055                    21912470.750
        50.200          36.500
 115699990.939 7  90155890.92245  22016985.188                    22016988.227
        44.700          31.400
 110491654.741 8  86097398.58346  21025861.273                    21025864.230
        49.300          36.200
 117902347.575 7  91871987.68245  22436074.805                    22436077.980
        45.500          32.300
 18  3 15 10 11  7.0000000  0 15R09R07R16R23R24G30R17G21G07G08G27G15
                                G20G13G28
                  89321713.490 6  21506260.313                    21506260.930
                        41.200
                  83716321.652 6  20107175.328                    20107177.836
                        41.900
                  81510817.333 6  19618709.000                    19618710.828
                        40.500
                  97527113.222 4  23440708.234                    23440712.012
                        24.800
                  87692203.406 5  21084277.711                    21084280.145
                        32.900
 113808003.751 8  88681555.36846  21656934.688                    21656940.180
        49.600          36.900
                  89563332.939 6  21519063.508                    21519066.559
                        41.600
 127130676.065 7  99062872.88044  24192163.805                    24192166.340
        42.600          25.900
 121476504.849 7  94657089.58144  23116228.109                    23116230.797
        46.400          28.400
 118306525.298 7  92186985.67645  22512999.609                    22513003.488
        45.200          33.500
 120799400.683 6  94129363.19644  22987360.891                    22987367.230
        41.200          28.500
 115149154.142 8  89726663.59745  21912162.531                    21912166.199
        49.500          35.800
 115701487.473 7  90157057.03945  22017270.383                    22017272.930
        45.400          31.300
 110491746.232 8  86097469.90546  21025878.625                    21025881.336
        49.800          36.100
 117900420.834 7  91870486.31245  22435707.367                    22435711.180
        45.100          32.300
 18  3 15 10 11  8.0000000  0 15R09R07R16R23R24G30R17G21G07G08G27G15
                                G20G13G28
                  89319034.312 6  21505614.773                    21505615.898
                        41.600
                  83717701.226 7  20107506.531                    20107508.883
                        42.000
                  81511455.463 6  19618862.594                    19618864.813
                        40.400
                  97530646.187 4  23441557.727                    23441561.141
                        25.500
                  87693546.379 5  21084601.227                    21084603.047
                        32.600
 113810118.444 8  88683203.18646  21657337.141                    21657342.164
        49.800          37.100
                  89561456.406 6  21518612.141                    21518615.105
                        41.400
 127132868.471 7  99064581.24344  24192580.992                    24192583.781
        42.700          26.900
 121479839.656 7  94659688.13444  23116862.234                    23116865.301
        46.600          29.200
 118306129.720 7  92186677.39045  22512924.352                    22512928.586
        44.900          33.000
 120801738.813 6  94131185.09044  22987806.633                    22987812.020
        41.900          29.800
 115147555.919 8  89725418.24245  21911858.297                    21911861.828
        49.500          35.400
 115702984.742 7  90158223.73545  22017555.086                    22017558.059
        45.500          31.800
 110491838.476 8  86097541.80245  21025896.195                    21025899.266
        49.600          35.500
 117898494.614 7  91868985.37945  22435341.250                    22435344.625
        44.900          30.200
 18  3 15 10 11  9.0000000  0 15R09R07R16R23R24G30R17G21G07G08G27G15
                                G20G13G28
                  89316355.573 6  21504970.141                    21504969.938
                        41.500
                  83719081.492 7  20107838.695                    20107840.578
                        42.100
                  81512094.357 6  19619016.711                    19619018.410
                        40.300
                  97534179.472 4  23442406.664                    23442409.766
                        25.800
                  87694890.150 5  21084924.781                    21084925.762
                        33.200
 113812233.735 8  88684851.46046  21657739.789                    21657745.215
        50.000          36.900
                  89559580.518 6  21518162.047                    21518163.570
                        41.200
 127135061.360 7  99066289.98344  24192998.617                    24193001.020
        43.100          25.900
 121483174.915 7  94662287.04144  23117497.336                    23117499.914
        46.400          28.800
 118305734.942 7  92186369.72745  22512849.625                    22512852.992
        45.100          32.300
 120804077.582 6  94133007.49244  22988252.141                    22988257.215
        41.800          29.700
 115145958.397 8  89724173.43445  21911554.367                    21911558.449
        49.700          35.800
 115704482.738 7  90159391.00745  22017840.180                    22017842.961
        45.900          32.700
 110491931.479 8  86097614.28545  21025913.844                    21025917.074
        49.600          35.800
 117896569.016 7  91867484.95545  22434975.609                    22434978.309
        46.100          30.900
 18  3 15 10 11 10.0000000  0 15R09R07R16R23R24G30R17G21G07G08G27G15
                                G20G13G28
                  89313677.200 6  21504323.398                    21504325.293
                        41.100
                  83720462.504 7  20108168.578                    20108171.316
                        42.200
                  81512733.995 6  19619171.156                    19619172.410
                        40.400
                  97537713.036 4  23443255.914                    23443258.965
                        27.200
                  87696234.726 5  21085249.352                    21085250.043
                        33.000
 113814349.674 8  88686500.24146  21658141.969                    21658147.688
        50.200          37.200
                  89557705.340 6  21517712.336                    21517712.688
                        40.900
 127137254.806 7  99067999.15244  24193415.648                    24193418.641
        42.500          27.300
 121486510.569 7  94664886.25344  23118131.719                    23118134.465
        46.800          27.900
 118305340.910 7  92186062.64545  22512774.875                    22512778.242
        45.200          33.200
 120806417.113 6  94134830.49045  22988697.008                    22988702.391
        41.300          30.100
 115144361.555 8  89722929.14545  21911250.727                    21911254.246
        49.600          35.900
 115705981.469 7  90160558.85245  22018124.906                    22018128.352
        45.300          31.900
 110492025.264 8  86097687.36645  21025932.078                    21025934.742
        49.400          35.800
 117894643.940 7  91865984.90645  22434609.633                    22434611.680
        46.600          30.900
 18  3 15 10 11 11.0000000  0 15R09R07R16R23R24G30R17G21G07G08G27G15
                                G20G13G28
                  89310999.243 6  21503677.688                    21503679.473
                        40.200
                  83721844.207 7  20108502.039                    20108503.473
                        42.200
                  81513374.317 6  19619324.570                    19619326.398
                        40.700
                  97541246.884 4  23444105.047                    23444107.445
                        27.700
                  87697579.979 5  21085573.125                    21085573.109
                        32.800
 113816466.180 8  88688149.47046  21658545.117                    21658550.422
        49.800          37.600
                  89555830.875 6  21517260.930                    21517261.621
                        41.000
 127139448.615 7  99069708.61544  24193833.078                    24193835.758
        42.300          27.400
 121489846.609 7  94667485.76744  23118765.969                    23118769.188
        46.200          28.600
 118304947.604 7  92185756.15445  22512699.984                    22512703.570
        45.600          33.400
 120808757.228 6  94136653.93744  22989142.375                    22989148.047
        41.700          29.100
 115142765.354 8  89721685.36446  21910947.266                    21910950.691
        49.900          36.500
 115707480.886 7  90161727.21845  22018410.609                    22018413.441
        45.800          31.500
 110492119.757 8  86097761.00646  21025949.750                    21025952.887
        50.000          36.000
 117892719.359 7  91864485.21045  22434243.063                    22434245.355
        46.300          31.600
 18  3 15 10 11 12.0000000  0 15R09R07R16R23R24G30R17G21G07G08G27G15
                                G20G13G28
                  89308321.706 6  21503033.039                    21503034.352
                        40.700
                  83723226.589 7  20108833.547                    20108836.242
                        42.400
                  81514015.388 6  19619479.016                    19619480.984
                        40.500
                  97544781.056 4  23444954.570                    23444957.539
                        26.200
                  87698926.008 5  21085896.875                    21085896.531
                        32.900
 113818583.325 8  88689799.18946  21658947.617                    21658953.273
        49.500          37.100
                  89553957.009 6  21516810.242                    21516811.547
                        41.000
 127141642.939 7  99071418.47044  24194250.258                    24194253.273
        42.500          26.200
 121493183.042 7  94670085.59044  23119401.680                    23119404.391
        46.100          28.900
 118304555.063 7  92185450.26545  22512625.063                    22512628.941
        46.100          33.100
 120811097.982 6  94138477.90044  22989587.320                    22989593.313
        41.400          29.000
 115141169.792 8  89720442.08246  21910643.750                    21910646.520
        50.000          36.300
 115708981.011 7  90162896.12945  22018695.695                    22018699.051
        45.600          31.800
 110492215.003 8  86097835.23345  21025967.703                    21025971.039
        50.300          35.800
 117890795.276 7  91862985.90945  22433876.750                    22433879.352
        46.000          31.400
 18  3 15 10 11 13.0000000  0 15R09R07R16R23R24G30R17G21G07G08G27G15
                                G20G13G28
                  89305644.665 6  21502390.859                    21502389.766
                        41.500
                  83724609.755 7  20109165.727                    20109168.461
                        42.300
                  81514657.185 6  19619633.344                    19619634.801
                        40.500
                  97548315.563 4  23445804.813                    23445806.891
                        26.300
                  87700272.833 5  21086220.578                    21086220.320
                        33.000
 113820701.133 8  88691449.42946  21659350.914                    21659356.449
        49.700          37.000
                  89552083.849 6  21516360.453                    21516361.969
                        41.200
 127143837.799 7  99073128.72944  24194668.609                    24194671.316
        43.000          26.500
 121496519.925 7  94672685.76444  23120036.563                    23120039.047
        46.000          28.400
 118304163.267 7  92185144.95645  22512550.070                    22512554.270
        46.300          32.700
 120813439.395 6  94140302.37644  22990033.000                    22990038.777
        41.700          29.400
 115139574.940 8  89719199.35846  21910340.195                    21910343.262
        50.200          36.300
 115710481.888 7  90164065.62745  22018981.969                    22018984.500
        45.800          31.000
 110492311.037 8  86097910.07245  21025986.156                    21025989.078
        50.300          35.600
 117888871.783 7  91861487.07045  22433510.305                    22433513.480
        45.600          31.100
 18  3 15 10 11 14.0000000  0 15R09R07R16R23R24G30R17G21G07G08G27G15
                                G20G13G28
                  89302967.982 7  21501748.391                    21501746.168
                        42.100
                  83725993.582 6  20109498.477                    20109500.652
                        41.900
                  81515299.651 6  19619787.883                    19619789.703
                        40.400
                  97551850.380 4  23446653.773                    23446656.691
                        27.000
                  87701620.425 5  21086543.211                    21086544.207
                        33.300
 113822819.539 8  88693100.13346  21659753.703                    21659759.387
        49.800          36.300
                  89550211.293 6  21515910.008                    21515912.039
                        40.900
 127146033.185 7  99074839.41044  24195086.109                    24195088.934
        43.300          26.800
 121499857.180 7  94675286.22144  23120671.438                    23120673.996
        45.800          28.500
 118303772.294 7  92184840.27745  22512475.828                    22512480.125
        46.800          32.500
 120815781.431 7  94142127.32345  22990479.234                    22990484.668
        42.200          30.100
 115137980.742 8  89717957.14345  21910036.453                    21910040.195
        49.600          35.500
 115711983.495 7  90165235.69145  22019266.930                    22019270.129
        45.600          31.700
 110492407.788 8  86097985.46345  21026004.609                    21026007.250
        50.500          35.900
 117886948.808 7  91859988.65045  22433144.359                    22433147.410
        45.900          30.800
 18  3 15 10 11 15.0000000  0 15R09R07R16R23R24G30R17G21G07G08G27G15
                                G20G13G28
                  89300291.676 7  21501103.500                    21501102.629
                        42.700
                  83727378.116 7  20109830.422                    20109832.727
                        42.400
                  81515942.815 6  19619942.813                    19619944.211
                        40.200
                  97555385.498 4  23447502.938                    23447506.480
                        28.300
                  87702968.728 5  21086867.727                    21086868.430
                        33.400
 113824938.538 8  88694751.29046  21660157.281                    21660162.918
        49.800          36.300
                  89548339.421 6  21515461.523                    21515462.527
                        41.200
 127148229.010 7  99076550.43844  24195503.578                    24195506.793
        43.800          26.900
 121503194.823 7  94677886.97144  23121306.711                    23121309.273
        46.300          28.800
 118303381.988 7  92184536.13945  22512401.211                    22512405.336
        47.300          33.400
 120818124.142 6  94143952.78244  22990924.805                    22990930.434
        41.700          29.600
 115136387.147 8  89716715.39546  21909733.063                    21909736.242
        50.000          36.300
 115713485.724 7  90166406.23545  22019553.953                    22019556.129
        45.800          31.800
 110492505.328 8  86098061.46445  21026023.297                    21026026.055
        51.000          35.700
 117885026.310 7  91858490.60045  22432778.867                    22432781.727
        46.300          30.900
 18  3 15 10 11 16.0000000  0 15R09R07R16R23R24G30R17G21G07G08G27G15
                                G20G13G28
                  89297615.753 7  21500458.602                    21500460.090
                        42.700
                  83728763.337 7  20110163.594                    20110166.172
                        42.200
                  81516586.711 6  19620097.469                    19620099.383
                        40.500
                  97558920.877 4  23448352.867                    23448356.641
                        28.500
                  87704317.788 5  21087191.078                    21087192.672
                        33.400
 113827058.158 8  88696402.93946  21660560.664                    21660566.070
        49.600          36.700
                  89546468.147 6  21515011.773                    21515012.551
                        41.500
 127150425.330 7  99078261.86044  24195921.867                    24195924.648
        43.600          26.100
 121506532.857 7  94680488.02844  23121942.023                    23121944.785
        46.100          28.500
 118302992.437 7  92184232.58945  22512327.586                    22512331.746
        47.800          33.300
 120820467.501 6  94145778.74744  22991370.469                    22991376.188
        41.600          28.900
 115134794.216 8  89715474.15446  21909429.633                    21909433.328
        49.800          36.200
 115714988.663 7  90167577.32045  22019838.734                    22019841.836
        45.500          32.000
 110492603.592 8  86098138.04746  21026042.313                    21026044.652
        50.700          36.500
 117883104.337 7  91856992.96845  22432412.984                    22432416.012
        46.500          30.500
 18  3 15 10 11 17.0000000  0 15R09R07R16R23R24G30R17G21G07G08G27G15
                                G20G13G28
                  89294940.243 7  21499811.063                    21499815.598
                        42.400
                  83730149.215 7  20110496.164                    20110498.391
                        42.300
                  81517231.353 6  19620253.469                    19620255.008
                        40.400
                  97562456.580 4  23449203.430                    23449206.445
                        27.800
                  87705667.579 5  21087515.094                    21087517.258
                        33.000
 113829178.375 8  88698055.05846  21660964.094                    21660969.238
        49.700          36.600
                  89544597.485 6  21514562.750                    21514563.043
                        41.500
 127152622.156 7  99079973.67344  24196340.195                    24196342.824
        43.300          26.700
 121509871.310 7  94683089.41144  23122577.406                    23122579.875
        46.300          29.500
 118302603.642 8  92183929.62745  22512253.570                    22512257.660
        48.300          33.600
 120822811.475 6  94147605.20444  22991816.602                    22991822.215
        41.700          29.700
 115133201.927 8  89714233.42345  21909126.523                    21909130.531
        49.300          35.600
 115716492.344 7  90168748.97445  22020125.938                    22020128.137
        46.100          31.900
 110492702.577 8  86098215.19545  21026060.898                    21026063.684
        50.200          35.700
 117881182.915 7  91855495.76045  22432047.570                    22432050.422
        45.800          31.200
 18  3 15 10 11 18.0000000  0 15R09R07R16R23R24G30R17G21G07G08G27G15
                                G20G13G28
                  89292265.176 6  21499166.836                    21499170.590
                        41.500
                  83731535.769 7  20110829.328                    20110831.621
                        42.200
                  81517876.697 6  19620407.828                    19620410.148
                        40.400
                  97565992.549 4  23450053.555                    23450056.738
                        29.100
                  87707018.033 5  21087839.820                    21087841.816
                        32.300
 113831299.200 8  88699707.64646  21661367.758                    21661373.379
        49.400          36.500
                  89542727.438 6  21514113.133                    21514114.340
                        41.200
 127154819.469 7  99081685.85944  24196757.922                    24196760.859
        43.700          27.800
 121513210.138 7  94685691.09544  23123212.461                    23123214.813
        46.600          27.900
 118302215.604 8  92183627.25745  22512179.188                    22512184.152
        48.700          33.600
 120825156.148 6  94149432.20444  22992262.719                    22992268.488
        41.300          29.300
 115131610.270 8  89712993.18046  21908824.219                    21908827.684
        49.100          36.300
 115717996.721 7  90169921.16845  22020411.336                    22020414.582
        45.000          31.900
 110492802.315 8  86098292.92545  21026079.398                    21026082.527
        50.500          35.600
 117879262.003 7  91853998.94445  22431681.883                    22431684.785
        45.300          31.100
 18  3 15 10 11 19.0000000  0 15R09R07R16R23R24G30R17G21G07G08G27G15
                                G20G13G28
                  89289590.507 6  21498524.500                    21498525.902
                        40.500
                  83732922.971 7  20111161.672                    20111164.609
                        42.300
                  81518522.737 6  19620563.750                    19620566.000
                        40.400
                  97569528.790 4  23450902.641                    23450906.754
                        29.900
                  87708369.143 5  21088164.867                    21088166.629
                        32.200
 113833420.579 8  88701360.67346  21661771.016                    21661776.688
        49.700          36.700
                  89540857.930 6  21513664.266                    21513664.750
                        41.100
 127157017.134 7  99083398.32544  24197176.336                    24197179.496
        43.500          27.000
 121516549.300 7  94688293.03744  23123848.234                    23123850.477
        47.000          29.100
 118301828.225 8  92183325.41345  22512105.336                    22512110.266
        48.000          33.100
 120827501.352 6  94151259.62445  22992709.000                    22992714.809
        40.900          30.200
 115130019.215 8  89711753.40046  21908521.641                    21908524.898
        49.500          36.500
 115719501.726 7  90171093.84845  22020698.531                    22020700.969
        45.400          31.700
 110492902.710 8  86098371.15345  21026098.273                    21026101.891
        50.200          35.700
 117877341.492 7  91852502.43945  22431316.078                    22431319.488
        43.900          30.900
 18  3 15 10 11 20.0000000  0 15R09R07R16R23R24G30R17G21G07G08G27G15
                                G20G13G28
                  89286916.225 6  21497881.836                    21497880.730
                        40.200
                  83734310.896 7  20111496.391                    20111498.066
                        42.100
                  81519169.473 6  19620719.391                    19620721.512
                        40.300
                  97573065.343 5  23451751.953                    23451756.781
                        30.000
                  87709720.968 5  21088491.094                    21088491.797
                        32.600
 113835542.567 8  88703014.17146  21662174.906                    21662180.625
        49.800          36.700
                  89538989.069 6  21513215.141                    21513215.602
                        41.100
 127159215.310 7  99085111.18544  24197594.836                    24197597.684
        44.000          27.400
 121519888.847 7  94690895.28244  23124483.555                    23124486.063
        46.900          28.400
 118301441.580 8  92183024.13845  22512031.797                    22512036.613
        48.200          33.400
 120829847.245 6  94153087.58745  22993155.430                    22993161.371
        40.700          30.000
 115128428.796 8  89710514.11846  21908218.953                    21908222.305
        49.500          36.100
 115721007.438 7  90172267.08845  22020984.609                    22020987.914
        45.200          31.900
 110493003.894 8  86098449.99445  21026117.258                    21026120.898
        49.500          35.900
 117875421.506 7  91851006.35445  22430950.008                    22430953.914
        43.700          31.400
 18  3 15 10 11 21.0000000  0 15R09R07R16R23R24G30R17G21G07G08G27G15
                                G20G13G28
                  89284242.343 6  21497239.133                    21497236.090
                        40.400
                  83735699.507 7  20111829.797                    20111832.422
                        42.100
                  81519816.933 6  19620876.188                    19620877.809
                        40.200
                  97576602.201 4  23452603.156                    23452607.523
                        28.800
                  87711073.648 5  21088816.633                    21088816.941
                        32.900
 113837665.174 8  88704668.15846  21662578.664                    21662584.500
        49.900          36.500
                  89537120.864 6  21512765.188                    21512767.176
                        41.300
 127161413.978 7  99086824.43344  24198013.195                    24198015.957
        44.200          26.000
 121523228.803 7  94693497.85144  23125119.133                    23125121.605
        47.000          28.200
 118301055.693 8  92182723.45045  22511958.102                    22511963.152
        48.700          33.600
 120832193.791 6  94154916.04944  22993601.906                    22993607.871
        40.800          29.400
 115126839.046 8  89709275.35245  21907915.977                    21907919.449
        48.800          35.500
 115722513.918 7  90173440.92945  22021271.672                    22021274.070
        44.700          31.900
 110493105.852 8  86098529.45246  21026136.680                    21026140.332
        49.500          36.400
 117873502.073 7  91849510.70645  22430585.391                    22430588.406
        44.900          30.300
 18  3 15 10 11 22.0000000  0 15R09R07R16R23R24G30R17G21G07G08G27G15
                                G20G13G28
                  89281568.775 6  21496595.461                    21496592.004
                        41.200
                  83737088.833 7  20112162.469                    20112165.020
                        42.100
                  81520465.076 6  19621031.594                    19621033.289
                        40.200
                  97580139.357 4  23453453.109                    23453457.156
                        28.600
                  87712427.150 5  21089143.195                    21089142.082
                        32.900
 113839788.355 8  88706322.57946  21662982.680                    21662988.316
        49.600          37.000
                  89535253.263 6  21512315.758                    21512318.816
                        41.400
 127163613.145 7  99088538.07244  24198431.508                    24198434.281
        44.500          25.500
 121526569.161 7  94696100.72644  23125754.648                    23125757.563
        47.300          29.300
 118300670.499 8  92182423.29045  22511884.945                    22511889.797
        48.800          33.600
 120834540.947 6  94156744.99145  22994048.391                    22994054.758
        40.900          30.000
 115125249.928 8  89708037.08345  21907613.445                    21907617.301
        48.800          35.300
 115724021.128 7  90174615.36145  22021558.203                    22021561.113
        44.500          32.300
 110493208.525 8  86098609.47646  21026156.492                    21026159.762
        49.900          36.200
 117871583.143 7  91848015.45345  22430221.656                    22430223.547
        46.300          31.000
 18  3 15 10 11 23.0000000  0 15R09R07R16R23R24G30R17G21G07G08G27G15
                                G20G13G28
                  89278895.589 7  21495950.969                    21495948.648
                        42.100
                  83738478.889 7  20112497.141                    20112499.570
                        42.100
                  81521113.963 6  19621187.984                    19621189.117
                        39.800
                  97583676.837 5  23454302.680                    23454307.520
                        30.100
                  87713781.359 5  21089468.398                    21089468.457
                        32.800
 113841912.191 8  88707977.51546  21663387.047                    21663392.730
        48.900          37.200
                  89533386.323 6  21511867.633                    21511869.297
                        41.000
 127165812.769 7  99090252.06844  24198850.281                    24198852.750
        43.800          27.300
 121529909.890 7  94698703.88744  23126390.602                    23126393.172
        46.300          27.800
 118300286.078 8  92182123.72745  22511811.820                    22511816.547
        49.100          33.500
 120836888.777 6  94158574.46644  22994495.172                    22994501.492
        41.400          29.400
 115123661.490 8  89706799.35145  21907311.461                    21907315.074
        48.700          35.100
 115725529.075 7  90175790.38845  22021844.734                    22021848.277
        44.600          31.800
 110493311.981 8  86098690.11246  21026176.711                    21026179.629
        49.500          36.400
 117869664.767 7  91846520.61245  22429856.969                    22429858.367
        47.500          31.300
 18  3 15 10 11 24.0000000  0 15R09R07R16R23R24G30R17G21G07G08G27G15
                                G20G13G28
                  89276222.796 7  21495305.344                    21495307.313
                        42.700
                  83739869.638 7  20112830.867                    20112833.289
                        42.300
                  81521763.517 6  19621344.422                    19621346.348
                        40.200
                  97587214.577 4  23455153.133                    23455157.930
                        29.900
                  87715136.358 5  21089794.438                    21089793.758
                        33.400
 113844036.587 8  88709632.88946  21663791.133                    21663797.070
        49.000          37.300
                  89531520.012 6  21511419.813                    21511420.957
                        41.000
 127168012.862 7  99091966.42944  24199268.734                    24199271.230
        43.500          26.500
 121533250.996 7  94701307.34244  23127026.492                    23127028.754
        46.200          28.200
 118299902.361 8  92181824.72445  22511738.305                    22511743.840
        49.300          33.600
 120839237.215 6  94160404.39944  22994942.094                    22994948.141
        41.300          29.300
 115122073.649 8  89705562.08345  21907009.477                    21907012.816
        49.400          35.700
 115727037.685 7  90176965.93545  22022132.438                    22022135.340
        44.100          31.700
 110493416.102 8  86098771.27646  21026196.484                    21026199.148
        49.700          36.300
 117867746.874 7  91845026.12345  22429491.148                    22429493.262
        47.500          31.300
 18  3 15 10 11 25.0000000  0 15R09R07R16R23R24G30R17G21G07G08G27G15
                                G20G13G28
                  89273550.458 7  21494661.313                    21494665.527
                        42.800
                  83741261.095 7  20113165.180                    20113167.262
                        42.200
                  81522413.820 6  19621500.664                    19621502.484
                        40.200
                  97590752.650 4  23456005.008                    23456008.500
                        27.900
                  87716492.154 5  21090119.570                    21090120.320
                        32.800
 113846161.606 8  88711288.74746  21664195.891                    21664201.582
        49.500          37.100
                  89529654.324 6  21510971.883                    21510972.461
                        41.300
 127170213.440 7  99093681.15944  24199687.289                    24199690.117
        43.200          25.600
 121536592.495 7  94703911.10644  23127661.930                    23127664.926
        46.100          28.200
 118299519.423 8  92181526.31945  22511665.313                    22511670.719
        49.400          33.600
 120841586.254 6  94162234.80444  22995389.227                    22995395.258
        41.400          29.700
 115120486.454 8  89704325.31345  21906707.641                    21906710.828
        48.700          35.200
 115728547.021 7  90178142.05345  22022420.070                    22022422.438
        43.900          31.900
 110493521.002 8  86098853.04445  21026216.297                    21026219.273
        49.600          35.800
 117865829.513 7  91843532.04545  22429126.398                    22429128.582
        46.200          31.400
 18  3 15 10 11 26.0000000  0 15R09R07R16R23R24G30R17G21G07G08G27G15
                                G20G13G28
                  89270878.596 7  21494018.383                    21494022.152
                        42.500
                  83742653.297 7  20113498.773                    20113501.719
                        42.100
                  81523064.861 6  19621657.289                    19621658.980
                        40.200
                  97594291.035 4  23456854.352                    23456858.320
                        29.200
                  87717848.710 5  21090445.305                    21090446.242
                        32.500
 113848287.240 8  88712945.09046  21664600.352                    21664606.168
        49.800          36.800
                  89527789.250 6  21510524.352                    21510524.602
                        41.100
 127172414.541 7  99095396.30044  24200106.539                    24200108.879
        43.100          27.200
 121539934.426 7  94706515.20944  23128297.789                    23128300.777
        46.600          29.600
 118299137.209 8  92181228.47945  22511592.461                    22511598.223
        49.000          33.900
 120843936.050 6  94164065.79644  22995836.586                    22995842.488
        41.600          28.900
 115118899.938 8  89703089.06445  21906405.328                    21906408.961
        48.800          34.900
 115730057.057 7  90179318.70445  22022707.133                    22022709.906
        43.800          31.300
 110493626.693 8  86098935.42345  21026236.555                    21026239.379
        49.800          35.800
 117863912.668 7  91842038.37945  22428760.023                    22428764.434
        44.300          31.000
 18  3 15 10 11 27.0000000  0 15R09R07R16R23R24G30R17G21G07G08G27G15
                                G20G13G28
                  89268207.145 7  21493376.992                    21493378.867
                        42.300
                  83744046.191 7  20113834.344                    20113835.895
                        42.200
                  81523716.619 6  19621814.281                    19621815.676
                        40.100
                  97597829.723 4  23457705.070                    23457708.852
                        27.800
                  87719206.026 5  21090772.008                    21090773.004
                        32.900
 113850413.505 8  88714601.91046  21665005.031                    21665010.367
        49.700          37.100
                  89525924.725 6  21510076.742                    21510076.750
                        41.200
 127174616.096 7  99097111.79744  24200525.453                    24200527.688
        42.900          26.700
 121543276.759 7  94709119.62744  23128933.984                    23128936.648
        45.800          28.900
 118298755.735 8  92180931.21245  22511519.359                    22511525.441
        48.200          34.200
 120846286.489 6  94165897.29644  22996283.781                    22996290.254
        40.900          28.600
 115117314.077 8  89701853.32945  21906103.438                    21906107.191
        48.300          35.000
 115731567.807 7  90180495.89845  22022995.008                    22022997.336
        44.400          30.900
 110493733.093 8  86099018.34745  21026256.258                    21026259.777
        49.200          35.600
 117861996.317 7  91840545.12545  22428394.977                    22428399.355
        42.900          30.500
 18  3 15 10 11 28.0000000  0 15R09R07R16R23R24G30R17G21G07G08G27G15
                                G20G13G28
                  89265536.096 6  21492734.570                    21492735.727
                        41.500
                  83745439.779 7  20114168.867                    20114170.797
                        42.200
                  81524369.112 6  19621970.930                    19621972.730
                        40.400
                  97601368.733 4  23458557.719                    23458559.906
                        27.700
                  87720564.140 5  21091097.859                    21091098.855
                        33.000
 113852540.417 8  88716259.24346  21665409.586                    21665415.262
        50.100          36.900
                  89524060.841 6  21509629.078                    21509629.188
                        40.900
 127176818.157 7  99098827.67244  24200944.781                    24200947.020
        43.400          25.300
 121546619.514 7  94711724.37544  23129569.891                    23129573.078
        45.500          28.000
 118298375.057 8  92180634.56345  22511446.695                    22511453.059
        48.100          34.100
 120848637.592 6  94167729.33444  22996731.258                    22996737.473
        40.300          28.500
 115115728.907 8  89700618.13845  21905801.672                    21905805.340
        48.700          35.700
 115733079.297 7  90181673.66545  22023282.289                    22023284.988
        44.700          31.400
 110493840.268 8  86099101.87245  21026276.578                    21026279.863
        49.600          35.800
 117860080.510 7  91839052.31845  22428031.227                    22428034.559
        43.900          30.500
 18  3 15 10 11 29.0000000  0 15R09R07R16R23R24G30R17G21G07G08G27G15
                                G20G13G28
                  89262865.448 6  21492090.961                    21492092.492
                        40.500
                  83746834.090 7  20114503.008                    20114505.840
                        42.300
                  81525022.338 6  19622128.375                    19622130.316
                        40.500
                  97604908.054 4  23459406.727                    23459410.160
                        28.100
                  87721923.013 5  21091424.680                    21091425.438
                        32.500
 113854667.965 8  88717917.07746  21665814.461                    21665820.109
        49.600          36.300
                  89522197.650 6  21509180.109                    21509182.066
                        41.600
 127179020.755 7  99100543.97844  24201363.523                    24201366.113
        43.900          27.100
 121549962.688 7  94714329.45444  23130206.203                    23130208.660
        45.500          28.500
 118297995.146 7  92180338.50845  22511374.430                    22511380.672
        47.900          33.600
 120850989.289 6  94169561.83944  22997178.586                    22997184.848
        41.000          28.500
 115114144.413 8  89699383.47145  21905500.195                    21905503.969
        48.700          35.900
 115734591.544 7  90182852.01745  22023569.500                    22023572.559
        44.800          31.400
 110493948.216 8  86099185.98745  21026297.047                    21026300.418
        49.100          35.800
 117858165.281 7  91837559.97145  22427668.156                    22427670.258
        45.400          30.000
 18  3 15 10 11 30.0000000  0 15R09R07R16R23R24G30R17G21G07G08G27G15
                                G20G13G28
                  89260195.159 6  21491448.109                    21491448.340
                        39.900
                  83748229.094 7  20114838.898                    20114840.945
                        42.300
                  81525676.279 6  19622285.477                    19622287.949
                        40.600
                  97608447.698 4  23460257.438                    23460260.957
                        26.300
                  87723282.675 5  21091751.586                    21091752.621
                        32.900
 113856796.143 8  88719575.39446  21666219.563                    21666224.945
        50.200          36.900
                  89520335.122 6  21508732.516                    21508735.121
                        41.400
 127181223.818 7  99102260.64244  24201783.266                    24201785.691
        43.600          26.800
 121553306.255 7  94716934.84044  23130842.273                    23130845.539
        45.700          29.300
 118297615.991 7  92180043.04245  22511302.008                    22511308.949
        47.400          34.200
 120853341.792 6  94171394.96244  22997626.109                    22997632.453
        40.800          28.100
 115112560.579 8  89698149.32346  21905199.375                    21905202.469
        49.000          36.200
 115736104.519 7  90184030.94545  22023858.242                    22023860.773
        45.400          32.100
 110494056.917 8  86099270.69045  21026318.242                    21026321.105
        49.300          35.900
 117856250.603 7  91836068.02545  22427304.102                    22427306.004
        47.000          30.700
 18  3 15 10 11 31.0000000  0 15R09R07R16R23R24G30R17G21G07G08G27G15
                                G20G13G28
                  89257525.280 6  21490804.766                    21490803.922
                        40.300
                  83749624.819 7  20115173.656                    20115175.926
                        42.300
                  81526330.971 6  19622443.859                    19622445.410
                        40.400
                  97611987.633 4  23461108.492                    23461112.188
                        27.000
                  87724643.098 5  21092078.625                    21092079.711
                        32.800
 113858924.898 8  88721234.16746  21666624.820                    21666630.180
        50.100          36.700
                  89518473.250 6  21508283.977                    21508287.375
                        41.600
 127183427.361 7  99103977.67844  24202202.852                    24202205.012
        42.900          25.800
 121556650.230 7  94719540.53044  23131478.758                    23131481.559
        46.100          27.900
 118297237.587 7  92179748.16645  22511230.375                    22511236.918
        46.600          34.200
 120855694.867 6  94173228.53044  22998073.938                    22998080.090
        40.800          28.300
 115110977.401 8  89696915.68345  21904897.508                    21904901.367
        49.100          35.700
 115737618.229 7  90185210.46745  22024145.711                    22024148.570
        44.500          31.400
 110494166.334 8  86099355.94545  21026339.391                    21026341.949
        49.600          35.900
 117854336.455 7  91834576.46845  22426939.727                    22426941.598
        47.200          30.400
 18  3 15 10 11 32.0000000  0 15R09R07R16R23R24G30R17G21G07G08G27G15
                                G20G13G28
                  89254855.855 6  21490160.539                    21490161.461
                        40.900
                  83751021.261 7  20115509.414                    20115511.113
                        42.400
                  81526986.408 6  19622601.680                    19622603.059
                        40.400
                  97615527.903 4  23461959.461                    23461963.063
                        26.100
                  87726004.281 5  21092405.922                    21092406.164
                        33.400
 113861054.322 8  88722893.46746  21667029.906                    21667035.117
        50.300          36.600
                  89516612.041 6  21507837.063                    21507840.043
                        41.400
 127185631.423 7  99105695.12044  24202621.711                    24202624.227
        43.000          27.300
 121559994.646 7  94722146.57044  23132115.313                    23132118.121
        45.600          27.300
 118296859.983 7  92179453.91545  22511158.563                    22511164.824
        46.500          34.500
 120858048.598 6  94175062.60844  22998522.109                    22998528.320
        39.900          27.700
 115109394.899 8  89695682.56846  21904596.602                    21904600.000
        49.000          36.000
 115739132.657 7  90186390.55345  22024434.078                    22024437.344
        44.500          31.700
 110494276.540 8  86099441.81945  21026360.266                    21026362.824
        49.600          35.900
 117852422.837 7  91833085.31345  22426575.203                    22426577.430
        47.000          30.400
 18  3 15 10 11 33.0000000  0 15R09R07R16R23R24G30R17G21G07G08G27G15
                                G20G13G28
                  89252186.863 6  21489518.211                    21489519.211
                        41.500
                  83752418.439 7  20115844.320                    20115846.992
                        42.200
                  81527642.574 6  19622758.828                    19622761.121
                        40.000
                  97619068.479 4  23462808.359                    23462813.313
                        26.000
                  87727366.178 5  21092733.750                    21092733.891
                        33.100
 113863184.371 8  88724553.24346  21667434.992                    21667440.969
        50.100          37.000
                  89514751.443 6  21507390.719                    21507392.449
                        41.400
 127187835.968 7  99107412.93144  24203041.367                    24203043.945
        43.500          26.800
 121563339.446 7  94724752.91044  23132751.883                    23132754.512
        45.900          28.700
 118296483.121 7  92179160.24645  22511087.141                    22511092.859
        46.500          34.100
 120860403.025 6  94176897.23444  22998969.625                    22998976.176
        40.400          28.200
 115107813.069 8  89694449.97945  21904295.789                    21904298.922
        49.100          35.700
 115740647.840 7  90187571.22845  22024722.492                    22024725.348
        44.300          32.400
 110494387.521 8  86099528.30345  21026381.258                    21026383.973
        49.800          35.400
 117850509.753 7  91831594.57445  22426209.711                    22426213.555
        45.400          30.500
 18  3 15 10 11 34.0000000  0 15R09R07R16R23R24G30R17G21G07G08G27G15
                                G20G13G28
                  89249518.258 6  21488876.867                    21488877.031
                        41.800
                  83753816.214 7  20116180.492                    20116182.613
                        42.200
                  81528299.415 6  19622917.195                    19622919.027
                        40.200
                  97622609.360 3  23463660.563                    23463665.137
                        23.000
                  87728728.777 5  21093061.211                    21093061.910
                        32.500
 113865314.975 8  88726213.45546  21667840.078                    21667846.414
        49.800          36.600
                  89512891.436 6  21506943.664                    21506944.973
                        41.200
 127190041.025 7  99109131.15244  24203460.422                    24203463.336
        43.900          27.100
 121566684.633 7  94727359.55144  23133388.609                    23133391.469
        45.800          28.100
 118296106.987 7  92178867.14945  22511015.641                    22511021.406
        46.900          34.500
 120862758.042 6  94178732.31344  22999418.461                    22999424.336
        40.900          28.600
 115106231.896 8  89693217.91046  21903994.258                    21903997.922
        49.400          36.300
 115742163.688 7  90188752.41745  22025011.391                    22025013.609
        44.700          30.400
 110494499.225 8  86099615.34646  21026402.148                    21026405.027
        50.200          36.200
 117848597.147 7  91830104.22445  22425845.922                    22425849.363
        45.500          30.800
 18  3 15 10 11 35.0000000  0 15R09R07R16R23R24G30R17G21G07G08G27G15
                                G20G13G28
                  89246850.033 6  21488234.492                    21488235.574
                        41.700
                  83755214.638 7  20116515.711                    20116518.535
                        42.100
                  81528956.938 6  19623075.891                    19623076.918
                        40.200
                  97626150.484 4  23464511.625                    23464515.852
                        24.000
                  87730092.062 5  21093389.383                    21093389.434
                        33.400
 113867446.136 8  88727874.09846  21668245.719                    21668251.500
        50.000          36.400
                  89511031.983 6  21506496.945                    21506497.832
                        41.300
 127192246.450 7  99110849.67244  24203880.555                    24203882.914
        43.800          27.600
 121570030.116 7  94729966.43344  23134024.891                    23134028.199
        46.000          28.700
 118295731.524 7  92178574.57645  22510944.477                    22510949.973
        47.000          33.600
 120865113.635 6  94180567.84044  22999866.672                    22999872.762
        41.100          26.900
 115104651.249 8  89691986.25145  21903694.148                    21903697.449
        49.200          35.400
 115743680.159 7  90189934.08445  22025299.133                    22025302.406
        44.700          31.700
 110494611.555 8  86099702.88146  21026423.586                    21026426.887
        50.200          36.200
 117846684.991 7  91828614.24045  22425482.563                    22425485.508
        46.100          31.000
 18  3 15 10 11 36.0000000  0 15R09R07R16R23R24G30R17G21G07G08G27G15
                                G20G13G28
                  89244182.208 6  21487591.547                    21487593.746
                        41.800
                  83756613.761 7  20116852.063                    20116854.313
                        42.200
                  81529615.177 6  19623233.477                    19623235.711
                        40.200
                  97629691.894 3  23465362.273                    23465366.777
                        22.700
                  87731456.090 5  21093717.680                    21093716.855
                        32.600
 113869577.897 8  88729535.20846  21668651.453                    21668657.430
        50.000          36.500
                  89509173.122 6  21506050.000                    21506051.000
                        41.300
 127194452.375 7  99112568.57044  24204300.438                    24204302.566
        43.600          27.500
 121573376.000 7  94732573.61044  23134661.555                    23134664.828
        45.800          28.200
 118295356.828 7  92178282.61145  22510873.313                    22510878.699
        47.300          33.900
 120867469.868 6  94182403.85944  23000314.633                    23000320.301
        40.500          28.100
 115103071.270 8  89690755.10645  21903393.211                    21903396.500
        49.300          35.500
 115745197.359 7  90191116.32845  22025587.797                    22025591.082
        44.700          31.400
 110494724.667 8  86099791.02045  21026444.984                    21026448.215
        49.500          35.800
 117844773.367 7  91827124.68545  22425119.227                    22425121.750
        46.300          30.600
 18  3 15 10 11 37.0000000  0 15R09R07R16R23R24G30R17G21G07G08G27G15
                                G20G13G28
                  89241514.751 6  21486948.711                    21486951.586
                        41.500
                  83758013.585 7  20117188.633                    20117190.820
                        42.200
                  81530274.139 6  19623392.844                    19623394.184
                        40.200
                  97633233.654 3  23466213.484                    23466217.840
                        23.500
                  87732820.894 5  21094045.977                    21094045.852
                        32.800
 113871710.287 8  88731196.81046  21669057.594                    21669063.277
        50.000          36.500
                  89507314.877 6  21505603.484                    21505604.344
                        41.800
 127196658.769 7  99114287.83544  24204720.102                    24204722.441
        43.200          26.200
 121576722.270 7  94735181.09644  23135298.477                    23135301.398
        45.900          28.700
 118294982.892 7  92177991.25845  22510802.055                    22510807.973
        47.600          34.000
 120869826.735 6  94184240.37444  23000762.984                    23000769.293
        40.900          27.500
 115101491.972 8  89689524.48946  21903092.859                    21903096.254
        49.200          36.100
 115746715.263 7  90192299.11945  22025876.859                    22025879.660
        44.300          31.200
 110494838.524 8  86099879.73846  21026466.609                    21026469.719
        49.800          36.000
 117842862.280 7  91825635.53145  22424756.023                    22424757.926
        46.400          30.700
 18  3 15 10 11 38.0000000  0 15R09R07R16R23R24G30R17G21G07G08G27G15
                                G20G13G28
                  89238847.696 6  21486305.852                    21486308.805
                        41.100
                  83759414.116 7  20117525.578                    20117527.125
                        42.300
                  81530933.801 6  19623551.156                    19623553.031
                        40.200
                  97636775.649 4  23467064.523                    23467068.719
                        24.900
                  87734186.466 5  21094373.586                    21094374.055
                        32.800
 113873843.268 8  88732858.86946  21669463.523                    21669469.195
        49.600          36.500
                  89505457.269 6  21505156.188                    21505158.590
                        41.800
 127198865.632 7  99116007.45344  24205139.875                    24205142.547
        43.500          27.200
 121580068.933 7  94737788.88144  23135935.266                    23135938.355
        46.100          28.900
 118294609.651 7  92177700.45145  22510731.125                    22510736.965
        47.800          34.000
 120872184.271 6  94186077.40444  23001211.422                    23001217.426
        41.100          28.000
 115099913.347 8  89688294.39045  21902792.297                    21902795.723
        48.900          35.300
 115748233.916 7  90193482.49245  22026166.172                    22026168.758
        44.300          32.200
 110494953.104 8  86099969.01746  21026488.563                    21026491.617
        49.900          36.200
 117840951.706 7  91824146.76045  22424391.648                    22424394.707
        45.300          30.600
 18  3 15 10 11 39.0000000  0 15R09R07R16R23R24G30R17G21G07G08G27G15
                                G20G13G28
                  89236181.102 6  21485665.109                    21485665.688
                        40.800
                  83760815.363 7  20117861.188                    20117864.016
                        42.200
                  81531594.177 6  19623710.117                    19623712.145
                        40.000
                  97640317.973 4  23467917.523                    23467919.707
                        25.700
                  87735552.819 5  21094701.047                    21094703.191
                        33.100
 113875976.894 8  88734521.43946  21669869.641                    21669875.387
        49.900          37.300
                  89503600.327 7  21504710.234                    21504712.766
                        42.200
 127201073.027 7  99117727.49144  24205560.117                    24205562.457
        43.300          27.100
 121583416.030 7  94740397.00744  23136572.070                    23136575.203
        46.400          28.400
 118294237.208 8  92177410.26045  22510660.438                    22510666.289
        48.100          34.400
 120874542.451 6  94187914.94144  23001660.570                    23001666.262
        41.100          27.400
 115098335.361 8  89687064.79346  21902492.016                    21902495.617
        49.400          36.000
 115749753.256 7  90194666.40845  22026455.578                    22026457.555
        44.800          31.800
 110495068.458 8  86100058.88345  21026510.641                    21026513.469
        50.200          35.900
 117839041.642 7  91822658.39445  22424027.781                    22424031.371
        44.100          30.800
 18  3 15 10 11 40.0000000  0 15R09R07R16R23R24G30R17G21G07G08G27G15
                                G20G13G28
                  89233514.895 6  21485023.883                    21485022.875
                        40.600
                  83762217.355 7  20118198.695                    20118200.480
                        42.200
                  81532255.293 6  19623868.625                    19623870.914
                        40.400
                  97643860.604 4  23468768.820                    23468771.602
                        28.700
                  87736919.940 5  21095029.953                    21095031.422
                        32.800
 113878111.145 8  88736184.48846  21670275.523                    21670281.137
        50.100          36.100
                  89501744.066 7  21504265.109                    21504267.672
                        42.300
 127203280.934 7  99119447.93344  24205980.172                    24205982.883
        43.800          27.000
 121586763.557 7  94743005.47044  23137209.461                    23137212.328
        46.600          28.800
 118293865.494 7  92177120.63745  22510589.813                    22510595.539
        47.600          33.600
 120876901.351 6  94189753.04644  23002110.055                    23002115.090
        41.400          29.200
 115096758.068 8  89685835.73346  21902191.484                    21902195.457
        49.800          36.300
 115751273.304 7  90195850.86745  22026744.445                    22026747.445
        44.500          31.400
 110495184.604 8  86100149.37646  21026532.945                    21026535.594
        50.200          36.300
 117837132.113 7  91821170.46445  22423664.289                    22423667.758
        44.400          31.300
 18  3 15 10 11 41.0000000  0 15R09R07R16R23R24G30R17G21G07G08G27G15
                                G20G13G28
                  89230849.092 6  21484382.469                    21484380.887
                        40.900
                  83763620.025 7  20118535.148                    20118537.215
                        42.200
                  81532917.116 6  19624028.289                    19624030.395
                        40.200
                  97647403.501 4  23469619.383                    23469623.504
                        27.300
                  87738287.769 5  21095358.805                    21095360.723
                        33.600
 113880246.009 8  88737848.02946  21670681.797                    21670687.441
        49.700          37.100
                  89499888.424 7  21503819.922                    21503821.672
                        42.300
 127205489.301 7  99121168.74144  24206400.664                    24206403.180
        43.900          28.000
 121590111.437 7  94745614.20444  23137846.602                    23137849.066
        46.500          28.900
 118293494.484 7  92176831.54145  22510518.789                    22510524.457
        47.600          33.900
 120879260.883 6  94191591.64844  23002558.789                    23002564.621
        40.900          27.900
 115095181.394 8  89684607.15245  21901891.992                    21901895.055
        49.900          35.900
 115752794.087 7  90197035.89245  22027033.305                    22027036.371
        44.400          31.400
 110495301.462 8  86100240.43545  21026554.867                    21026557.926
        50.000          35.400
 117835223.122 7  91819682.95945  22423302.070                    22423304.516
        45.500          31.000
 18  3 15 10 11 42.0000000  0 15R09R07R16R23R24G30R17G21G07G08G27G15
                                G20G13G28
                  89228183.666 6  21483740.398                    21483739.391
                        41.000
                  83765023.411 7  20118871.297                    20118874.773
                        42.000
                  81533579.676 6  19624187.078                    19624189.711
                        40.200
                  97650946.729 4  23470472.094                    23470474.918
                        27.500
                  87739656.313 5  21095687.156                    21095689.422
                        33.100
 113882381.468 8  88739512.02446  21671088.109                    21671093.719
        49.500          36.900
                  89498033.383 6  21503374.477                    21503376.691
                        41.900
 127207698.150 7  99122889.91844  24206821.109                    24206823.773
        43.100          28.100
 121593459.711 7  94748223.25544  23138483.625                    23138486.453
        46.600          27.900
 118293124.266 7  92176543.04845  22510448.297                    22510454.199
        47.800          33.600
 120881621.025 6  94193430.73044  23003007.758                    23003013.547
        41.300          27.800
 115093605.369 8  89683379.07745  21901592.234                    21901595.090
        49.800          35.500
 115754315.603 7  90198221.48345  22027323.445                    22027326.059
        44.600          32.100
 110495419.061 8  86100332.07445  21026577.000                    21026580.000
        49.900          35.800
 117833314.680 7  91818195.87745  22422939.430                    22422941.305
        47.300          31.300
 18  3 15 10 11 43.0000000  0 15R09R07R16R23R24G30R17G21G07G08G27G15
                                G20G13G28
                  89225518.617 7  21483097.477                    21483098.813
                        42.100
                  83766427.497 7  20119209.695                    20119211.656
                        42.400
                  81534242.958 6  19624347.742                    19624349.195
                        40.300
                  97654490.248 4  23471322.805                    23471327.488
                        27.200
                  87741025.646 5  21096015.961                    21096018.875
                        33.600
 113884517.560 8  88741176.51846  21671494.719                    21671500.391
        48.800          36.900
                  89496178.948 6  21502928.945                    21502931.633
                        41.400
 127209907.476 7  99124611.46444  24207241.211                    24207243.852
        42.300          26.200
 121596808.385 7  94750832.61544  23139120.953                    23139123.617
        46.100          28.200
 118292754.766 7  92176255.12445  22510378.055                    22510383.719
        47.900          34.400
 120883981.815 6  94195270.30944  23003457.359                    23003462.555
        41.600          27.100
 115092030.005 8  89682151.52245  21901292.391                    21901295.563
        49.800          35.400
 115755837.811 7  90199407.62745  22027612.633                    22027615.809
        44.500          31.200
 110495537.425 8  86100424.30345  21026599.789                    21026602.824
        49.700          35.800
 117831406.743 7  91816709.17545  22422576.930                    22422578.340
        47.300          31.400
 18  3 15 10 11 44.0000000  0 15R09R07R16R23R24G30R17G21G07G08G27G15
                                G20G13G28
                  89222854.043 7  21482455.328                    21482458.875
                        42.200
                  83767832.305 7  20119546.719                    20119549.258
                        42.300
                  81534906.964 6  19624507.820                    19624509.449
                        40.400
                  97658034.091 4  23472174.820                    23472179.387
                        29.100
                  87742395.755 5  21096345.352                    21096348.336
                        32.400
 113886654.249 8  88742841.46646  21671901.375                    21671906.988
        49.100          36.700
                  89494325.159 6  21502484.258                    21502485.027
                        41.700
 127212117.271 7  99126333.37444  24207661.281                    24207664.227
        42.400          26.900
 121600157.476 7  94753442.29944  23139757.914                    23139760.859
        45.700          28.500
 118292386.037 8  92175967.80245  22510307.719                    22510313.492
        48.000          33.800
 120886343.317 6  94197110.45644  23003906.234                    23003911.820
        41.200          27.900
 115090455.292 8  89680924.47645  21900992.563                    21900996.141
        49.300          35.700
 115757360.729 7  90200594.33245  22027903.406                    22027905.582
        44.600          32.200
 110495656.557 8  86100517.13646  21026622.609                    21026625.395
        50.000          36.100
 117829499.349 7  91815222.86445  22422213.141                    22422215.406
        47.200          30.600
 18  3 15 10 11 45.0000000  0 15R09R07R16R23R24G30R17G21G07G08G27G15
                                G20G13G28
                  89220189.907 7  21481814.656                    21481817.797
                        42.600
                  83769237.799 7  20119884.633                    20119886.824
                        42.400
                  81535571.684 6  19624667.859                    19624669.313
                        40.100
                  97661578.250 4  23473026.352                    23473031.375
                        29.100
                  87743766.615 5  21096675.727                    21096677.781
                        32.600
 113888791.586 8  88744506.92046  21672307.719                    21672313.309
        49.500          36.500
                  89492472.024 6  21502037.797                    21502039.711
                        41.400
 127214327.564 7  99128055.66744  24208082.320                    24208085.148
        43.200          26.900
 121603506.973 7  94756052.30444  23140395.500                    23140398.402
        46.200          28.700
 118292018.129 8  92175681.12945  22510237.430                    22510243.484
        48.200          34.000
 120888705.395 6  94198951.04044  23004356.109                    23004361.770
        41.100          28.700
 115088881.278 8  89679697.97445  21900692.867                    21900696.641
        49.600          35.800
 115758884.368 7  90201781.60545  22028192.336                    22028195.910
        44.100          32.200
 110495776.457 8  86100610.57045  21026645.633                    21026648.516
        50.200          35.800
 117827592.498 7  91813736.97545  22421849.375                    22421852.547
        45.800          30.700
 18  3 15 10 11 46.0000000  0 15R09R07R16R23R24G30R17G21G07G08G27G15
                                G20G13G28
                  89217526.173 7  21481173.898                    21481176.426
                        42.100
                  83770643.978 7  20120222.266                    20120224.504
                        42.300
                  81536237.106 6  19624828.328                    19624829.949
                        40.000
                  97665122.711 4  23473878.781                    23473883.113
                        29.300
                  87745138.214 5  21097006.297                    21097007.422
                        33.100
 113890929.518 8  88746172.83846  21672714.828                    21672720.922
        49.900          36.600
                  89490619.504 6  21501591.578                    21501593.762
                        41.200
 127216538.320 7  99129778.32744  24208502.789                    24208505.480
        42.600          26.000
 121606856.860 7  94758662.61344  23141032.586                    23141035.543
        45.500          28.000
 118291650.934 8  92175395.03345  22510167.734                    22510173.742
        48.000          33.800
 120891068.162 6  94200792.16444  23004805.570                    23004811.133
        41.400          28.000
 115087307.905 8  89678471.97046  21900393.297                    21900396.762
        49.900          36.100
 115760408.713 7  90202969.41745  22028482.969                    22028485.250
        44.800          31.400
 110495897.108 8  86100704.59546  21026668.586                    21026671.215
        49.900          36.000
 117825686.116 7  91812251.45645  22421485.367                    22421489.781
        43.400          30.000
 18  3 15 10 11 47.0000000  0 15R09R07R16R23R24G30R17G21G07G08G27G15
                                G20G13G28
                  89214862.851 6  21480532.805                    21480534.340
                        41.100
                  83772050.828 6  20120560.063                    20120562.031
                        41.900
                  81536903.220 6  19624987.594                    19624989.664
                        40.200
                  97668667.422 5  23474730.492                    23474734.723
                        30.000
                  87746510.521 5  21097337.430                    21097337.637
                        32.900
 113893068.009 8  88747839.20046  21673121.914                    21673127.449
        50.100          36.500
                  89488767.594 6  21501146.805                    21501147.742
                        41.000
 127218749.554 7  99131501.34844  24208924.055                    24208926.773
        43.400          26.700
 121610207.109 7  94761273.19844  23141670.359                    23141673.262
        45.800          28.700
 118291284.457 8  92175109.50345  22510097.836                    22510103.930
        48.200          33.800
 120893431.514 6  94202633.73144  23005255.188                    23005260.891
        41.400          28.700
 115085735.135 8  89677246.44145  21900094.102                    21900097.621
        49.700          35.300
 115761933.744 7  90204157.75145  22028772.789                    22028775.602
        44.900          31.500
 110496018.491 8  86100799.18646  21026691.656                    21026694.316
        49.800          36.000
 117823780.207 7  91810766.35444  22421122.742                    22421126.750
        42.700          29.900
 18  3 15 10 11 48.0000000  0 15R09R07R16R23R24G30R17G21G07G08G27G15
                                G20G13G28
                  89212199.886 6  21479892.148                    21479892.414
                        39.900
                  83773458.377 7  20120897.977                    20120900.508
                        42.400
                  81537570.036 6  19625148.430                    19625150.246
                        40.200
                  97672212.431 4  23475583.273                    23475587.398
                        29.800
                  87747883.572 5  21097667.828                    21097667.570
                        33.800
 113895207.105 8  88749506.02846  21673528.891                    21673534.543
        49.800          36.300
                  89486916.280 6  21500701.063                    21500703.066
                        41.300
 127220961.256 7  99133224.74244  24209344.500                    24209347.766
        43.300          26.700
 121613557.725 7  94763884.07544  23142307.773                    23142310.625
        45.600          29.000
 118290918.688 7  92174824.52745  22510028.234                    22510034.230
        47.800          33.600
 120895795.494 6  94204475.80044  23005705.336                    23005710.930
        41.700          28.500
 115084162.998 8  89676021.40545  21899795.203                    21899798.695
        49.400          35.400
 115763459.447 7  90205346.60045  22029063.203                    22029065.906
        44.600          31.500
 110496140.559 8  86100894.30546  21026715.156                    21026717.645
        49.800          36.100
 117821874.812 7  91809281.67345  22420761.656                    22420764.313
        45.100          30.000
 18  3 15 10 11 49.0000000  0 15R09R07R16R23R24G30R17G21G07G08G27G15
                                G20G13G28
                  89209537.316 6  21479249.672                    21479249.715
                        39.900
                  83774866.657 7  20121236.586                    20121238.680
                        42.200
                  81538237.572 6  19625308.820                    19625310.859
                        40.200
                  97675757.719 4  23476435.656                    23476439.445
                        29.500
                  87749257.384 5  21097998.352                    21097997.703
                        33.300
 113897346.834 8  88751173.35446  21673936.047                    21673941.613
        49.700          36.500
                  89485065.644 6  21500257.797                    21500258.418
                        41.200
 127223173.432 7  99134948.51844  24209765.977                    24209768.395
        43.400          25.800
 121616908.745 7  94766495.26144  23142945.633                    23142948.676
        45.300          28.000
 118290553.682 7  92174540.14145  22509959.000                    22509965.027
        47.500          33.600
 120898160.136 6  94206318.36744  23006155.156                    23006160.688
        41.600          28.100
 115082591.531 8  89674796.88546  21899495.836                    21899499.887
        49.100          36.000
 115764985.844 7  90206535.99345  22029353.359                    22029356.469
        44.900          31.700
 110496263.350 8  86100989.98346  21026738.266                    21026740.883
        49.800          36.200
 117819969.990 7  91807797.42545  22420400.453                    22420401.688
        46.800          30.800
 18  3 15 10 11 50.0000000  0 15R09R07R16R23R24G30R17G21G07G08G27G15
                                G20G13G28
                  89206875.131 6  21478608.500                    21478608.090
                        40.100
                  83776275.684 7  20121574.758                    20121577.262
                        42.300
                  81538905.849 6  19625469.820                    19625471.887
                        40.400
                  97679303.346 4  23477288.852                    23477291.840
                        28.700
                  87750631.978 5  21098329.281                    21098328.145
                        32.900
 113899487.180 8  88752841.15446  21674343.211                    21674348.750
        49.800          36.100
                  89483215.685 6  21499813.602                    21499814.703
                        41.500
 127225386.173 7  99136672.73344  24210186.828                    24210189.402
        43.300          26.400
 121620260.190 7  94769106.78944  23143583.453                    23143586.141
        46.000          28.100
 118290189.427 7  92174256.32945  22509889.305                    22509895.316
        47.200          33.600
 120900525.447 7  94208161.47644  23006605.438                    23006611.180
        42.200          29.300
 115081020.758 8  89673572.90645  21899197.008                    21899200.738
        49.300          35.500
 115766513.007 7  90207725.97345  22029644.477                    22029646.750
        45.100          31.700
 110496386.915 8  86101086.26545  21026761.578                    21026764.441
        48.900          35.800
 117818065.734 7  91806313.58245  22420037.688                    22420039.629
        46.900          31.000
 18  3 15 10 11 51.0000000  0 15R09R07R16R23R24G30R17G21G07G08G27G15
                                G20G13G28
                  89204213.360 6  21477967.602                    21477966.465
                        41.400
                  83777685.431 7  20121912.711                    20121915.730
                        42.200
                  81539574.846 6  19625630.555                    19625632.918
                        40.400
                  97682849.271 4  23478140.563                    23478144.133
                        28.000
                  87752007.384 5  21098658.484                    21098658.559
                        33.300
 113901628.146 8  88754509.44046  21674750.852                    21674756.313
        49.500          36.300
                  89481366.345 6  21499369.273                    21499370.488
                        41.600
 127227599.320 7  99138397.26944  24210608.023                    24210610.758
        42.300          24.700
 121623612.012 7  94771718.59344  23144221.344                    23144224.395
        46.000          28.500
 118289825.929 7  92173973.09245  22509820.289                    22509826.254
        46.600          33.400
 120902891.397 7  94210005.08044  23007055.563                    23007061.281
        42.700          29.700
 115079450.619 8  89672349.42145  21898898.344                    21898901.824
        50.000          35.600
 115768040.893 7  90208916.53445  22029934.930                    22029938.082
        45.000          32.000
 110496511.247 8  86101183.13546  21026784.688                    21026788.043
        48.900          36.100
 117816162.022 7  91804830.14245  22419674.148                    22419677.156
        45.700          30.800
 18  3 15 10 11 52.0000000  0 15R09R07R16R23R24G30R17G21G07G08G27G15
                                G20G13G28
                  89201552.019 7  21477327.484                    21477327.086
                        42.300
                  83779095.842 7  20122252.219                    20122253.875
                        42.100
                  81540244.552 6  19625791.391                    19625794.051
                        40.400
                  97686395.491 4  23478992.766                    23478996.336
                        27.500
                  87753383.541 5  21098990.594                    21098989.816
                        32.500
 113903769.715 8  88756178.19146  21675158.328                    21675163.715
        50.000          36.500
                  89479517.601 6  21498925.758                    21498927.324
                        41.700
 127229812.979 7  99140122.19844  24211029.195                    24211031.914
        42.400          25.800
 121626964.242 7  94774330.72844  23144858.805                    23144862.176
        45.300          27.600
 118289463.188 7  92173690.44545  22509751.555                    22509757.355
        46.600          33.200
 120905257.994 7  94211849.18644  23007505.773                    23007511.719
        42.200          28.900
 115077881.149 8  89671126.45046  21898600.016                    21898603.289
        50.000          36.000
 115769569.528 7  90210107.69745  22030225.719                    22030228.656
        45.100          31.600
 110496636.331 8  86101280.58646  21026808.664                    21026811.617
        49.100          36.100
 117814258.739 7  91803347.03845  22419311.688                    22419315.586
        43.800          31.400
 18  3 15 10 11 53.0000000  0 15R09R07R16R23R24G30R17G21G07G08G27G15
                                G20G13G28
                  89198891.073 7  21476687.547                    21476688.695
                        42.900
                  83780506.916 7  20122590.883                    20122593.289
                        42.200
                  81540914.987 6  19625953.656                    19625954.672
                        40.500
                  97689942.023 4  23479844.906                    23479848.313
                        27.500
                  87754760.408 5  21099320.391                    21099321.145
                        32.100
 113905911.878 8  88757847.40646  21675565.820                    21675571.539
        49.900          36.600
                  89477669.475 6  21498482.430                    21498484.410
                        41.500
 127232027.116 7  99141847.49744  24211450.234                    24211453.098
        42.600          27.000
 121630316.843 7  94776943.15044  23145497.414                    23145500.160
        45.700          29.300
 118289101.176 7  92173408.36245  22509682.633                    22509687.848
        46.700          34.500
 120907625.201 7  94213693.75744  23007956.422                    23007961.969
        42.500          28.600
 115076312.285 8  89669903.95746  21898301.180                    21898304.586
        50.100          36.100
 115771098.802 7  90211299.35645  22030517.133                    22030520.176
        45.900          31.500
 110496762.141 8  86101378.60446  21026833.102                    21026836.082
        49.400          36.200
 117812355.945 7  91801864.34645  22418949.156                    22418952.895
        44.200          31.000
 18  3 15 10 11 54.0000000  0 15R09R07R16R23R24G30R17G21G07G08G27G15
                                G20G13G28
                  89196230.574 7  21476047.578                    21476049.293
                        43.200
                  83781918.683 7  20122930.445                    20122931.594
                        42.300
                  81541586.145 6  19626115.602                    19626116.379
                        40.600
                  97693488.869 4  23480696.297                    23480701.145
                        26.900
                  87756138.020 5  21099651.063                    21099651.754
                        32.900
 113908054.670 8  88759517.11646  21675973.656                    21675979.098
        49.600          36.400
                  89475821.982 6  21498038.781                    21498040.125
                        41.800
 127234241.743 7  99143573.16944  24211871.773                    24211874.773
        43.100          26.600
 121633669.827 7  94779555.86744  23146134.961                    23146138.402
        45.800          29.000
 118288739.915 7  92173126.87145  22509614.492                    22509619.523
        46.400          34.000
 120909993.108 7  94215538.87544  23008407.000                    23008412.348
        42.000          28.900
 115074744.110 8  89668682.00445  21898003.055                    21898006.273
        50.000          35.200
 115772628.817 7  90212491.59445  22030808.523                    22030811.297
        45.200          32.100
 110496888.708 8  86101477.21845  21026857.008                    21026860.000
        49.500          35.900
 117810453.752 7  91800382.14245  22418588.305                    22418590.918
        45.600          30.400
 18  3 15 10 11 55.0000000  0 15R09R07R16R23R24G30R17G21G07G08G27G15
                                G20G13G28
                  89193570.492 7  21475406.555                    21475409.730
                        42.700
                  83783331.121 7  20123269.781                    20123270.922
                        42.400
                  81542258.026 6  19626277.016                    19626278.504
                        40.300
                  97697036.049 4  23481549.438                    23481553.570
                        25.000
                  87757516.317 5  21099982.297                    21099983.383
                        32.500
 113910198.086 8  88761187.31046  21676381.398                    21676386.785
        49.900          36.200
                  89473975.110 6  21497594.758                    21497596.449
                        41.700
 127236456.829 7  99145299.20244  24212293.117                    24212296.082
        42.800          27.500
 121637023.228 7  94782168.90344  23146773.500                    23146776.195
        46.200          28.400
 118288379.426 7  92172845.97645  22509545.906                    22509550.871
        46.600          34.000
 120912361.616 6  94217384.46544  23008857.758                    23008863.215
        41.600          29.100
 115073176.595 8  89667460.56045  21897704.758                    21897708.039
        49.800          35.800
 115774159.512 7  90213684.34745  22031099.914                    22031102.258
        45.900          32.100
 110497016.035 8  86101576.42845  21026881.125                    21026884.246
        49.100          35.800
 117808552.076 7  91798900.33645  22418226.891                    22418229.070
        46.800          31.500
 18  3 15 10 11 56.0000000  0 15R09R07R16R23R24G30R17G21G07G08G27G15
                                G20G13G28
                  89190910.827 7  21474766.430                    21474768.594
                        42.100
                  83784744.281 7  20123608.641                    20123610.938
                        42.400
                  81542930.645 6  19626438.797                    19626440.680
                        40.000
                  97700583.510 4  23482402.148                    23482406.480
                        25.500
                  87758895.313 5  21100313.781                    21100314.770
                        32.800
 113912342.063 8  88762857.93846  21676789.586                    21676794.953
        50.100          36.300
                  89472128.876 6  21497150.844                    21497153.230
                        41.600
 127238672.442 7  99147025.64544  24212714.367                    24212717.578
        42.600          27.800
 121640377.031 7  94784782.26244  23147411.586                    23147414.570
        45.900          27.800
 118288019.646 7  92172565.64445  22509477.688                    22509482.180
        47.100          33.700
 120914730.813 6  94219230.60244  23009308.336                    23009313.754
        41.900          29.900
 115071609.718 8  89666239.61545  21897406.125                    21897409.754
        49.500          35.800
 115775690.931 7  90214877.67345  22031389.633                    22031393.551
        45.100          30.900
 110497144.138 8  86101676.24846  21026905.758                    21026908.957
        49.500          36.300
 117806650.971 7  91797418.94445  22417865.125                    22417867.594
        46.800          30.900
 18  3 15 10 11 57.0000000  0 15R09R07R16R23R24G30R17G21G07G08G27G15
                                G20G13G28
                  89188251.526 6  21474124.789                    21474127.109
                        40.800
                  83786158.127 7  20123948.680                    20123950.418
                        42.300
                  81543603.934 6  19626600.859                    19626602.453
                        40.400
                  97704131.182 4  23483255.055                    23483259.055
                        25.700
                  87760274.988 5  21100644.523                    21100646.266
                        33.300
 113914486.670 8  88764529.06046  21677197.609                    21677203.289
        49.900          36.100
                  89470283.251 6  21496706.711                    21496709.195
                        41.200
 127240888.499 7  99148752.43844  24213136.602                    24213139.555
        42.500          24.100
 121643731.166 7  94787395.87244  23148049.930                    23148052.715
        46.300          27.100
 118287660.596 7  92172285.87845  22509409.250                    22509413.988
        47.800          34.600
 120917100.607 6  94221077.20444  23009759.398                    23009764.941
        40.500          28.800
 115070043.489 8  89665019.17646  21897108.250                    21897111.543
        49.800          36.200
 115777223.019 7  90216071.49745  22031682.227                    22031685.043
        45.100          31.000
 110497272.964 8  86101776.64445  21026929.938                    21026932.941
        49.700          35.900
 117804750.320 7  91795937.89145  22417502.992                    22417505.648
        45.700          30.900
 18  3 15 10 11 58.0000000  0 15R09R07R16R23R24G30R17G21G07G08G27G15
                                G20G13G28
                  89185592.577 6  21473483.789                    21473485.258
                        39.400
                  83787572.621 7  20124287.430                    20124290.465
                        42.300
                  81544277.897 6  19626763.281                    19626764.789
                        40.000
                  97707679.138 4  23484106.531                    23484111.664
                        25.300
                  87761655.387 5  21100975.305                    21100978.465
                        33.300
 113916631.822 8  88766200.60346  21677605.742                    21677611.484
        49.800          37.300
                  89468438.256 6  21496262.953                    21496264.926
                        41.100
 127243104.988 7  99150479.56344  24213558.383                    24213561.391
        43.000          25.300
 121647085.661 7  94790009.76544  23148688.297                    23148691.539
        45.600          27.900
 118287302.227 8  92172006.64245  22509341.305                    22509345.664
        48.000          34.200
 120919471.008 6  94222924.27544  23010210.188                    23010216.133
        40.200          28.200
 115068477.857 8  89663799.20745  21896809.906                    21896813.859
        49.200          35.200
 115778755.842 7  90217265.89345  22031973.914                    22031976.961
        45.300          31.800
 110497402.467 8  86101877.56645  21026954.586                    21026957.480
        49.800          35.500
 117802850.141 7  91794457.21745  22417139.992                    22417144.219
        43.400          30.800
 18  3 15 10 11 59.0000000  0 15R09R07R16R23R24G30R17G21G07G08G27G15
                                G20G13G28
                  89182934.001 6  21472844.820                    21472843.477
                        39.500
                  83788987.824 7  20124628.250                    20124630.727
                        42.200
                  81544952.560 6  19626925.664                    19626927.387
                        40.200
                  97711227.405 4  23484960.031                    23484964.066
                        25.900
                  87763036.596 5  21101308.094                    21101310.867
                        33.200
 113918777.571 8  88767872.61446  21678013.859                    21678019.500
        49.900          36.800
                  89466593.894 6  21495819.375                    21495821.031
                        40.900
 127245321.963 7  99152207.08144  24213980.211                    24213982.973
        42.900          25.800
 121650440.541 7  94792623.95344  23149326.359                    23149329.574
        45.800          27.900
 118286944.625 8  92171728.00445  22509273.156                    22509277.730
        48.100          33.400
 120921841.994 6  94224771.80744  23010661.469                    23010667.387
        40.700          29.300
 115066912.844 8  89662579.71645  21896512.547                    21896515.965
        49.200          35.500
 115780289.316 7  90218460.80945  22032266.594                    22032268.789
        45.900          31.000
 110497532.708 8  86101979.05745  21026979.977                    21026982.402
        49.800          35.800
 117800950.410 7  91792976.92445  22416778.828                    22416782.563
        43.500          30.300
 18  3 15 10 12  0.0000000  0 15R09R07R16R23R24G30R17G21G07G08G27G15
                                G20G13G28
                  89180275.887 6  21472204.992                    21472202.965
                        40.800
                  83790403.740 7  20124968.219                    20124970.645
                        42.300
                  81545627.958 6  19627087.055                    19627089.777
                        40.300
                  97714775.998 4  23485812.313                    23485817.109
                        25.600
                  87764418.627 5  21101640.164                    21101643.129
                        33.100
 113920923.975 8  88769545.13346  21678422.352                    21678428.211
        50.200          36.900
                  89464750.186 6  21495376.719                    21495377.105
                        40.900
 127247539.438 7  99153934.98044  24214402.453                    24214405.371
        43.000          26.600
 121653795.843 7  94795238.47744  23149964.922                    23149967.898
        45.500          29.000
 118286587.775 8  92171449.95245  22509205.266                    22509209.961
        48.600          33.700
 120924213.729 6  94226619.91844  23011112.891                    23011118.316
        40.800          28.600
 115065348.546 8  89661360.78345  21896215.094                    21896218.340
        49.000          35.700
 115781823.541 7  90219656.31645  22032557.422                    22032560.582
        44.500          31.500
 110497663.738 8  86102081.15646  21027005.117                    21027007.555
        50.400          36.300
 117799051.273 7  91791497.10845  22416418.875                    22416421.004
        46.000          31.000
 18  3 15 10 12  1.0000000  0 15R09R07R16R23R24G30R17G21G07G08G27G15
                                G20G13G28
                  89177618.188 6  21471566.016                    21471564.137
                        41.400
                  83791820.440 7  20125308.016                    20125310.703
                        42.300
                  81546304.115 6  19627250.430                    19627252.605
                        39.600
                  97718324.938 3  23486665.133                    23486670.465
                        22.800
                  87765801.467 5  21101973.719                    21101975.656
                        32.600
 113923070.998 8  88771218.13646  21678831.039                    21678836.488
        49.800          37.100
                  89462907.135 6  21494934.281                    21494934.461
                        41.000
 127249757.430 7  99155663.28644  24214824.367                    24214827.535
        43.100          26.600
 121657151.594 7  94797853.35044  23150603.266                    23150606.539
        45.200          27.300
 118286231.690 8  92171172.49445  22509137.695                    22509142.203
        49.100          33.800
 120926586.106 6  94228468.52745  23011564.273                    23011570.012
        41.400          30.200
 115063784.961 8  89660142.39345  21895917.805                    21895920.742
        49.000          35.500
 115783358.506 7  90220852.40645  22032849.813                    22032852.711
        45.000          31.800
 110497795.552 8  86102183.87545  21027029.992                    21027032.395
        50.000          35.700
 117797152.765 7  91790017.77045  22416058.672                    22416059.508
        47.500          30.600
