     2.11           OBSERVATION DATA    M (MIXED)           RINEX VERSION / TYPE
teqc  2018Mar15                         20180319 14:17:34UTCPGM / RUN BY / DATE
Linux 2.6.32-573.12.1.x86_64|x86_64|gcc -static|Linux 64|=+ COMMENT
END OF STATIC MODE OBSERVATION                              COMMENT
BIT 2 OF LLI FLAGS DATA COLLECTED UNDER A/S CONDITION       COMMENT
-Unknown-                                                   MARKER NAME
4625                                                        MARKER NUMBER
-Unknown-           -Unknown-                               OBSERVER / AGENCY
5127468778          TRIMBLE             4.63                REC # / TYPE / VERS
47477114                            NONE                    ANT # / TYPE
  5128214.6819        0.0000 -3779651.6886                  APPROX POSITION XYZ
        0.0000        0.0000        0.0000                  ANTENNA: DELTA H/E/N
     1     1                                                WAVELENGTH FACT L1/2
     7    L1    L2    C1    P1    P2    S1    S2            # / TYPES OF OBSERV
    18                                                      LEAP SECONDS
 SNR is mapped to RINEX snr flag value [0-9]                COMMENT
  L1 & L2: min(max(int(snr_dBHz/6), 0), 9)                  COMMENT
  2018     3    15    12    47   45.0000000     GPS         TIME OF FIRST OBS
                                                            END OF HEADER
 18  3 15 12 47 45.0000000  0 16G19R19R01R09R10R02R18G32R11G11G17G24
                                G28G01G10G15
 121882277.753 7  94973156.63744  23193423.836                    23193427.109
        43.500          29.700
                  86794374.849 6  20861137.383                    20861136.895
                        41.200
                  84813145.856 6  20399206.227                    20399210.063
                        38.500
                  86120480.788 6  20735484.898                    20735485.563
                        41.800
                  80442739.454 6  19402527.102                    19402530.801
                        40.600
                  89468094.178 6  21556647.133                    21556650.422
                        40.900
                  85745997.880 6  20652571.820                    20652571.109
                        41.400
 125126740.421 7  97501405.95744  23810835.719                    23810841.168
        43.800          27.700
                  93958927.682 6  22606882.234                    22606882.273
                        40.700
 118699000.123 7  92492758.00144  22587674.703                    22587676.844
        42.800          29.500
 117834651.785 7  91819185.47845  22423185.156                    22423189.145
        46.800          35.700
 110334449.031 8  85974816.00446  20995923.242                    20995929.285
        51.600          40.500
 120840340.825 7  94161323.73044  22995156.516                    22995159.102
        44.900          28.900
 117931524.482 7  91894621.94345  22441598.320                    22441606.148
        47.000          34.700
 118429751.040 7  92283068.30045  22536473.953                    22536480.105
        46.000          33.500
 125222446.028 7  97575940.39844  23829040.297                    23829044.141
        46.400          28.200
 18  3 15 12 47 46.0000000  0 16G19R19R01R09R10R02R18G32R11G11G17G24
                                G28G01G10G15
 121879181.658 7  94970744.08544  23192834.430                    23192837.824
        42.900          28.100
                  86792626.495 6  20860716.992                    20860716.891
                        41.100
                  84814681.861 6  20399575.781                    20399579.449
                        38.300
                  86123274.912 6  20736157.289                    20736158.832
                        41.800
                  80442196.303 6  19402395.656                    19402399.820
                        40.800
                  89465908.430 6  21556122.180                    21556122.934
                        40.700
                  85747715.396 6  20652983.398                    20652985.605
                        41.600
 125123934.672 7  97499219.65344  23810300.750                    23810307.449
        43.400          27.900
                  93955900.709 6  22606152.375                    22606154.902
                        40.200
 118700410.420 7  92493856.93144  22587942.773                    22587945.117
        43.200          29.900
 117833030.451 8  91817922.13746  22422877.727                    22422880.523
        48.100          36.500
 110333927.756 8  85974409.81846  20995823.813                    20995829.633
        51.700          40.700
 120843495.135 7  94163781.63344  22995756.797                    22995759.316
        45.100          28.600
 117930948.492 7  91894173.16545  22441488.813                    22441496.719
        47.000          34.400
 118431710.163 7  92284594.88845  22536847.164                    22536853.113
        46.000          33.300
 125226423.810 7  97579039.97944  23829797.289                    23829800.984
        46.300          27.700
 18  3 15 12 47 47.0000000  0 16G19R19R01R09R10R02R18G32R11G11G17G24
                                G28G01G10G15
 121876085.975 6  94968331.86144  23192244.492                    23192248.164
        41.500          27.400
                  86790878.760 6  20860296.367                    20860297.066
                        40.900
                  84816218.566 6  20399945.883                    20399948.840
                        38.400
                  86126069.469 6  20736831.227                    20736831.453
                        41.600
                  80441653.804 6  19402264.836                    19402269.125
                        40.400
                  89463723.201 6  21555595.688                    21555596.789
                        40.600
                  85749433.604 6  20653394.914                    20653399.309
                        41.200
 125121129.262 7  97497033.62544  23809767.102                    23809773.066
        42.600          26.700
                  93952873.983 6  22605423.500                    22605425.863
                        40.400
 118701821.528 7  92494956.51144  22588211.406                    22588213.719
        43.100          28.300
 117831409.670 8  91816659.22246  22422570.461                    22422572.254
        49.400          36.800
 110333407.137 8  85974004.14646  20995724.813                    20995730.824
        50.500          40.700
 120846649.793 7  94166239.80644  22996357.063                    22996359.668
        45.000          28.300
 117930373.244 7  91893724.95945  22441379.383                    22441387.063
        46.700          34.600
 118433669.940 7  92286121.98945  22537220.219                    22537226.094
        46.100          33.500
 125230401.840 7  97582139.75144  23830554.156                    23830557.875
        46.600          28.000
 18  3 15 12 47 48.0000000  0 16G19R19R01R09R10R02R18G32R11G11G17G24
                                G28G01G10G15
 121872990.660 6  94965919.94444  23191655.813                    23191658.719
        41.200          27.400
                  86789131.643 6  20859877.297                    20859876.605
                        40.900
                  84817755.972 6  20400315.500                    20400318.898
                        38.300
                  86128864.449 6  20737503.773                    20737504.313
                        41.500
                  80441111.942 6  19402134.555                    19402138.859
                        40.200
                  89461538.445 6  21555069.328                    21555069.871
                        40.400
                  85751152.535 6  20653807.281                    20653812.477
                        41.500
 125118324.247 7  97494847.89544  23809233.039                    23809239.246
        43.000          26.000
                  93949847.495 6  22604697.094                    22604698.383
                        40.700
 118703233.308 7  92496056.61544  22588480.188                    22588482.250
        43.800          28.700
 117829789.455 8  91815396.72846  22422262.406                    22422263.840
        50.400          37.500
 110332887.188 8  85973598.99046  20995625.766                    20995631.770
        50.800          40.600
 120849804.784 7  94168698.24344  22996957.195                    22996959.688
        45.400          28.600
 117929798.687 7  91893277.28745  22441269.781                    22441277.633
        46.400          34.200
 118435630.388 7  92287649.63345  22537592.898                    22537599.262
        45.900          33.600
 125234380.146 7  97585239.72844  23831311.383                    23831314.879
        46.500          28.500
 18  3 15 12 47 49.0000000  0 16G19R19R01R09R10R02R18G32R11G11G17G24
                                G28G01G10G15
 121869895.751 6  94963508.33544  23191067.227                    23191069.867
        41.000          27.100
                  86787385.151 6  20859457.922                    20859457.391
                        40.900
                  84819294.094 6  20400684.922                    20400688.902
                        38.200
                  86131659.900 6  20738176.305                    20738177.113
                        41.300
                  80440570.743 6  19402003.805                    19402007.621
                        40.100
                  89459354.187 6  21554542.047                    21554543.688
                        40.200
                  85752872.144 6  20654221.891                    20654226.156
                        41.400
 125115519.593 7  97492662.43444  23808699.445                    23808705.273
        42.800          25.200
                  93946821.211 6  22603967.570                    22603970.023
                        40.000
 118704645.827 7  92497157.30144  22588748.898                    22588750.953
        44.000          28.300
 117828169.797 8  91814134.64646  22421953.758                    22421955.453
        51.200          36.800
 110332367.925 8  85973194.36246  20995527.086                    20995532.922
        51.000          40.600
 120852960.110 7  94171156.94044  22997557.867                    22997560.230
        45.300          29.400
 117929224.884 7  91892830.18745  22441160.523                    22441168.426
        46.800          34.100
 118437591.488 7  92289177.78845  22537966.086                    22537972.559
        46.400          33.700
 125238358.688 7  97588339.89144  23832068.656                    23832071.934
        46.600          28.800
 18  3 15 12 47 50.0000000  0 16G19R19R01R09R10R02R18G32R11G11G17G24
                                G28G01G10G15
 121866801.277 6  94961097.07244  23190478.688                    23190480.688
        41.900          27.400
                  86785639.234 6  20859038.242                    20859037.250
                        41.100
                  84820832.921 6  20401056.016                    20401059.055
                        38.900
                  86134455.782 6  20738851.031                    20738850.613
                        41.300
                  80440030.183 6  19401873.539                    19401877.258
                        40.500
                  89457170.391 6  21554015.617                    21554017.387
                        40.900
                  85754592.379 6  20654638.344                    20654640.621
                        41.700
 125112715.293 7  97490477.24344  23808165.477                    23808171.617
        43.000          26.200
                  93943795.123 6  22603239.078                    22603241.516
                        40.200
 118706059.094 7  92498258.56344  22589017.766                    22589019.570
        44.100          28.000
 117826550.676 8  91812872.97346  22421645.625                    22421647.496
        51.600          36.900
 110331849.340 8  85972790.27146  20995428.344                    20995434.309
        50.800          40.700
 120856115.816 7  94173615.93844  22998157.727                    22998161.215
        44.700          28.500
 117928651.776 7  91892383.62345  22441052.031                    22441059.145
        46.300          34.000
 118439553.168 7  92290706.38345  22538339.430                    22538345.430
        46.500          33.400
 125242337.530 7  97591440.28844  23832826.109                    23832829.590
        47.000          29.000
 18  3 15 12 47 51.0000000  0 16G19R19R01R09R10R02R18G32R11G11G17G24
                                G28G01G10G15
 121863707.219 7  94958686.11645  23189890.164                    23189891.504
        43.000          30.600
                  86783893.928 6  20858618.531                    20858618.316
                        41.100
                  84822372.421 6  20401425.938                    20401428.980
                        38.500
                  86137252.067 6  20739523.984                    20739523.504
                        41.200
                  80439490.278 6  19401743.289                    19401747.227
                        40.400
                  89454987.123 6  21553488.867                    21553491.559
                        40.900
                  85756313.270 6  20655053.266                    20655055.324
                        41.200
 125109911.347 7  97488292.33744  23807631.938                    23807637.703
        43.200          25.400
                  93940769.276 6  22602511.969                    22602513.703
                        40.400
 118707473.076 7  92499360.38044  22589287.180                    22589288.660
        44.000          28.600
 117824932.101 8  91811611.71546  22421337.461                    22421339.969
        51.400          36.800
 110331331.417 8  85972386.69946  20995329.984                    20995335.980
        50.800          40.900
 120859271.846 7  94176075.17944  22998758.188                    22998761.508
        44.400          29.100
 117928079.409 7  91891937.63545  22440942.570                    22440949.980
        46.500          34.100
 118441515.458 7  92292235.43845  22538712.688                    22538718.648
        46.800          34.000
 125246316.604 7  97594540.85644  23833582.820                    23833586.777
        47.200          29.000
 18  3 15 12 47 52.0000000  0 16G19R19R01R09R10R02R18G32R11G11G17G24
                                G28G01G10G15
 121860613.564 7  94956275.47345  23189302.141                    23189302.949
        44.300          30.600
                  86782149.248 6  20858198.211                    20858198.469
                        41.200
                  84823912.635 6  20401796.336                    20401799.777
                        38.600
                  86140048.807 6  20740196.289                    20740197.488
                        41.100
                  80438951.018 6  19401613.328                    19401616.895
                        40.400
                  89452804.361 6  21552963.328                    21552965.656
                        41.100
                  85758034.867 6  20655467.039                    20655469.977
                        41.400
 125107107.770 7  97486107.73544  23807099.031                    23807104.336
        42.700          25.400
                  93937743.598 6  22601783.969                    22601785.707
                        40.400
 118708887.796 7  92500462.75944  22589556.094                    22589557.758
        44.900          28.100
 117823314.059 8  91810350.89246  22421028.898                    22421032.176
        51.000          36.600
 110330814.181 8  85971983.65846  20995231.633                    20995237.559
        50.800          40.800
 120862428.213 7  94178534.67444  22999359.070                    22999362.227
        44.500          29.700
 117927507.770 7  91891492.21145  22440833.719                    22440841.504
        46.400          33.100
 118443478.436 7  92293765.01045  22539086.406                    22539092.215
        46.800          35.100
 125250295.961 7  97597641.65244  23834340.141                    23834344.070
        46.400          28.900
 18  3 15 12 47 53.0000000  0 16G19R19R01R09R10R02R18G32R11G11G17G24
                                G28G01G10G15
 121857520.332 7  94953865.16045  23188713.883                    23188714.664
        45.400          31.400
                  86780405.186 6  20857779.656                    20857778.855
                        40.900
                  84825453.520 6  20402166.492                    20402170.199
                        38.200
                  86142846.030 6  20740870.102                    20740870.617
                        41.300
                  80438412.426 6  19401483.313                    19401487.203
                        40.400
                  89450622.138 6  21552437.477                    21552440.359
                        40.900
                  85759757.196 6  20655882.078                    20655884.895
                        41.300
 125104304.576 7  97483923.43344  23806565.586                    23806570.926
        43.400          26.200
                  93934718.113 6  22601055.422                    22601057.922
                        40.500
 118710303.282 7  92501565.73744  22589825.234                    22589827.426
        45.100          28.400
 117821696.559 8  91809090.49346  22420720.500                    22420724.512
        49.500          36.900
 110330297.630 8  85971581.14646  20995133.281                    20995139.090
        51.100          41.100
 120865584.952 7  94180994.46444  22999960.516                    22999962.656
        45.000          29.600
 117926936.893 7  91891047.39145  22440725.422                    22440732.645
        46.400          34.000
 118445442.022 7  92295295.04745  22539459.359                    22539466.023
        46.400          34.200
 125254275.598 7  97600742.66844  23835096.711                    23835101.156
        46.100          28.500
 18  3 15 12 47 54.0000000  0 16G19R19R01R09R10R02R18G32R11G11G17G24
                                G28G01G10G15
 121854427.527 7  94951455.18445  23188125.172                    23188126.840
        45.600          31.500
                  86778661.765 6  20857360.391                    20857360.918
                        40.800
                  84826995.105 6  20402536.602                    20402541.078
                        38.500
                  86145643.671 6  20741544.828                    20741544.473
                        41.200
                  80437874.480 6  19401353.711                    19401357.160
                        40.700
                  89448440.434 6  21551913.125                    21551914.184
                        40.600
                  85761480.180 6  20656299.031                    20656299.430
                        41.200
 125101501.771 7  97481739.43144  23806032.305                    23806037.313
        44.100          28.000
                  93931692.887 6  22600327.922                    22600330.152
                        40.500
 118711719.500 7  92502669.29344  22590094.188                    22590096.660
        44.500          28.400
 117820079.607 8  91807830.53446  22420412.242                    22420416.531
        48.700          36.600
 110329781.734 8  85971179.15546  20995034.883                    20995040.688
        51.300          41.100
 120868742.026 7  94183454.52144  23000561.563                    23000563.383
        45.300          29.100
 117926366.719 7  91890603.10845  22440616.602                    22440624.172
        46.400          34.800
 118447406.274 7  92296825.60245  22539833.695                    22539839.605
        46.500          34.700
 125258255.479 7  97603843.87444  23835854.148                    23835858.605
        46.000          28.500
 18  3 15 12 47 55.0000000  0 16G19R19R01R09R10R02R18G32R11G11G17G24
                                G28G01G10G15
 121851335.115 7  94949045.50945  23187536.883                    23187538.359
        45.200          31.600
                  86776918.961 6  20856941.469                    20856941.586
                        40.900
                  84828537.398 6  20402908.141                    20402911.801
                        38.400
                  86148441.751 6  20742218.258                    20742217.672
                        41.100
                  80437337.207 6  19401224.383                    19401227.770
                        40.900
                  89446259.226 6  21551387.523                    21551388.656
                        40.700
                  85763203.879 6  20656714.906                    20656715.402
                        41.500
 125098699.322 7  97479555.70544  23805499.008                    23805504.043
        44.500          28.800
                  93928667.899 6  22599600.906                    22599602.430
                        40.700
 118713136.467 7  92503773.42944  22590363.648                    22590366.387
        44.700          28.900
 117818463.197 8  91806571.01046  22420104.813                    22420109.336
        48.500          37.100
 110329266.546 8  85970777.70946  20994936.984                    20994942.801
        51.400          40.900
 120871899.459 7  94185914.85144  23001162.227                    23001164.387
        45.800          28.500
 117925797.294 7  91890159.41545  22440508.773                    22440515.574
        47.000          34.700
 118449371.207 7  92298356.69745  22540207.867                    22540214.020
        46.000          34.000
 125262235.697 7  97606945.34444  23836611.367                    23836615.902
        45.100          27.500
 18  3 15 12 47 56.0000000  0 16G19R19R01R09R10R02R18G32R11G11G17G24
                                G28G01G10G15
 121848243.152 7  94946636.19445  23186947.430                    23186950.258
        44.900          31.400
                  86775176.792 6  20856522.813                    20856522.734
                        40.900
                  84830080.378 6  20403279.219                    20403282.727
                        38.800
                  86151240.309 6  20742890.656                    20742891.809
                        41.400
                  80436800.597 6  19401094.664                    19401098.848
                        40.700
                  89444078.512 6  21550862.336                    21550863.273
                        40.900
                  85764928.286 6  20657130.063                    20657130.645
                        41.600
 125095897.302 7  97477372.31444  23804965.938                    23804970.941
        44.100          28.300
                  93925643.063 6  22598871.453                    22598874.000
                        40.500
 118714554.209 7  92504878.18744  22590633.773                    22590636.164
        45.000          28.900
 117816847.361 8  91805311.93846  22419797.906                    22419801.965
        48.700          37.000
 110328752.021 8  85970376.78346  20994839.047                    20994844.813
        51.300          40.700
 120875057.273 7  94188375.49844  23001762.711                    23001765.500
        45.500          29.500
 117925228.600 7  91889716.28645  22440400.172                    22440407.563
        46.500          34.400
 118451336.811 7  92299888.33445  22540581.797                    22540587.816
        46.300          33.900
 125266216.168 7  97610047.01244  23837369.328                    23837373.148
        45.200          27.500
 18  3 15 12 47 57.0000000  0 16G19R19R01R09R10R02R18G32R11G11G17G24
                                G28G01G10G15
 121845151.593 7  94944227.19045  23186359.328                    23186361.820
        44.100          30.200
                  86773435.256 6  20856105.023                    20856103.738
                        41.100
                  84831624.086 6  20403650.883                    20403654.004
                        38.500
                  86154039.305 6  20743565.719                    20743565.438
                        41.500
                  80436264.650 6  19400965.367                    19400969.074
                        40.300
                  89441898.274 6  21550336.352                    21550338.359
                        40.800
                  85766653.394 6  20657543.836                    20657546.012
                        41.400
 125093095.628 7  97475189.19944  23804432.867                    23804438.309
        44.000          28.900
                  93922618.457 6  22598144.211                    22598146.371
                        40.600
 118715972.684 7  92505983.50644  22590903.125                    22590906.551
        44.500          29.700
 117815232.102 8  91804053.31546  22419491.172                    22419494.570
        49.400          37.300
 110328238.197 8  85969976.39646  20994741.258                    20994747.328
        50.300          40.800
 120878215.418 7  94190836.39744  23002363.258                    23002366.258
        44.600          28.500
 117924660.671 7  91889273.73845  22440292.117                    22440299.160
        46.400          34.600
 118453303.114 7  92301420.52445  22540956.258                    22540962.172
        46.600          33.800
 125270196.930 7  97613148.89644  23838127.469                    23838130.781
        44.900          28.300
 18  3 15 12 47 58.0000000  0 16G19R19R01R09R10R02R18G32R11G11G17G24
                                G28G01G10G15
 121842060.439 7  94941818.51744  23185771.266                    23185773.883
        43.800          29.000
                  86771694.315 6  20855686.531                    20855685.676
                        41.000
                  84833168.488 6  20404021.875                    20404025.754
                        38.900
                  86156838.727 6  20744239.984                    20744240.086
                        41.400
                  80435729.366 6  19400836.055                    19400840.363
                        40.000
                  89439718.520 6  21549810.469                    21549813.184
                        40.800
                  85768379.194 6  20657956.961                    20657961.781
                        41.400
 125090294.339 7  97473006.37944  23803900.313                    23803905.371
        43.900          29.100
                  93919594.091 6  22597417.383                    22597419.012
                        40.600
 118717391.906 7  92507089.40444  22591172.586                    22591176.453
        44.000          29.200
 117813617.384 8  91802795.10346  22419184.219                    22419186.746
        49.700          37.500
 110327725.058 8  85969576.55046  20994643.500                    20994649.469
        50.400          40.900
 120881373.926 7  94193297.57344  23002963.977                    23002967.176
        44.600          29.100
 117924093.454 7  91888831.74445  22440184.336                    22440191.313
        46.600          34.400
 118455270.036 7  92302953.19745  22541329.891                    22541336.844
        46.700          34.000
 125274177.951 7  97616250.98044  23838884.992                    23838888.086
        45.900          27.900
 18  3 15 12 47 59.0000000  0 16G19R19R01R09R10R02R18G32R11G11G17G24
                                G28G01G10G15
 121838969.657 7  94939410.12044  23185182.992                    23185184.953
        44.100          28.900
                  86769953.941 6  20855267.336                    20855267.371
                        41.000
                  84834713.567 6  20404393.164                    20404397.563
                        38.900
                  86159638.588 6  20744913.070                    20744914.027
                        41.500
                  80435194.721 6  19400706.914                    19400711.086
                        40.400
                  89437539.244 6  21549285.547                    21549288.184
                        40.700
                  85770105.636 6  20658372.445                    20658376.824
                        41.300
 125087493.373 7  97470823.81944  23803367.516                    23803372.316
        43.900          28.900
                  93916569.915 6  22596689.281                    22596691.168
                        40.200
 118718811.831 7  92508195.83444  22591443.055                    22591446.906
        43.200          28.300
 117812003.187 8  91801537.27446  22418876.797                    22418879.555
        50.000          36.700
 110327212.567 8  85969177.20446  20994546.109                    20994552.262
        50.700          40.800
 120884532.741 7  94195758.97644  23003565.289                    23003568.246
        44.800          28.800
 117923526.943 7  91888390.30645  22440076.633                    22440083.730
        46.400          34.700
 118457237.584 7  92304486.36945  22541704.219                    22541710.969
        46.000          33.500
 125278159.182 7  97619353.22944  23839643.406                    23839646.148
        46.900          28.400
 18  3 15 12 48  0.0000000  0 16G19R19R01R09R10R02R18G32R11G11G17G24
                                G28G01G10G15
 121835879.326 7  94937002.07944  23184595.258                    23184596.945
        44.600          28.100
                  86768214.200 6  20854849.078                    20854849.246
                        41.000
                  84836259.341 6  20404765.633                    20404769.238
                        39.100
                  86162438.910 6  20745587.547                    20745587.941
                        41.400
                  80434660.728 6  19400577.852                    19400582.375
                        40.400
                  89435360.508 6  21548760.195                    21548763.750
                        40.500
                  85771832.739 6  20658789.313                    20658793.129
                        41.300
 125084692.787 7  97468641.53544  23802833.688                    23802839.734
        44.000          28.100
                  93913545.973 6  22595961.047                    22595964.047
                        40.700
 118720232.562 7  92509302.89644  22591713.313                    22591717.008
        42.900          28.300
 117810389.559 8  91800279.88946  22418569.461                    22418572.531
        49.300          37.200
 110326700.777 8  85968778.41046  20994448.750                    20994454.598
        50.200          40.900
 120887691.906 7  94198220.65544  23004167.164                    23004169.520
        44.800          29.400
 117922961.170 7  91887949.44445  22439968.586                    22439975.938
        45.500          34.500
 118459205.788 7  92306020.05545  22542078.734                    22542085.500
        46.300          34.400
 125282140.703 7  97622455.71344  23840401.211                    23840403.645
        47.700          28.200
 18  3 15 12 48  1.0000000  0 16G19R19R01R09R10R02R18G32R11G11G17G24
                                G28G01G10G15
 121832789.398 7  94934594.33144  23184007.273                    23184008.531
        45.100          26.500
                  86766475.101 6  20854431.422                    20854431.590
                        41.100
                  84837805.821 6  20405137.570                    20405140.613
                        38.300
                  86165239.658 6  20746263.281                    20746262.449
                        41.500
                  80434127.418 6  19400449.914                    19400453.961
                        40.400
                  89433182.328 6  21548235.586                    21548238.508
                        40.400
                  85773560.537 6  20659207.281                    20659209.156
                        41.500
 125081892.601 7  97466459.56844  23802300.445                    23802306.859
        43.500          27.900
                  93910522.231 6  22595234.547                    22595236.484
                        40.900
 118721654.036 7  92510410.53744  22591983.367                    22591987.875
        42.500          28.300
 117808776.486 7  91799022.93546  22418262.320                    22418265.340
        47.600          36.800
 110326189.643 8  85968380.12246  20994351.344                    20994357.348
        49.800          40.800
 120890851.436 7  94200682.61344  23004768.547                    23004770.922
        45.300          29.300
 117922396.144 7  91887509.16345  22439861.578                    22439868.949
        45.600          34.700
 118461174.609 7  92307554.21045  22542453.938                    22542460.371
        45.900          33.200
 125286122.508 7  97625558.42344  23841158.805                    23841161.227
        47.800          29.400
 18  3 15 12 48  2.0000000  0 16G19R19R01R09R10R02R18G32R11G11G17G24
                                G28G01G10G15
 121829699.858 7  94932186.86544  23183419.391                    23183420.184
        45.800          26.500
                  86764736.611 6  20854013.641                    20854013.160
                        41.200
                  84839352.986 6  20405509.586                    20405512.668
                        38.300
                  86168040.815 6  20746936.945                    20746936.887
                        41.600
                  80433594.741 6  19400321.680                    19400325.328
                        40.400
                  89431004.634 6  21547711.813                    21547713.457
                        40.500
                  85775288.968 6  20659624.305                    20659625.254
                        41.400
 125079092.748 7  97464277.86544  23801767.719                    23801774.039
        43.200          26.900
                  93907498.612 6  22594506.516                    22594508.680
                        40.500
 118723076.224 7  92511518.74544  22592254.344                    22592258.473
        42.200          29.200
 117807163.922 7  91797766.38946  22417954.953                    22417958.191
        47.500          36.900
 110325679.163 8  85967982.34146  20994254.219                    20994260.219
        49.800          40.900
 120894011.281 7  94203144.83544  23005369.844                    23005372.242
        45.400          29.100
 117921831.844 7  91887069.43845  22439754.063                    22439761.418
        45.900          34.600
 118463144.107 7  92309088.88745  22542828.602                    22542834.730
        46.500          33.600
 125290104.521 7  97628661.29844  23841915.773                    23841919.363
        47.300          28.700
 18  3 15 12 48  3.0000000  0 16G19R19R01R09R10R02R18G32R11G11G17G24
                                G28G01G10G15
 121826610.731 7  94929779.70444  23182831.898                    23182831.133
        45.400          28.100
                  86762998.741 6  20853596.063                    20853596.059
                        41.100
                  84840900.838 6  20405881.859                    20405885.324
                        38.400
                  86170842.442 6  20747611.023                    20747611.469
                        41.500
                  80433062.722 6  19400193.250                    19400197.145
                        40.200
                  89428827.424 6  21547186.508                    21547188.852
                        40.500
                  85777018.076 6  20660041.656                    20660042.406
                        41.600
 125076293.280 7  97462096.46844  23801234.758                    23801241.363
        42.700          25.600
                  93904475.233 6  22593779.266                    22593780.871
                        40.000
 118724499.164 6  92512627.53144  22592525.000                    22592528.934
        41.800          28.300
 117805551.917 7  91796510.28646  22417648.609                    22417652.199
        47.900          36.300
 110325169.377 8  85967585.10446  20994157.406                    20994163.359
        50.000          41.000
 120897171.448 7  94205607.30044  23005970.828                    23005973.672
        45.400          28.900
 117921268.230 7  91886630.25945  22439647.047                    22439654.531
        46.200          34.300
 118465114.181 7  92310624.00645  22543203.570                    22543209.816
        46.300          34.300
 125294086.816 7  97631764.39644  23842672.922                    23842677.703
        46.600          28.900
 18  3 15 12 48  4.0000000  0 16G19R19R01R09R10R02R18G32R11G11G17G24
                                G28G01G10G15
 121823522.025 7  94927372.87244  23182244.547                    23182243.496
        45.800          29.300
                  86761261.496 6  20853178.367                    20853178.438
                        41.200
                  84842449.382 6  20406254.367                    20406257.840
                        38.200
                  86173644.523 6  20748285.516                    20748285.754
                        41.500
                  80432531.354 6  19400065.258                    19400068.641
                        40.400
                  89426650.677 6  21546662.070                    21546663.313
                        40.400
                  85778747.862 6  20660458.656                    20660458.941
                        41.500
 125073494.154 7  97459915.32344  23800702.039                    23800708.500
        43.000          25.500
                  93901452.113 6  22593052.906                    22593053.969
                        40.200
 118725922.832 7  92513736.87744  22592796.117                    22592799.641
        42.000          28.600
 117803940.465 8  91795254.62146  22417342.203                    22417345.098
        48.300          36.600
 110324660.276 8  85967188.40246  20994060.453                    20994066.449
        50.100          40.800
 120900331.982 7  94208070.06544  23006572.023                    23006575.129
        45.900          29.000
 117920705.348 7  91886191.64545  22439539.664                    22439547.266
        46.400          34.900
 118467084.870 7  92312159.58945  22543578.383                    22543584.816
        46.500          34.400
 125298069.407 7  97634867.72244  23843430.453                    23843435.383
        45.900          27.400
 18  3 15 12 48  5.0000000  0 16G19R19R01R09R10R02R18G32R11G11G17G24
                                G28G01G10G15
 121820433.775 7  94924966.41845  23181656.461                    23181656.121
        45.600          31.200
                  86759524.893 6  20852761.148                    20852761.242
                        41.200
                  84843998.649 6  20406626.555                    20406630.957
                        38.900
                  86176447.052 6  20748961.102                    20748960.762
                        41.200
                  80432000.683 6  19399937.180                    19399940.715
                        40.600
                  89424474.441 6  21546138.547                    21546139.488
                        40.000
                  85780478.401 6  20660874.141                    20660875.723
                        41.600
 125070695.491 7  97457734.54044  23800169.727                    23800175.074
        43.400          26.000
                  93898429.207 6  22592324.406                    22592326.680
                        39.900
 118727347.299 7  92514846.85544  22593067.859                    22593070.672
        42.700          29.400
 117802329.615 8  91793999.42046  22417035.859                    22417038.547
        48.400          36.700
 110324151.847 8  85966792.22446  20993963.906                    20993969.594
        49.900          40.800
 120903492.898 7  94210533.11845  23007173.719                    23007176.883
        45.700          30.000
 117920143.240 7  91885753.61345  22439432.781                    22439440.230
        46.400          34.700
 118469056.234 7  92313695.67745  22543953.664                    22543959.836
        47.100          34.300
 125302052.296 7  97637971.25944  23844187.453                    23844193.387
        44.800          27.300
 18  3 15 12 48  6.0000000  0 16G19R19R01R09R10R02R18G32R11G11G17G24
                                G28G01G10G15
 121817345.953 7  94922560.30945  23181068.875                    23181069.000
        45.600          32.200
                  86757788.906 6  20852343.930                    20852343.730
                        41.000
                  84845548.624 6  20407000.141                    20407003.469
                        38.900
                  86179250.043 6  20749635.141                    20749635.973
                        41.600
                  80431470.688 6  19399809.156                    19399813.047
                        40.500
                  89422298.737 6  21545614.422                    21545615.355
                        40.300
                  85782209.648 6  20661289.609                    20661293.043
                        41.700
 125067897.192 7  97455554.04444  23799637.289                    23799642.504
        43.400          25.400
                  93895406.546 6  22591597.242                    22591599.008
                        39.800
 118728772.524 7  92515957.42345  22593339.078                    22593342.113
        42.800          30.000
 117800719.323 8  91792744.65546  22416729.398                    22416732.051
        48.800          37.100
 110323644.132 8  85966396.60446  20993867.063                    20993873.293
        49.500          40.900
 120906654.178 7  94212996.45544  23007774.828                    23007778.063
        45.000          29.000
 117919581.905 7  91885316.17745  22439326.023                    22439333.094
        45.800          34.100
 118471028.328 7  92315232.33045  22544328.898                    22544335.090
        47.000          35.200
 125306035.494 7  97641075.04344  23844945.797                    23844950.598
        43.900          27.200
 18  3 15 12 48  7.0000000  0 16G19R19R01R09R10R02R18G32R11G11G17G24
                                G28G01G10G15
 121814258.543 7  94920154.53045  23180481.125                    23180482.410
        45.100          31.400
                  86756053.555 6  20851926.609                    20851926.594
                        41.200
                  84847099.306 6  20407372.852                    20407376.328
                        39.100
                  86182053.510 6  20750309.953                    20750310.945
                        41.600
                  80430941.351 6  19399681.516                    19399685.227
                        40.300
                  89420123.567 6  21545089.531                    21545091.523
                        41.000
                  85783941.625 6  20661705.219                    20661709.820
                        41.300
 125065099.296 7  97453373.85444  23799105.477                    23799109.941
        44.000          25.300
                  93892384.097 6  22590871.359                    22590872.258
                        40.600
 118730198.472 7  92517068.55444  22593610.836                    22593613.617
        43.000          28.500
 117799109.626 8  91791490.35246  22416423.219                    22416426.035
        49.600          37.300
 110323137.096 8  85966001.51246  20993770.594                    20993776.668
        49.600          40.900
 120909815.820 7  94215460.06944  23008377.070                    23008379.629
        45.100          29.600
 117919021.354 7  91884879.36645  22439219.156                    22439226.387
        46.000          34.200
 118473001.073 7  92316769.50845  22544704.844                    22544710.883
        46.700          34.500
 125310018.993 7  97644179.04644  23845705.313                    23845708.586
        44.300          27.200
 18  3 15 12 48  8.0000000  0 16G19R19R01R09R10R02R18G32R11G11G17G24
                                G28G01G10G15
 121811171.509 7  94917749.06845  23179893.359                    23179895.766
        44.300          32.400
                  86754318.783 6  20851509.438                    20851509.426
                        41.300
                  84848650.652 6  20407745.898                    20407749.059
                        38.600
                  86184857.372 6  20750985.125                    20750985.715
                        41.700
                  80430412.630 6  19399553.273                    19399557.426
                        40.400
                  89417948.890 6  21544564.773                    21544568.082
                        40.900
                  85785674.220 6  20662123.680                    20662126.785
                        41.400
 125062301.766 7  97451193.94644  23798573.195                    23798577.570
        44.100          26.500
                  93889361.776 6  22590142.945                    22590145.078
                        40.500
 118731625.157 7  92518180.26144  22593882.258                    22593884.840
        43.500          28.300
 117797500.422 8  91790236.41546  22416116.836                    22416119.805
        49.900          37.300
 110322630.706 8  85965606.92746  20993674.063                    20993680.078
        49.900          41.300
 120912977.774 7  94217923.91344  23008978.328                    23008981.305
        45.400          29.400
 117918461.499 7  91884443.11645  22439112.320                    22439120.133
        46.000          34.400
 118474974.398 7  92318307.14645  22545079.898                    22545086.145
        46.600          34.600
 125314002.675 7  97647283.19544  23846463.570                    23846466.516
        45.100          26.700
 18  3 15 12 48  9.0000000  0 16G19R19R01R09R10R02R18G32R11G11G17G24
                                G28G01G10G15
 121808084.945 7  94915343.98145  23179305.094                    23179308.734
        43.000          30.500
                  86752584.689 6  20851092.703                    20851092.781
                        40.800
                  84850202.772 6  20408119.578                    20408122.855
                        38.800
                  86187661.711 6  20751661.141                    20751661.074
                        41.700
                  80429884.610 6  19399426.445                    19399430.102
                        39.900
                  89415774.772 6  21544041.211                    21544044.223
                        40.800
                  85787407.546 6  20662542.063                    20662544.398
                        41.400
 125059504.641 7  97449014.37044  23798040.461                    23798045.453
        44.000          28.700
                  93886339.788 6  22589416.398                    22589417.211
                        40.200
 118733052.664 7  92519292.61744  22594154.156                    22594156.559
        43.700          28.800
 117795891.839 8  91788982.97346  22415810.836                    22415813.422
        48.800          36.900
 110322125.040 8  85965212.90146  20993577.750                    20993583.918
        49.900          40.700
 120916140.139 7  94220388.08744  23009581.008                    23009582.742
        45.200          28.900
 117917902.461 7  91884007.51445  22439006.391                    22439013.523
        46.100          34.200
 118476948.520 7  92319845.41845  22545455.414                    22545461.797
        46.900          34.100
 125317986.699 7  97650387.61944  23847222.703                    23847224.582
        46.300          27.700
 18  3 15 12 48 10.0000000  0 16G19R19R01R09R10R02R18G32R11G11G17G24
                                G28G01G10G15
 121804998.724 6  94912939.16845  23178717.734                    23178721.824
        41.800          30.600
                  86750851.178 6  20850676.367                    20850676.723
                        40.800
                  84851755.512 6  20408492.984                    20408496.484
                        38.500
                  86190466.489 6  20752335.695                    20752336.266
                        41.200
                  80429357.215 6  19399299.164                    19399303.152
                        40.200
                  89413601.094 6  21543517.375                    21543520.520
                        40.300
                  85789141.475 6  20662959.719                    20662962.125
                        41.200
 125056707.832 7  97446835.02544  23797508.844                    23797513.453
        44.500          27.900
                  93883317.989 6  22588689.773                    22588690.789
                        40.600
 118734480.853 7  92520405.49644  22594426.148                    22594428.461
        44.300          29.600
 117794283.757 8  91787729.91846  22415504.625                    22415507.688
        49.000          36.700
 110321620.030 8  85964819.39046  20993481.898                    20993487.848
        49.600          41.000
 120919302.813 7  94222852.51345  23010182.555                    23010184.988
        45.100          30.200
 117917344.071 7  91883572.40945  22438900.070                    22438907.313
        46.200          34.700
 118478923.200 7  92321384.13645  22545831.320                    22545837.906
        47.100          34.300
 125321970.929 7  97653492.22744  23847980.914                    23847982.695
        47.200          27.400
 18  3 15 12 48 11.0000000  0 16G19R19R01R09R10R02R18G32R11G11G17G24
                                G28G01G10G15
 121801912.914 6  94910534.70045  23178130.844                    23178134.879
        41.400          30.700
                  86749118.232 6  20850259.930                    20850259.723
                        40.800
                  84853308.929 6  20408866.367                    20408870.031
                        38.600
                  86193271.670 6  20753011.570                    20753011.633
                        41.200
                  80428830.431 6  19399172.266                    19399175.961
                        40.300
                  89411427.915 6  21542993.664                    21542997.188
                        40.500
                  85790876.074 6  20663376.461                    20663379.680
                        41.400
 125053911.377 7  97444655.95644  23796976.156                    23796981.246
        44.500          28.700
                  93880296.314 6  22587960.969                    22587963.820
                        40.200
 118735909.718 7  92521518.90244  22594698.102                    22594700.586
        44.500          28.800
 117792676.196 8  91786477.26646  22415198.469                    22415201.688
        48.900          37.100
 110321115.661 8  85964426.37746  20993386.094                    20993392.012
        48.900          41.000
 120922465.775 7  94225317.15344  23010784.148                    23010786.723
        45.400          28.900
 117916786.374 7  91883137.84145  22438793.984                    22438801.527
        46.300          33.700
 118480898.512 7  92322923.35245  22546207.328                    22546213.590
        46.300          34.200
 125325955.397 7  97656597.03444  23848738.430                    23848740.832
        47.400          29.400
 18  3 15 12 48 12.0000000  0 16G19R19R01R09R10R02R18G32R11G11G17G24
                                G28G01G10G15
 121798827.502 7  94908130.53245  23177543.586                    23177547.879
        42.300          30.400
                  86747385.949 6  20849842.961                    20849842.738
                        41.000
                  84854863.053 6  20409240.375                    20409243.996
                        38.700
                  86196077.305 6  20753687.828                    20753687.172
                        41.100
                  80428304.321 6  19399045.484                    19399049.266
                        40.200
                  89409255.234 6  21542471.273                    21542473.813
                        40.000
                  85792611.382 6  20663794.977                    20663797.539
                        41.500
 125051115.314 7  97442477.20444  23796444.445                    23796449.840
        44.200          29.400
                  93877274.896 6  22587234.148                    22587237.113
                        40.600
 118737339.371 7  92522632.91644  22594969.898                    22594972.227
        43.400          28.900
 117791069.202 8  91785225.05646  22414892.281                    22414896.355
        48.600          37.100
 110320611.991 8  85964033.90046  20993290.008                    20993296.070
        49.000          40.800
 120925629.122 7  94227782.10244  23011386.406                    23011388.816
        45.600          29.400
 117916229.479 7  91882703.88645  22438688.094                    22438695.055
        46.400          34.800
 118482874.493 7  92324463.09645  22546583.398                    22546589.578
        46.100          34.000
 125329940.137 7  97659702.04344  23849496.586                    23849499.121
        47.300          29.300
 18  3 15 12 48 13.0000000  0 16G19R19R01R09R10R02R18G32R11G11G17G24
                                G28G01G10G15
 121795742.473 7  94905726.65345  23176957.203                    23176960.762
        43.300          30.200
                  86745654.263 6  20849427.258                    20849426.453
                        40.800
                  84856417.826 6  20409614.438                    20409617.523
                        38.900
                  86198883.335 6  20754362.906                    20754362.883
                        41.200
                  80427778.832 6  19398918.422                    19398922.230
                        40.100
                  89407082.995 6  21541947.758                    21541949.762
                        40.100
                  85794347.277 6  20664215.203                    20664215.254
                        41.400
 125048319.582 7  97440298.70845  23795911.789                    23795917.484
        43.500          30.000
                  93874253.685 6  22586507.898                    22586509.223
                        40.500
 118738769.699 7  92523747.45544  22595242.164                    22595244.082
        43.600          28.500
 117789462.676 8  91783973.22346  22414586.594                    22414590.531
        48.300          37.100
 110320108.985 8  85963641.95346  20993194.398                    20993200.340
        49.000          40.900
 120928792.741 7  94230247.26644  23011988.188                    23011990.316
        45.800          28.900
 117915673.245 7  91882270.45145  22438582.328                    22438589.250
        46.500          34.700
 118484851.097 7  92326003.32545  22546959.320                    22546965.281
        46.200          33.400
 125333925.094 7  97662807.22544  23850254.430                    23850258.098
        47.000          29.700
 18  3 15 12 48 14.0000000  0 16G19R19R01R09R10R02R18G32R11G11G17G24
                                G28G01G10G15
 121792657.860 7  94903323.07645  23176369.836                    23176373.816
        44.000          30.500
                  86743923.209 6  20849010.766                    20849010.891
                        40.800
                  84857973.276 6  20409988.289                    20409991.801
                        38.600
                  86201689.827 6  20755038.289                    20755038.348
                        41.000
                  80427253.994 6  19398792.063                    19398795.520
                        40.400
                  89404911.275 6  21541424.508                    21541425.902
                        40.200
                  85796083.852 6  20664635.148                    20664634.543
                        41.100
 125045524.183 7  97438120.48444  23795379.836                    23795386.031
        43.000          28.500
                  93871232.599 6  22585780.750                    22585782.641
                        40.600
 118740200.766 7  92524862.58244  22595514.438                    22595516.766
        43.700          29.600
 117787856.727 7  91782721.84746  22414281.344                    22414284.926
        47.900          36.900
 110319606.628 8  85963250.50546  20993098.766                    20993104.832
        49.000          40.800
 120931956.720 7  94232712.70044  23012590.531                    23012592.906
        45.200          29.900
 117915117.746 7  91881837.58945  22438476.430                    22438483.816
        46.300          34.500
 118486828.327 7  92327544.05245  22547335.914                    22547341.613
        46.200          34.000
 125337910.317 7  97665912.60544  23851012.000                    23851016.512
        46.400          29.100
 18  3 15 12 48 15.0000000  0 16G19R19R01R09R10R02R18G32R11G11G17G24
                                G28G01G10G15
 121789573.657 7  94900919.80544  23175783.820                    23175787.043
        44.600          29.800
                  86742192.760 6  20848595.031                    20848595.344
                        41.200
                  84859529.413 6  20410362.195                    20410365.988
                        38.700
                  86204496.744 6  20755714.250                    20755714.508
                        41.100
                  80426729.819 6  19398665.258                    19398669.563
                        40.700
                  89402740.078 6  21540901.352                    21540903.078
                        40.400
                  85797821.118 6  20665052.250                    20665053.246
                        41.300
 125042729.166 7  97435942.57444  23794848.000                    23794854.703
        42.900          29.100
                  93868211.766 6  22585054.266                    22585056.035
                        40.600
 118741632.558 7  92525978.26944  22595787.664                    22595789.098
        44.700          29.100
 117786251.310 8  91781470.88646  22413975.711                    22413979.570
        48.100          36.800
 110319104.970 8  85962859.60146  20993003.313                    20993009.152
        48.900          41.100
 120935121.043 7  94235178.40144  23013192.656                    23013194.895
        45.400          29.700
 117914562.957 7  91881405.28045  22438371.148                    22438378.215
        46.300          34.400
 118488806.204 7  92329085.27245  22547712.086                    22547718.406
        46.400          34.800
 125341895.810 7  97669018.18544  23851769.391                    23851775.016
        45.000          29.700
 18  3 15 12 48 16.0000000  0 16G19R19R01R09R10R02R18G32R11G11G17G24
                                G28G01G10G15
 121786489.898 7  94898516.87344  23175196.773                    23175199.547
        45.100          27.800
                  86740462.928 6  20848180.148                    20848179.203
                        41.200
                  84861086.220 6  20410736.688                    20410740.508
                        38.600
                  86207304.115 6  20756390.023                    20756390.465
                        41.400
                  80426206.322 6  19398539.336                    19398542.824
                        40.200
                  89400569.408 6  21540378.750                    21540380.320
                        40.400
                  85799559.107 6  20665469.773                    20665471.734
                        41.200
 125039934.545 7  97433764.97344  23794316.070                    23794322.891
        42.600          29.700
                  93865191.167 6  22584328.008                    22584329.441
                        40.600
 118743065.118 7  92527094.55344  22596059.516                    22596061.512
        45.100          28.900
 117784646.471 8  91780220.36746  22413670.414                    22413673.945
        48.600          36.800
 110318603.990 8  85962469.23246  20992907.750                    20992913.918
        48.900          40.900
 120938285.718 7  94237644.38344  23013795.047                    23013797.281
        45.100          29.700
 117914008.931 7  91880973.55945  22438265.141                    22438272.578
        46.300          34.400
 118490784.704 7  92330626.96845  22548088.719                    22548094.438
        46.300          34.200
 125345881.607 7  97672123.98444  23852527.883                    23852533.711
        43.700          27.500
 18  3 15 12 48 17.0000000  0 16G19R19R01R09R10R02R18G32R11G11G17G24
                                G28G01G10G15
 121783406.605 7  94896114.27544  23174610.109                    23174612.211
        45.500          28.500
                  86738733.745 6  20847763.867                    20847764.039
                        41.200
                  84862643.734 6  20411111.609                    20411114.965
                        38.800
                  86210111.934 6  20757066.016                    20757066.227
                        41.200
                  80425683.509 6  19398412.961                    19398416.906
                        40.400
                  89398399.233 6  21539855.492                    21539857.363
                        40.500
                  85801297.850 6  20665885.422                    20665890.441
                        41.200
 125037140.340 7  97431587.69244  23793784.477                    23793791.289
        42.600          27.800
                  93862170.766 6  22583601.023                    22583602.609
                        41.000
 118744498.433 7  92528211.42144  22596332.133                    22596334.566
        45.400          28.600
 117783042.223 8  91778970.31346  22413365.391                    22413368.527
        48.100          36.900
 110318103.696 8  85962079.39546  20992812.742                    20992818.516
        48.900          40.900
 120941450.792 7  94240110.67644  23014396.805                    23014399.359
        45.100          29.400
 117913455.684 7  91880542.44445  22438159.953                    22438167.230
        46.200          34.100
 118492763.860 7  92332169.15745  22548465.336                    22548471.063
        45.900          33.300
 125349867.741 7  97675230.02544  23853286.969                    23853292.191
        42.900          27.600
 18  3 15 12 48 18.0000000  0 16G19R19R01R09R10R02R18G32R11G11G17G24
                                G28G01G10G15
 121780323.691 7  94893711.95044  23174023.922                    23174025.074
        45.100          27.800
                  86737005.173 6  20847348.813                    20847347.875
                        41.000
                  84864201.912 6  20411486.531                    20411489.500
                        39.100
                  86212920.235 6  20757742.250                    20757742.848
                        41.200
                  80425161.346 6  19398287.234                    19398290.668
                        40.300
                  89396229.585 6  21539332.570                    21539335.305
                        40.700
                  85803037.292 6  20666303.219                    20666308.945
                        41.600
 125034346.530 7  97429410.72444  23793252.547                    23793259.543
        43.100          26.000
                  93859150.589 6  22582874.414                    22582876.227
                        41.100
 118745932.488 7  92529328.87245  22596605.109                    22596607.191
        45.600          30.400
 117781438.521 8  91777720.67346  22413060.500                    22413063.297
        48.100          36.600
 110317604.088 8  85961690.08546  20992717.484                    20992723.754
        48.800          40.700
 120944616.193 7  94242577.22044  23014999.695                    23015001.844
        45.300          29.600
 117912903.155 7  91880111.89645  22438054.805                    22438062.418
        46.400          34.500
 118494743.717 7  92333711.88945  22548841.703                    22548848.098
        46.000          33.600
 125353854.102 7  97678336.23044  23854046.313                    23854050.531
        43.400          27.500
 18  3 15 12 48 19.0000000  0 16G19R19R01R09R10R02R18G32R11G11G17G24
                                G28G01G10G15
 121777241.173 7  94891309.91644  23173436.914                    23173437.695
        44.400          28.300
                  86735277.182 6  20846933.039                    20846932.578
                        40.800
                  84865760.738 6  20411861.523                    20411865.191
                        38.900
                  86215728.911 6  20758418.945                    20758418.293
                        41.200
                  80424639.811 6  19398161.789                    19398165.488
                        40.200
                  89394060.422 6  21538809.617                    21538812.375
                        40.200
                  85804777.346 6  20666725.734                    20666727.637
                        41.500
 125031553.067 7  97427234.01344  23792721.461                    23792727.715
        43.700          25.800
                  93856130.605 6  22582147.297                    22582149.754
                        40.800
 118747367.275 7  92530446.89044  22596878.047                    22596880.465
        44.500          29.700
 117779835.326 8  91776471.43346  22412755.156                    22412758.055
        48.200          36.200
 110317105.143 8  85961301.29746  20992622.875                    20992628.813
        48.800          41.100
 120947781.898 7  94245044.00244  23015601.906                    23015604.242
        45.800          29.100
 117912351.369 7  91879681.92845  22437950.266                    22437957.594
        46.400          35.200
 118496724.188 7  92335255.11645  22549218.930                    22549225.051
        46.000          34.000
 125357840.700 7  97681442.64444  23854806.102                    23854809.137
        44.800          27.200
 18  3 15 12 48 20.0000000  0 16G19R19R01R09R10R02R18G32R11G11G17G24
                                G28G01G10G15
 121774159.079 7  94888908.23944  23172849.398                    23172851.152
        43.700          28.900
                  86733549.816 6  20846518.102                    20846517.465
                        40.700
                  84867320.287 6  20412235.984                    20412239.867
                        38.600
                  86218538.048 6  20759095.539                    20759095.086
                        41.300
                  80424118.927 6  19398036.141                    19398039.949
                        40.200
                  89391891.787 6  21538287.641                    21538289.949
                        40.200
                  85806518.047 6  20667147.148                    20667147.254
                        41.200
 125028759.980 7  97425057.57044  23792190.523                    23792195.805
        43.900          26.900
                  93853110.853 6  22581421.094                    22581422.992
                        40.900
 118748802.829 7  92531565.49944  22597150.656                    22597153.813
        44.700          29.100
 117778232.710 8  91775222.63746  22412450.328                    22412453.238
        49.100          36.700
 110316606.853 8  85960913.01546  20992527.992                    20992534.145
        48.800          40.800
 120950947.974 7  94247511.06644  23016203.930                    23016206.746
        45.800          28.800
 117911800.286 7  91879252.51345  22437845.375                    22437852.703
        46.200          34.600
 118498705.313 7  92336798.85745  22549595.758                    22549601.836
        45.600          33.500
 125361827.556 7  97684549.27744  23855564.977                    23855567.637
        46.300          26.800
 18  3 15 12 48 21.0000000  0 16G19R19R01R09R10R02R18G32R11G11G17G24
                                G28G01G10G15
 121771077.376 7  94886506.88944  23172262.508                    23172264.391
        42.700          28.900
                  86731823.069 6  20846103.063                    20846102.637
                        41.200
                  84868880.566 6  20412611.891                    20412615.262
                        38.600
                  86221347.632 6  20759771.414                    20759771.719
                        41.200
                  80423598.694 6  19397911.359                    19397914.613
                        40.700
                  89389723.638 6  21537764.742                    21537767.648
                        40.200
                  85808259.464 6  20667565.617                    20667566.863
                        41.400
 125025967.244 7  97422881.39944  23791658.953                    23791664.277
        44.000          26.500
                  93850091.334 6  22580694.469                    22580696.594
                        41.000
 118750239.131 7  92532684.70444  22597423.547                    22597427.426
        43.700          29.400
 117776630.643 8  91773974.26446  22412145.688                    22412147.973
        48.700          36.800
 110316109.256 8  85960525.27746  20992432.953                    20992439.070
        48.800          40.900
 120954114.389 7  94249978.40044  23016806.648                    23016809.398
        45.700          29.200
 117911249.930 7  91878823.65545  22437740.258                    22437747.613
        46.100          34.300
 118500687.075 7  92338343.09345  22549972.930                    22549978.840
        46.100          33.600
 125365814.657 7  97687656.12744  23856323.844                    23856326.074
        47.000          27.300
 18  3 15 12 48 22.0000000  0 16G19R19R01R09R10R02R18G32R11G11G17G24
                                G28G01G10G15
 121767996.098 6  94884105.90144  23171675.578                    23171678.785
        41.300          29.100
                  86730096.985 6  20845688.148                    20845687.773
                        41.200
                  84870441.567 6  20412987.477                    20412990.828
                        38.600
                  86224157.678 6  20760448.336                    20760448.379
                        41.300
                  80423079.129 6  19397785.453                    19397788.766
                        40.600
                  89387556.016 6  21537242.133                    21537244.789
                        40.100
                  85810001.589 6  20667984.039                    20667986.629
                        41.400
 125023174.898 7  97420705.52244  23791127.859                    23791132.891
        44.500          27.200
                  93847072.006 6  22579967.031                    22579969.703
                        40.900
 118751676.170 7  92533804.48544  22597697.102                    22597700.684
        43.800          28.000
 117775029.132 8  91772726.32346  22411840.828                    22411843.645
        49.200          36.700
 110315612.336 8  85960138.06846  20992338.813                    20992344.523
        49.000          40.800
 120957281.145 7  94252446.00244  23017409.320                    23017411.922
        45.400          29.500
 117910700.347 7  91878395.40045  22437635.914                    22437643.270
        46.100          33.900
 118502669.447 7  92339887.79945  22550350.344                    22550356.441
        45.900          33.800
 125369802.035 7  97690763.20844  23857082.383                    23857084.906
        47.700          27.600
 18  3 15 12 48 23.0000000  0 16G19R19R01R09R10R02R18G32R11G11G17G24
                                G28G01G10G15
 121764915.177 6  94881705.22745  23171089.711                    23171093.215
        40.600          30.700
                  86728371.490 6  20845273.875                    20845273.453
                        41.100
                  84872003.277 6  20413363.266                    20413366.559
                        38.400
                  86226968.134 6  20761126.219                    20761125.004
                        41.000
                  80422560.199 6  19397659.688                    19397663.676
                        40.400
                  89385388.863 6  21536720.258                    21536722.852
                        40.200
                  85811744.384 6  20668404.258                    20668406.660
                        41.200
 125020382.915 7  97418529.92544  23790596.023                    23790601.238
        44.500          26.700
                  93844052.869 6  22579240.477                    22579243.066
                        41.000
 118753113.901 7  92534924.80144  22597970.461                    22597974.008
        43.700          27.800
 117773428.149 8  91771478.79746  22411536.016                    22411538.547
        49.100          36.800
 110315116.073 8  85959751.37446  20992244.133                    20992250.145
        48.800          40.900
 120960448.228 7  94254913.85545  23018011.891                    23018014.805
        45.200          30.700
 117910151.477 7  91877967.70645  22437531.492                    22437538.801
        46.300          33.800
 118504652.475 7  92341433.00845  22550727.883                    22550733.984
        46.500          34.200
 125373789.666 7  97693870.49644  23857840.641                    23857843.617
        47.300          27.700
 18  3 15 12 48 24.0000000  0 16G19R19R01R09R10R02R18G32R11G11G17G24
                                G28G01G10G15
 121761834.708 6  94879304.92545  23170503.641                    23170507.152
        41.400          31.300
                  86726646.606 6  20844859.039                    20844858.652
                        41.100
                  84873565.702 6  20413738.617                    20413742.469
                        38.500
                  86229779.044 6  20761801.516                    20761801.746
                        41.000
                  80422041.947 6  19397535.070                    19397538.715
                        40.400
                  89383222.249 6  21536198.164                    21536200.633
                        40.400
                  85813487.864 6  20668823.859                    20668826.387
                        41.500
 125017591.340 7  97416354.65244  23790064.688                    23790069.660
        44.300          27.100
                  93841033.993 6  22578516.016                    22578517.344
                        40.600
 118754552.424 7  92536045.72244  22598243.992                    22598247.906
        42.500          29.200
 117771827.729 8  91770231.70746  22411231.156                    22411233.906
        49.000          36.800
 110314620.540 8  85959365.24546  20992149.664                    20992155.445
        49.000          40.900
 120963615.690 7  94257382.01545  23018614.344                    23018617.871
        45.700          30.000
 117909603.398 7  91877540.63445  22437427.164                    22437434.301
        46.100          34.300
 118506636.125 7  92342978.69645  22551105.336                    22551111.043
        45.800          34.300
 125377777.575 7  97696977.99444  23858599.039                    23858602.438
        47.200          28.300
 18  3 15 12 48 25.0000000  0 16G19R19R01R09R10R02R18G32R11G11G17G24
                                G28G01G10G15
 121758754.626 7  94876904.92145  23169918.766                    23169922.035
        42.900          33.200
                  86724922.317 6  20844443.484                    20844443.660
                        41.200
                  84875128.805 6  20414115.094                    20414118.402
                        39.000
                  86232590.364 6  20762477.602                    20762478.566
                        41.200
                  80421524.321 6  19397409.758                    19397413.910
                        40.200
                  89381056.132 6  21535676.492                    21535678.695
                        40.400
                  85815231.979 6  20669244.797                    20669245.859
                        41.500
 125014800.079 7  97414179.62144  23789533.555                    23789538.691
        44.100          26.500
                  93838015.252 6  22577788.430                    22577790.902
                        40.400
 118755991.639 6  92537167.16944  22598518.125                    22598521.695
        41.700          28.600
 117770227.845 8  91768985.04146  22410927.094                    22410929.824
        49.500          36.800
 110314125.618 8  85958979.59446  20992055.766                    20992061.621
        48.800          40.600
 120966783.448 7  94259850.39544  23019217.742                    23019220.340
        45.500          29.400
 117909055.998 7  91877114.10445  22437322.984                    22437330.746
        46.000          34.500
 118508620.388 7  92344524.84545  22551482.469                    22551488.492
        46.300          33.700
 125381765.725 7  97700085.65544  23859357.234                    23859361.410
        45.500          28.300
 18  3 15 12 48 26.0000000  0 16G19R19R01R09R10R02R18G32R11G11G17G24
                                G28G01G10G15
 121755675.017 7  94874505.27045  23169333.672                    23169336.305
        44.600          34.100
                  86723198.692 6  20844030.461                    20844029.961
                        40.900
                  84876692.637 6  20414490.555                    20414494.492
                        38.400
                  86235402.168 6  20763155.477                    20763155.590
                        41.100
                  80421007.381 6  19397285.328                    19397289.230
                        40.400
                  89378890.566 6  21535155.305                    21535157.055
                        41.100
                  85816976.763 6  20669663.633                    20669666.512
                        41.400
 125012009.209 7  97412004.90744  23789002.555                    23789007.902
        43.700          27.300
                  93834996.771 6  22577063.008                    22577064.449
                        40.400
 118757431.667 7  92538289.25544  22598792.172                    22598795.961
        42.000          29.300
 117768628.551 8  91767738.83346  22410622.539                    22410625.328
        49.600          37.100
 110313631.411 8  85958594.50146  20991961.688                    20991967.449
        49.000          40.700
 120969951.612 7  94262319.08744  23019820.352                    23019823.363
        45.800          29.500
 117908509.353 7  91876688.16045  22437218.984                    22437226.387
        45.800          34.400
 118510605.354 7  92346071.53445  22551860.406                    22551866.316
        45.800          34.300
 125385754.193 7  97703193.54544  23860115.766                    23860120.508
        45.000          28.100
 18  3 15 12 48 27.0000000  0 16G19R19R01R09R10R02R18G32R11G11G17G24
                                G28G01G10G15
 121752595.862 7  94872105.95945  23168748.672                    23168750.891
        46.400          35.200
                  86721475.716 6  20843616.273                    20843615.918
                        40.900
                  84878257.171 6  20414866.328                    20414870.766
                        38.900
                  86238214.420 6  20763833.102                    20763833.023
                        41.000
                  80420491.111 6  19397161.195                    19397164.867
                        40.400
                  89376725.517 6  21534633.578                    21534635.129
                        40.900
                  85818722.292 6  20670083.242                    20670087.035
                        41.500
 125009218.733 7  97409830.51344  23788470.938                    23788476.633
        43.400          27.700
                  93831978.558 6  22576336.859                    22576338.051
                        40.200
 118758872.439 6  92539411.93244  22599066.391                    22599069.824
        41.700          29.400
 117767029.816 8  91766493.06746  22410318.148                    22410321.113
        49.600          36.800
 110313137.927 8  85958209.97546  20991867.891                    20991873.684
        49.500          40.500
 120973120.131 7  94264788.05644  23020423.078                    23020425.992
        45.800          29.300
 117907963.512 7  91876262.83345  22437115.070                    22437122.195
        45.900          34.700
 118512590.987 7  92347618.76145  22552238.227                    22552244.184
        46.300          33.100
 125389742.964 7  97706301.65744  23860874.813                    23860879.754
        43.800          28.100
 18  3 15 12 48 28.0000000  0 16G19R19R01R09R10R02R18G32R11G11G17G24
                                G28G01G10G15
 121749517.155 7  94869706.97245  23168162.398                    23168165.176
        47.000          35.400
                  86719753.372 6  20843201.898                    20843201.512
                        40.900
                  84879822.456 6  20415242.828                    20415247.027
                        38.900
                  86241027.125 6  20764509.609                    20764510.258
                        41.200
                  80419975.497 6  19397036.508                    19397040.086
                        40.200
                  89374561.010 6  21534111.617                    21534113.754
                        40.800
                  85820468.581 6  20670502.695                    20670507.414
                        41.500
 125006428.690 7  97407656.47744  23787940.031                    23787946.180
        43.200          27.600
                  93828960.576 6  22575610.617                    22575612.391
                        40.700
 118760314.008 6  92540535.23544  22599341.250                    22599344.395
        41.500          29.300
 117765431.678 8  91765247.76146  22410013.633                    22410017.539
        49.200          36.600
 110312645.135 8  85957825.98446  20991773.859                    20991779.801
        49.600          40.600
 120976289.003 7  94267257.30345  23021026.984                    23021029.234
        45.700          30.000
 117907418.416 7  91875838.09745  22437011.469                    22437019.070
        46.200          35.100
 118514577.321 7  92349166.53345  22552616.336                    22552622.520
        46.400          34.600
 125393732.025 7  97709409.97944  23861633.563                    23861638.816
        42.600          27.800
 18  3 15 12 48 29.0000000  0 16G19R19R01R09R10R02R18G32R11G11G17G24
                                G28G01G10G15
 121746438.883 8  94867308.31645  23167577.547                    23167580.121
        48.000          35.000
                  86718031.647 6  20842787.883                    20842787.742
                        40.900
                  84881388.412 6  20415620.266                    20415624.043
                        38.800
                  86243840.315 6  20765186.484                    20765187.598
                        41.200
                  80419460.566 6  19396912.086                    19396916.223
                        40.200
                  89372396.986 6  21533590.320                    21533592.117
                        40.600
                  85822215.542 6  20670925.211                    20670927.445
                        41.400
 125003639.046 7  97405482.74644  23787409.578                    23787415.551
        43.200          28.200
                  93825942.741 6  22574882.867                    22574886.059
                        41.000
 118761756.367 7  92541659.15144  22599616.008                    22599618.555
        42.200          28.700
 117763834.089 8  91764002.89046  22409709.883                    22409713.641
        48.300          36.600
 110312153.060 8  85957442.54646  20991680.297                    20991686.281
        49.800          40.600
 120979458.256 7  94269726.85445  23021629.781                    23021632.051
        45.900          30.400
 117906874.083 7  91875413.95945  22436908.203                    22436915.164
        46.400          34.800
 118516564.285 7  92350714.80845  22552993.992                    22553000.738
        46.000          34.200
 125397721.373 7  97712518.51944  23862393.969                    23862398.301
        43.000          28.300
 18  3 15 12 48 30.0000000  0 16G19R19R01R09R10R02R18G32R11G11G17G24
                                G28G01G10G15
 121743361.065 8  94864910.01145  23166991.766                    23166994.332
        48.000          34.400
                  86716310.570 6  20842374.578                    20842374.117
                        41.200
                  84882955.099 6  20415996.750                    20416000.848
                        38.800
                  86246653.930 6  20765865.000                    20765864.949
                        41.200
                  80418946.310 6  19396788.070                    19396792.098
                        40.200
                  89370233.470 6  21533068.891                    21533071.027
                        41.000
                  85823963.165 6  20671348.211                    20671348.656
                        41.400
 125000849.767 7  97403309.29444  23786878.883                    23786885.223
        43.900          28.000
                  93822925.182 6  22574158.484                    22574159.395
                        41.000
 118763199.443 7  92542783.64444  22599890.867                    22599893.309
        42.600          28.700
 117762237.080 8  91762758.47646  22409405.844                    22409409.797
        48.100          36.600
 110311661.676 8  85957059.65146  20991586.758                    20991592.648
        49.800          40.700
 120982627.870 7  94272196.68445  23022232.883                    23022235.395
        46.000          30.200
 117906330.513 7  91874990.41045  22436804.750                    22436811.566
        46.300          34.700
 118518551.927 7  92352263.61045  22553372.398                    22553378.547
        45.600          34.400
 125401710.993 7  97715627.27544  23863153.875                    23863157.660
        44.200          28.200
 18  3 15 12 48 31.0000000  0 16G19R19R01R09R10R02R18G32R11G11G17G24
                                G28G01G10G15
 121740283.606 8  94862511.97945  23166406.266                    23166408.652
        48.000          32.300
                  86714590.089 6  20841961.188                    20841960.555
                        41.400
                  84884522.448 6  20416373.297                    20416377.523
                        38.800
                  86249467.970 6  20766542.789                    20766542.605
                        41.200
                  80418432.690 6  19396664.141                    19396667.922
                        40.300
                  89368070.439 6  21532547.250                    21532549.816
                        40.700
                  85825711.406 6  20671769.328                    20671770.242
                        41.100
 124998060.885 7  97401136.15544  23786347.977                    23786354.164
        44.500          29.200
                  93819907.820 6  22573432.078                    22573434.348
                        40.900
 118764643.260 7  92543908.69544  22600165.805                    22600167.938
        42.000          28.700
 117760640.594 8  91761514.46946  22409102.344                    22409105.590
        48.200          36.900
 110311170.948 8  85956677.26346  20991493.711                    20991499.754
        49.600          40.900
 120985797.800 7  94274666.75844  23022835.906                    23022838.984
        45.900          29.300
 117905787.609 7  91874567.38045  22436701.289                    22436708.285
        46.100          34.800
 118520540.173 7  92353812.88545  22553750.766                    22553757.094
        45.800          33.900
 125405700.853 7  97718736.23044  23863913.242                    23863916.930
        44.700          27.200
 18  3 15 12 48 32.0000000  0 16G19R19R01R09R10R02R18G32R11G11G17G24
                                G28G01G10G15
 121737206.601 7  94860114.30444  23165820.586                    23165822.848
        47.000          29.800
                  86712870.249 6  20841547.016                    20841548.000
                        40.800
                  84886090.490 6  20416751.383                    20416754.559
                        38.600
                  86252282.471 6  20767219.461                    20767219.844
                        41.100
                  80417919.749 6  19396540.422                    19396543.996
                        40.200
                  89365907.928 6  21532025.781                    21532028.414
                        40.600
                  85827460.378 6  20672189.289                    20672192.047
                        41.100
 124995272.385 7  97398963.30844  23785817.883                    23785823.270
        45.100          28.900
                  93816890.735 6  22572706.602                    22572708.031
                        40.800
 118766087.822 7  92545034.33544  22600441.039                    22600442.984
        42.600          29.000
 117759044.683 8  91760270.91146  22408798.727                    22408801.988
        48.400          36.900
 110310680.899 8  85956295.40446  20991400.258                    20991405.734
        49.500          40.500
 120988968.087 7  94277137.11644  23023438.594                    23023441.914
        45.600          28.900
 117905245.475 7  91874144.94145  22436598.211                    22436605.617
        46.300          34.400
 118522529.078 7  92355362.66945  22554129.859                    22554135.762
        45.800          33.600
 125409690.968 7  97721845.41944  23864672.859                    23864676.789
        45.600          27.200
 18  3 15 12 48 33.0000000  0 16G19R19R01R09R10R02R18G32R11G11G17G24
                                G28G01G10G15
 121734129.968 7  94857716.91144  23165234.867                    23165236.828
        45.700          25.500
                  86711150.997 6  20841133.508                    20841134.000
                        41.000
                  84887659.218 6  20417128.641                    20417131.984
                        38.500
                  86255097.390 6  20767897.242                    20767897.574
                        41.200
                  80417407.452 6  19396417.016                    19396420.934
                        40.600
                  89363745.896 6  21531505.078                    21531507.645
                        40.900
                  85829210.035 6  20672610.117                    20672613.129
                        40.800
 124992484.260 7  97396790.75044  23785287.391                    23785292.836
        45.100          28.500
                  93813873.799 6  22571980.492                    22571981.996
                        40.300
 118767533.079 7  92546160.51644  22600715.727                    22600717.676
        43.300          28.800
 117757449.301 7  91759027.76346  22408494.969                    22408498.723
        47.800          37.200
 110310191.527 8  85955914.08146  20991307.109                    20991313.059
        49.100          40.500
 120992138.705 7  94279607.72944  23024042.047                    23024045.516
        45.300          28.700
 117904704.027 7  91873723.03145  22436495.086                    22436502.410
        45.800          34.900
 118524518.603 7  92356912.92345  22554507.516                    22554514.066
        45.900          33.200
 125413681.336 7  97724954.81644  23865431.727                    23865435.445
        45.600          26.000
 18  3 15 12 48 34.0000000  0 16G19R19R01R09R10R02R18G32R11G11G17G24
                                G28G01G10G15
 121731053.748 7  94855319.82743  23164648.742                    23164650.711
        43.700          22.200
                  86709432.387 6  20840721.070                    20840720.883
                        41.100
                  84889228.631 6  20417506.203                    20417509.348
                        38.100
                  86257912.748 6  20768575.805                    20768575.902
                        41.000
                  80416895.815 6  19396293.234                    19396297.445
                        40.600
                  89361584.377 6  21530985.117                    21530986.586
                        41.000
                  85830960.385 6  20673031.031                    20673034.809
                        41.100
 124989696.504 7  97394618.47744  23784757.000                    23784762.652
        45.200          28.900
                  93810857.079 6  22571255.508                    22571256.246
                        40.900
 118768979.089 7  92547287.27644  22600991.328                    22600992.840
        44.000          29.000
 117755854.479 7  91757785.05046  22408191.383                    22408194.895
        47.600          37.300
 110309702.804 8  85955533.25746  20991213.977                    20991220.051
        49.100          40.600
 120995309.659 7  94282078.59344  23024645.672                    23024648.543
        45.100          29.100
 117904163.335 7  91873301.70745  22436391.781                    22436399.195
        45.900          34.800
 118526508.811 7  92358463.72545  22554886.414                    22554892.809
        46.200          33.700
 125417671.955 7  97728064.42744  23866191.328                    23866194.664
        45.900          26.700
 18  3 15 12 48 35.0000000  0 16G19R19R01R09R10R02R18G32R11G11G17G24
                                G28G01G10G15
 121727977.925 6  94852922.99043  23164062.773                    23164064.902
        41.500          21.300
                  86707714.409 6  20840309.063                    20840307.852
                        41.100
                  84890798.760 6  20417883.891                    20417887.203
                        38.400
                  86260728.561 6  20769253.195                    20769253.871
                        40.900
                  80416384.843 6  19396171.008                    19396174.457
                        40.300
                  89359423.370 6  21530464.883                    21530466.457
                        41.200
                  85832711.421 6  20673453.289                    20673456.301
                        41.000
 124986909.109 7  97392446.48544  23784226.719                    23784232.379
        44.900          28.400
                  93807840.564 6  22570528.836                    22570530.480
                        40.500
 118770425.851 7  92548414.62744  22601266.320                    22601268.008
        44.400          29.000
 117754260.212 8  91756542.77146  22407888.492                    22407891.930
        48.200          37.300
 110309214.767 8  85955152.97146  20991120.992                    20991127.102
        50.100          40.900
 120998480.956 7  94284549.72644  23025248.930                    23025252.355
        44.900          29.600
 117903623.391 7  91872880.97245  22436289.305                    22436296.492
        46.000          34.500
 118528499.696 7  92360015.06645  22555265.484                    22555271.730
        46.400          34.300
 125421662.838 7  97731174.24144  23866950.422                    23866954.051
        45.600          26.800
 18  3 15 12 48 36.0000000  0 16G19R19R01R09R10R02R18G32R11G11G17G24
                                G28G01G10G15
 121724902.443 6  94850526.41743  23163475.594                    23163478.293
        39.200          21.700
                  86705997.013 6  20839896.445                    20839895.023
                        41.000
                  84892369.552 6  20418261.320                    20418264.938
                        38.300
                  86263544.791 6  20769930.414                    20769931.258
                        40.900
                  80415874.524 6  19396047.766                    19396051.277
                        40.300
                  89357262.813 6  21529944.344                    21529946.172
                        40.100
                  85834463.082 6  20673875.148                    20673877.742
                        41.000
 124984122.043 7  97390274.74344  23783695.641                    23783701.988
        44.100          27.400
                  93804824.262 6  22569801.992                    22569805.453
                        40.600
 118771873.315 7  92549542.53444  22601542.078                    22601543.262
        44.900          29.600
 117752666.459 8  91755300.89746  22407585.266                    22407587.965
        49.000          36.900
 110308727.392 8  85954773.19746  20991028.711                    20991034.418
        50.400          40.900
 121001652.607 7  94287021.13444  23025853.180                    23025855.941
        45.100          29.600
 117903084.188 7  91872460.82545  22436186.477                    22436194.215
        45.800          34.800
 118530491.150 7  92361566.85045  22555644.750                    22555650.742
        47.200          34.100
 125425654.000 7  97734284.26944  23867709.156                    23867712.910
        45.800          27.100
 18  3 15 12 48 37.0000000  0 16G19R19R01R09R10R02R18G32R11G11G17G24
                                G28G01G10G15
 121721827.379 6  94848130.24143  23162890.141                    23162892.988
        37.900          22.900
                  86704280.197 6  20839482.781                    20839482.949
                        41.200
                  84893941.036 6  20418639.609                    20418643.105
                        38.400
                  86266361.452 6  20770609.625                    20770609.320
                        40.900
                  80415364.848 6  19395924.594                    19395928.668
                        40.200
                  89355102.771 6  21529423.031                    21529426.043
                        40.800
                  85836215.398 6  20674297.531                    20674299.688
                        41.100
 124981335.382 7  97388103.30444  23783165.289                    23783171.570
        44.300          26.500
                  93801808.183 6  22569076.742                    22569078.746
                        40.800
 118773321.483 7  92550670.98544  22601817.352                    22601818.797
        44.600          29.300
 117751073.275 8  91754059.46346  22407282.219                    22407284.945
        49.900          37.300
 110308240.658 8  85954393.91646  20990936.031                    20990941.645
        50.500          40.900
 121004824.547 7  94289492.76844  23026456.758                    23026459.848
        45.100          29.800
 117902545.639 7  91872041.18045  22436083.906                    22436091.277
        46.000          34.600
 118532483.206 7  92363119.09045  22556024.102                    22556029.875
        46.300          33.500
 125429645.390 7  97737394.44844  23868468.234                    23868472.715
        45.500          27.600
 18  3 15 12 48 38.0000000  0 16G19R19R01R09R10R02R18G32R11G11G17G24
                                G28G01G10G15
 121718752.707 6  94845734.44444  23162307.563                    23162307.340
        41.700          26.800
                  86702564.075 6  20839069.820                    20839070.527
                        40.600
                  84895513.229 6  20419017.242                    20419021.418
                        38.600
                  86269178.539 6  20771288.422                    20771287.840
                        41.100
                  80414855.843 6  19395801.516                    19395805.566
                        40.100
                  89352943.248 6  21528903.141                    21528905.848
                        40.400
                  85837968.416 6  20674720.531                    20674721.887
                        41.000
 124978549.057 7  97385932.12544  23782634.594                    23782640.754
        43.100          25.800
                  93798792.305 6  22568351.984                    22568353.570
                        40.300
 118774770.441 7  92551800.05544  22602092.406                    22602094.652
        44.700          28.500
 117749480.641 8  91752818.45346  22406979.023                    22406981.852
        50.200          37.900
 110307754.639 8  85954015.20146  20990843.328                    20990849.242
        50.800          40.800
 121007996.839 7  94291964.67944  23027060.250                    23027062.992
        45.800          29.900
 117902007.907 7  91871622.16845  22435981.742                    22435989.227
        45.500          34.400
 118534475.983 7  92364671.88145  22556403.141                    22556408.770
        46.500          34.200
 125433637.085 7  97740504.85244  23869227.953                    23869232.035
        44.600          26.900
 18  3 15 12 48 39.0000000  0 16G19R19R01R09R10R02R18G32R11G11G17G24
                                G28G01G10G15
 121715678.565 7  94843339.08944  23161722.961                    23161723.133
        43.000          28.900
                  86700848.556 6  20838658.141                    20838658.496
                        40.600
                  84897086.099 6  20419395.992                    20419399.594
                        38.300
                  86271996.110 6  20771966.008                    20771966.648
                        41.100
                  80414347.492 6  19395678.484                    19395682.770
                        40.100
                  89350784.262 6  21528382.391                    21528385.156
                        40.400
                  85839722.134 6  20675142.313                    20675144.801
                        41.000
 124975763.148 7  97383761.27044  23782104.398                    23782110.594
        43.500          25.600
                  93795776.588 6  22567624.617                    22567627.820
                        40.600
 118776220.148 7  92552929.70844  22602368.484                    22602370.121
        44.900          29.300
 117747888.580 8  91751577.88146  22406676.094                    22406678.477
        50.000          37.700
 110307269.291 8  85953637.00746  20990751.023                    20990757.000
        49.300          41.100
 121011169.500 7  94294436.88944  23027663.883                    23027667.020
        46.000          29.600
 117901470.865 7  91871203.69345  22435879.375                    22435886.793
        46.000          34.500
 118536469.397 7  92366225.17545  22556782.352                    22556788.422
        46.400          33.700
 125437629.085 7  97743615.47544  23869988.234                    23869991.984
        44.300          29.100
 18  3 15 12 48 40.0000000  0 16G19R19R01R09R10R02R18G32R11G11G17G24
                                G28G01G10G15
 121712604.846 7  94840944.03545  23161138.758                    23161138.715
        45.600          33.200
                  86699133.663 6  20838246.461                    20838245.883
                        40.800
                  84898659.691 6  20419774.352                    20419777.973
                        38.500
                  86274814.128 6  20772645.094                    20772645.512
                        40.800
                  80413839.812 6  19395556.516                    19395560.164
                        40.200
                  89348625.812 6  21527862.609                    21527865.000
                        40.100
                  85841476.560 6  20675565.203                    20675567.953
                        41.100
 124972977.628 7  97381590.74344  23781574.117                    23781579.969
        43.600          26.000
                  93792761.179 6  22566901.469                    22566902.203
                        40.400
 118777670.591 7  92554059.94244  22602644.445                    22602646.195
        44.800          29.700
 117746297.095 8  91750337.75146  22406372.898                    22406375.707
        48.900          37.800
 110306784.643 8  85953259.35746  20990658.906                    20990664.906
        48.900          40.600
 121014342.514 7  94296909.37844  23028267.633                    23028270.461
        45.600          29.100
 117900934.577 7  91870785.79945  22435777.219                    22435784.719
        45.800          35.000
 118538463.484 7  92367779.00245  22557161.539                    22557167.781
        46.100          34.400
 125441621.291 7  97746726.25544  23870748.148                    23870752.004
        44.100          27.400
 18  3 15 12 48 41.0000000  0 16G19R19R01R09R10R02R18G32R11G11G17G24
                                G28G01G10G15
 121709531.551 7  94838549.28345  23160554.250                    23160554.547
        46.300          35.100
                  86697419.388 6  20837834.328                    20837834.129
                        40.900
                  84900233.947 6  20420153.109                    20420156.535
                        38.600
                  86277632.541 6  20773324.227                    20773323.512
                        41.100
                  80413332.780 6  19395434.445                    19395438.320
                        40.500
                  89346467.824 6  21527343.141                    21527344.777
                        40.100
                  85843231.647 6  20675987.852                    20675990.328
                        40.900
 124970192.461 7  97379420.50644  23781044.836                    23781050.059
        43.500          27.000
                  93789745.949 6  22566176.453                    22566177.586
                        40.500
 118779121.742 7  92555190.72644  22602920.273                    22602922.324
        45.100          29.800
 117744706.116 8  91749098.01646  22406069.844                    22406073.129
        48.700          37.200
 110306300.702 8  85952882.26746  20990566.664                    20990572.828
        49.000          40.600
 121017515.865 7  94299382.12444  23028871.273                    23028874.551
        45.500          29.300
 117900399.025 7  91870368.48845  22435675.586                    22435682.809
        46.100          34.400
 118540458.122 7  92369333.25945  22557540.992                    22557547.340
        45.400          33.100
 125445613.790 7  97749837.27044  23871508.008                    23871511.805
        44.400          28.100
 18  3 15 12 48 42.0000000  0 16G19R19R01R09R10R02R18G32R11G11G17G24
                                G28G01G10G15
 121706458.640 7  94836154.79645  23159969.477                    23159970.125
        46.800          34.800
                  86695705.718 6  20837422.789                    20837422.223
                        40.900
                  84901808.896 6  20420532.352                    20420536.098
                        38.500
                  86280451.416 6  20774002.102                    20774002.332
                        41.300
                  80412826.375 6  19395312.234                    19395316.230
                        40.100
                  89344310.335 6  21526823.961                    21526824.902
                        40.800
                  85844987.392 6  20676409.461                    20676412.496
                        41.200
 124967407.675 7  97377250.54544  23780515.344                    23780520.098
        44.300          27.900
                  93786730.900 6  22565448.047                    22565451.488
                        40.400
 118780573.667 7  92556322.10544  22603196.266                    22603198.883
        44.100          29.900
 117743115.674 8  91747858.69746  22405766.984                    22405770.488
        48.000          36.600
 110305817.389 8  85952505.66046  20990474.461                    20990480.859
        49.400          40.700
 121020689.547 7  94301855.12444  23029474.672                    23029478.301
        45.100          29.400
 117899864.182 7  91869951.73645  22435573.680                    22435580.773
        46.300          34.500
 118542453.448 7  92370888.04245  22557921.313                    22557927.430
        45.600          33.600
 125449606.487 7  97752948.43744  23872268.000                    23872271.527
        45.100          28.400
 18  3 15 12 48 43.0000000  0 16G19R19R01R09R10R02R18G32R11G11G17G24
                                G28G01G10G15
 121703386.143 7  94833760.62245  23159385.391                    23159386.039
        47.300          34.700
                  86693992.664 6  20837011.188                    20837010.355
                        41.000
                  84903384.510 6  20420910.773                    20420914.199
                        38.700
                  86283270.701 6  20774680.523                    20774680.902
                        41.200
                  80412320.618 6  19395190.016                    19395194.023
                        40.400
                  89342153.325 6  21526303.633                    21526305.035
                        40.600
                  85846743.792 6  20676832.438                    20676835.574
                        41.200
 124964623.249 7  97375080.87144  23779985.391                    23779990.789
        44.700          27.800
                  93783716.093 6  22564724.961                    22564725.563
                        41.200
 118782026.263 7  92557454.00344  22603472.375                    22603475.160
        43.500          29.100
 117741525.766 7  91746619.79646  22405464.281                    22405468.184
        47.700          36.400
 110305334.752 8  85952129.58346  20990382.844                    20990388.707
        50.000          40.600
 121023863.542 7  94304328.35444  23030078.969                    23030082.324
        44.600          29.500
 117899330.063 7  91869535.54145  22435472.250                    22435479.316
        46.300          34.700
 118544449.457 7  92372443.38045  22558300.945                    22558306.664
        45.800          33.700
 125453599.479 7  97756059.85444  23873027.773                    23873031.859
        45.000          27.500
 18  3 15 12 48 44.0000000  0 16G19R19R01R09R10R02R18G32R11G11G17G24
                                G28G01G10G15
 121700314.121 7  94831366.83145  23158800.484                    23158801.645
        46.400          34.800
                  86692280.245 6  20836599.406                    20836598.621
                        41.100
                  84904960.866 6  20421290.000                    20421293.770
                        38.500
                  86286090.478 6  20775360.063                    20775359.750
                        41.100
                  80411815.560 6  19395067.750                    19395072.590
                        40.600
                  89339996.872 6  21525783.297                    21525786.023
                        40.700
                  85848500.915 6  20677256.891                    20677258.617
                        41.600
 124961839.244 7  97372911.51844  23779455.516                    23779460.902
        44.900          28.500
                  93780701.522 6  22563999.320                    22564000.945
                        40.900
 118783479.686 7  92558586.54544  22603748.531                    22603752.066
        42.800          28.600
 117739936.472 7  91745381.39446  22405161.672                    22405165.551
        47.000          36.000
 110304852.861 8  85951754.07946  20990291.219                    20990297.188
        50.500          40.500
 121027037.972 7  94306801.92444  23030683.508                    23030686.543
        44.800          29.400
 117898796.747 7  91869119.96745  22435370.664                    22435377.777
        45.100          34.200
 118546446.185 7  92373999.28845  22558680.820                    22558686.973
        46.000          33.900
 125457592.771 7  97759171.50844  23873787.922                    23873792.063
        45.200          28.700
 18  3 15 12 48 45.0000000  0 16G19R19R01R09R10R02R18G32R11G11G17G24
                                G28G01G10G15
 121697242.489 7  94828973.33244  23158215.141                    23158217.027
        44.300          29.700
                  86690568.459 6  20836186.594                    20836187.047
                        40.900
                  84906537.909 6  20421669.195                    20421672.613
                        39.000
                  86288910.679 6  20776039.242                    20776039.691
                        41.200
                  80411311.151 6  19394946.766                    19394950.672
                        40.600
                  89337840.917 6  21525264.141                    21525266.816
                        40.800
                  85850258.700 6  20677681.719                    20677682.375
                        41.300
 124959055.643 7  97370742.47844  23778925.773                    23778930.988
        44.800          29.700
                  93777687.120 6  22563272.734                    22563275.582
                        40.900
 118784933.879 7  92559719.68544  22604025.375                    22604029.262
        42.400          29.100
 117738347.719 7  91744143.41546  22404859.742                    22404863.637
        47.400          36.900
 110304371.648 8  85951379.11146  20990199.539                    20990205.582
        50.600          40.500
 121030212.709 7  94309275.72845  23031287.891                    23031290.879
        45.200          30.700
 117898264.156 7  91868704.96445  22435269.203                    22435276.469
        44.600          34.600
 118548443.512 7  92375555.66845  22559060.664                    22559066.949
        46.300          33.800
 125461586.341 7  97762283.37644  23874547.305                    23874551.879
        45.600          27.700
 18  3 15 12 48 46.0000000  0 16G19R19R01R09R10R02R18G32R11G11G17G24
                                G28G01G10G15
 121694171.252 6  94826580.15744  23157629.969                    23157633.000
        41.700          26.400
                  86688857.276 6  20835775.383                    20835775.855
                        40.900
                  84908115.651 6  20422049.164                    20422052.621
                        39.000
                  86291731.326 6  20776718.180                    20776717.941
                        41.300
                  80410807.407 6  19394825.406                    19394829.484
                        40.500
                  89335685.471 6  21524744.172                    21524747.781
                        40.900
                  85852017.172 6  20678104.891                    20678106.078
                        41.300
 124956272.405 7  97368573.72044  23778396.211                    23778401.746
        45.300          28.600
                  93774673.000 6  22562549.563                    22562550.680
                        41.000
 118786388.770 7  92560853.35444  22604301.914                    22604305.453
        42.300          29.700
 117736759.502 8  91742905.85446  22404557.805                    22404561.012
        48.000          36.900
 110303891.113 8  85951004.66646  20990108.234                    20990114.098
        50.800          40.500
 121033387.776 7  94311749.80145  23031892.781                    23031895.137
        45.400          30.200
 117897732.337 7  91868290.56345  22435168.023                    22435175.578
        44.800          33.700
 118550441.510 7  92377112.57045  22559440.891                    22559447.598
        46.200          33.200
 125465580.137 7  97765395.41144  23875307.523                    23875311.578
        46.100          27.100
 18  3 15 12 48 47.0000000  0 16G19R19R01R09R10R02R18G32R11G11G17G24
                                G28G01G10G15
 121691100.459 6  94824187.33843  23157044.203                    23157048.340
        39.900          22.800
                  86687146.749 6  20835365.219                    20835364.680
                        40.400
                  84909694.065 6  20422427.906                    20422431.406
                        38.500
                  86294552.430 6  20777397.273                    20777397.531
                        41.200
                  80410304.332 6  19394704.023                    19394707.121
                        40.000
                  89333530.582 6  21524225.258                    21524228.520
                        40.800
                  85853776.328 6  20678528.055                    20678530.445
                        41.300
 124953489.544 7  97366405.25344  23777866.227                    23777872.156
        44.600          29.100
                  93771659.062 6  22561822.992                    22561824.801
                        40.700
 118787844.470 7  92561987.65144  22604579.273                    22604582.488
        42.300          28.900
 117735171.881 8  91741668.75546  22404256.219                    22404258.852
        48.400          36.700
 110303411.263 8  85950630.75646  20990016.742                    20990022.828
        51.200          40.600
 121036563.194 7  94314224.15645  23032497.063                    23032499.344
        46.100          30.300
 117897201.201 7  91867876.69545  22435066.961                    22435074.117
        45.200          34.800
 118552440.145 7  92378669.96645  22559821.258                    22559827.520
        46.900          33.600
 125469574.193 7  97768507.67744  23876066.922                    23876071.563
        46.600          27.300
 18  3 15 12 48 48.0000000  0 16G19R19R01R09R10R02R18G32R11G11G17G24
                                G28G01G10G15
 121688030.006 5  94821794.78343  23156458.461                    23156464.109
        35.400          22.600
                  86685436.863 6  20834953.992                    20834953.586
                        40.500
                  84911273.225 6  20422808.422                    20422812.336
                        38.400
                  86297373.956 6  20778077.148                    20778076.926
                        41.200
                  80409801.927 6  19394582.672                    19394587.074
                        39.700
                  89331376.245 6  21523706.430                    21523709.602
                        40.600
                  85855536.192 6  20678949.930                    20678954.008
                        40.800
 124950707.057 7  97364237.09544  23777336.945                    23777343.023
        43.900          29.300
                  93768645.371 6  22561097.422                    22561100.465
                        41.500
 118789300.896 6  92563122.52144  22604856.625                    22604859.922
        41.800          28.900
 117733584.802 8  91740432.06846  22403954.320                    22403956.984
        49.100          37.000
 110302932.084 8  85950257.36146  20989925.422                    20989931.434
        51.200          40.600
 121039738.950 7  94316698.77544  23033100.578                    23033103.961
        45.900          29.900
 117896670.841 7  91867463.43045  22434966.188                    22434973.453
        44.800          34.600
 118554439.437 7  92380227.87945  22560201.828                    22560207.957
        47.000          33.200
 125473568.529 7  97771620.17044  23876827.609                    23876831.906
        46.400          26.500
 18  3 15 12 48 49.0000000  0 16G19R19R01R09R10R02R18G32R11G11G17G24
                                G28G01G10G15
 121684959.922 5  94819402.56843  23155872.078                    23155878.879
        33.400          22.500
                  86683727.625 6  20834543.141                    20834543.602
                        40.600
                  84912853.113 6  20423188.133                    20423191.934
                        38.900
                  86300195.976 6  20778755.602                    20778755.977
                        41.200
                  80409300.229 6  19394461.742                    19394465.660
                        39.800
                  89329222.445 6  21523188.039                    21523190.715
                        40.600
                  85857296.772 6  20679374.289                    20679377.500
                        40.900
 124947925.000 7  97362069.25844  23776807.367                    23776813.637
        43.700          26.700
                  93765631.927 6  22560373.023                    22560374.715
                        41.200
 118790758.086 6  92564257.99544  22605135.039                    22605136.992
        41.900          28.800
 117731998.351 8  91739195.86446  22403652.523                    22403654.965
        49.500          37.700
 110302453.620 8  85949884.53946  20989834.500                    20989840.621
        51.100          40.500
 121042915.117 7  94319173.72544  23033704.430                    23033708.004
        45.600          29.800
 117896141.255 7  91867050.76745  22434865.203                    22434872.539
        44.500          34.500
 118556439.430 7  92381786.34645  22560581.844                    22560588.285
        46.400          33.400
 125477563.209 7  97774732.93944  23877587.148                    23877591.645
        45.900          26.200
 18  3 15 12 48 50.0000000  0 16G19R19R01R09R10R02R18G32R11G11G17G24
                                G28G01G10G15
 121681890.443 6  94817010.85743  23155290.641                    23155294.109
        38.600          21.700
                  86682019.035 6  20834132.492                    20834131.855
                        40.700
                  84914433.725 6  20423568.438                    20423571.918
                        39.100
                  86303018.472 6  20779435.641                    20779435.699
                        41.100
                  80408799.211 6  19394340.742                    19394344.516
                        39.900
                  89327069.188 6  21522669.461                    21522670.973
                        40.200
                  85859058.045 6  20679799.586                    20679801.145
                        41.600
 124945143.357 7  97359901.75144  23776277.609                    23776283.977
        43.100          28.100
                  93762618.679 6  22559647.430                    22559650.168
                        40.900
 118792216.098 7  92565394.10544  22605412.438                    22605415.066
        42.500          27.900
 117730412.488 8  91737960.11546  22403350.344                    22403353.566
        49.600          37.100
 110301975.879 8  85949512.27646  20989743.547                    20989749.578
        51.300          40.500
 121046091.688 7  94321648.97545  23034309.195                    23034312.641
        44.800          30.000
 117895612.456 7  91866638.71245  22434765.250                    22434771.855
        44.900          34.600
 118558440.056 7  92383345.30145  22560962.867                    22560969.398
        46.500          33.600
 125481558.156 7  97777845.90644  23878347.500                    23878351.621
        45.500          28.000
 18  3 15 12 48 51.0000000  0 16G19R19R01R09R10R02R18G32R11G11G17G24
                                G28G01G10G15
 121678821.405 7  94814619.44343  23154709.148                    23154709.141
        42.300          22.300
                  86680311.087 6  20833721.313                    20833721.719
                        40.500
                  84916015.044 6  20423948.609                    20423952.617
                        38.900
                  86305841.399 6  20780115.406                    20780115.109
                        40.900
                  80408298.877 6  19394220.211                    19394224.125
                        39.700
                  89324916.425 6  21522149.563                    21522152.418
                        39.900
                  85860819.995 6  20680225.133                    20680226.512
                        41.200
 124942362.103 7  97357734.54444  23775748.422                    23775754.875
        43.200          26.400
                  93759605.689 6  22558923.023                    22558924.922
                        41.100
 118793674.796 7  92566530.74444  22605690.336                    22605692.313
        43.300          28.900
 117728827.195 8  91736724.81346  22403048.734                    22403052.066
        50.000          36.500
 110301498.815 8  85949140.53546  20989652.781                    20989658.906
        51.200          40.400
 121049268.605 7  94324124.48844  23034913.406                    23034916.652
        45.000          29.700
 117895084.378 7  91866227.21745  22434664.914                    22434671.523
        46.200          35.400
 118560441.347 7  92384904.74645  22561344.047                    22561349.977
        46.300          33.100
 125485553.412 7  97780959.10444  23879107.656                    23879111.770
        45.500          27.300
 18  3 15 12 48 52.0000000  0 16G19R19R01R09R10R02R18G32R11G11G17G24
                                G28G01G10G15
 121675752.824 7  94812228.30244  23154126.266                    23154125.074
        44.900          27.800
                  86678603.778 6  20833311.344                    20833311.270
                        40.400
                  84917597.041 6  20424328.984                    20424333.063
                        38.400
                  86308664.767 6  20780795.625                    20780795.020
                        40.800
                  80407799.201 6  19394099.414                    19394103.438
                        39.700
                  89322764.152 6  21521630.297                    21521633.672
                        40.200
                  85862582.624 6  20680648.734                    20680651.199
                        41.100
 124939581.216 7  97355567.62644  23775219.008                    23775225.602
        43.500          27.100
                  93756592.954 6  22558198.266                    22558200.324
                        41.100
 118795134.271 7  92567667.99244  22605968.398                    22605969.949
        42.800          28.900
 117727242.445 8  91735489.93546  22402747.398                    22402750.594
        49.600          36.500
 110301022.431 8  85948769.33046  20989561.945                    20989568.051
        51.600          40.500
 121052445.874 7  94326600.26344  23035518.578                    23035521.707
        44.600          29.600
 117894557.064 7  91865816.31845  22434563.836                    22434570.984
        46.400          35.100
 118562443.247 7  92386464.65045  22561724.797                    22561730.867
        46.300          34.000
 125489548.926 7  97784072.49044  23879868.422                    23879872.477
        44.900          28.100
 18  3 15 12 48 53.0000000  0 16G19R19R01R09R10R02R18G32R11G11G17G24
                                G28G01G10G15
 121672684.633 7  94809837.42845  23153543.016                    23153540.707
        46.700          30.600
                  86676897.073 6  20832901.664                    20832901.156
                        40.200
                  84919179.761 6  20424709.750                    20424713.359
                        38.400
                  86311488.581 6  20781475.086                    20781475.688
                        41.000
                  80407300.170 6  19393978.758                    19393982.547
                        39.900
                  89320612.422 6  21521112.133                    21521114.781
                        40.200
                  85864345.945 6  20681072.320                    20681075.996
                        41.200
 124936800.725 7  97353401.01144  23774690.016                    23774696.527
        43.700          26.500
                  93753580.378 6  22557471.750                    22557474.883
                        40.900
 118796594.459 7  92568805.79744  22606246.125                    22606247.852
        43.600          28.700
 117725658.260 8  91734255.50246  22402445.336                    22402449.250
        48.900          37.300
 110300546.724 8  85948398.65446  20989471.914                    20989477.695
        51.200          40.500
 121055623.476 7  94329076.30244  23036123.727                    23036125.965
        44.900          29.000
 117894030.480 7  91865405.99445  22434463.914                    22434470.707
        46.600          35.000
 118564445.795 7  92388025.05245  22562106.320                    22562112.352
        46.200          33.500
 125493544.707 7  97787186.06344  23880628.555                    23880632.246
        44.900          26.900
 18  3 15 12 48 54.0000000  0 16G19R19R01R09R10R02R18G32R11G11G17G24
                                G28G01G10G15
 121669616.896 7  94807446.91245  23152959.430                    23152957.125
        47.500          32.600
                  86675191.017 6  20832491.609                    20832490.906
                        40.500
                  84920763.159 6  20425091.430                    20425094.277
                        38.500
                  86314312.821 6  20782154.492                    20782155.563
                        40.900
                  80406801.797 6  19393858.617                    19393862.512
                        40.200
                  89318461.179 6  21520594.500                    21520596.539
                        40.200
                  85866110.004 6  20681495.406                    20681500.477
                        41.000
 124934020.594 7  97351234.68644  23774161.617                    23774167.203
        43.700          25.000
                  93750568.078 6  22556749.750                    22556750.707
                        40.600
 118798055.415 7  92569944.20944  22606524.070                    22606525.879
        43.700          29.700
 117724074.615 8  91733021.49446  22402143.695                    22402147.742
        49.100          37.000
 110300071.717 8  85948028.51646  20989381.570                    20989387.383
        51.000          40.600
 121058801.408 7  94331552.60944  23036728.789                    23036730.813
        45.800          28.900
 117893504.637 7  91864996.24645  22434364.078                    22434371.086
        46.800          34.700
 118566449.026 7  92389585.98945  22562487.125                    22562493.211
        45.900          33.900
 125497540.754 7  97790299.84744  23881388.813                    23881392.941
        45.100          27.400
 18  3 15 12 48 55.0000000  0 16G19R19R01R09R10R02R18G32R11G11G17G24
                                G28G01G10G15
 121666549.465 7  94805056.65245  23152376.070                    23152373.965
        47.900          34.200
                  86673485.489 6  20832081.672                    20832081.102
                        40.700
                  84922347.190 6  20425471.406                    20425475.105
                        38.300
                  86317137.455 6  20782834.984                    20782835.816
                        41.300
                  80406304.018 6  19393738.961                    19393742.891
                        40.200
                  89316310.401 6  21520076.133                    21520078.277
                        40.200
                  85867874.630 6  20681923.094                    20681925.344
                        41.300
 124931240.796 7  97349068.61044  23773632.742                    23773638.105
        44.400          26.700
                  93747555.848 6  22556024.828                    22556026.109
                        41.300
 118799517.009 7  92571083.11344  22606802.477                    22606804.000
        43.900          28.800
 117722491.417 7  91731787.83346  22401842.469                    22401846.059
        47.900          37.100
 110299597.283 8  85947658.83046  20989291.156                    20989297.039
        49.800          40.400
 121061979.586 7  94334029.11944  23037333.297                    23037335.461
        46.000          29.400
 117892979.475 7  91864587.03245  22434263.672                    22434271.008
        46.900          34.200
 118568452.801 7  92391147.36345  22562868.547                    22562874.652
        46.000          33.300
 125501536.968 7  97793413.75144  23882149.758                    23882154.074
        44.600          27.900
 18  3 15 12 48 56.0000000  0 16G19R19R01R09R10R02R18G32R11G11G17G24
                                G28G01G10G15
 121663482.491 8  94802666.77745  23151792.508                    23151791.355
        48.200          35.200
                  86671780.609 6  20831672.211                    20831671.656
                        40.700
                  84923931.915 6  20425852.938                    20425856.180
                        38.600
                  86319962.521 6  20783515.445                    20783515.660
                        40.900
                  80405806.888 6  19393619.242                    19393623.566
                        40.400
                  89314160.156 6  21519558.703                    21519560.305
                        40.900
                  85869639.866 6  20682351.242                    20682349.871
                        41.000
 124928461.369 7  97346902.82644  23773103.844                    23773109.160
        44.900          27.600
                  93744543.829 6  22555298.055                    22555300.949
                        40.400
 118800979.359 7  92572222.60844  22607080.313                    22607082.945
        44.100          27.900
 117720908.793 7  91730554.61846  22401541.320                    22401544.496
        47.900          36.900
 110299123.551 8  85947289.68946  20989200.969                    20989206.590
        48.800          40.600
 121065158.110 7  94336505.89844  23037938.031                    23037940.590
        46.000          28.500
 117892455.050 7  91864178.39745  22434164.320                    22434171.109
        47.400          34.500
 118570457.241 7  92392709.26345  22563250.031                    22563256.305
        45.800          33.500
 125505533.435 7  97796527.86144  23882910.367                    23882914.609
        44.700          28.200
 18  3 15 12 48 57.0000000  0 16G19R19R01R09R10R02R18G32R11G11G17G24
                                G28G01G10G15
 121660415.924 7  94800277.24146  23151208.914                    23151209.336
        47.600          36.200
                  86670076.326 6  20831261.805                    20831262.254
                        40.900
                  84925517.339 6  20426234.742                    20426238.629
                        38.600
                  86322788.027 6  20784195.070                    20784195.969
                        41.100
                  80405310.422 6  19393499.688                    19393503.285
                        40.000
                  89312010.424 6  21519041.492                    21519042.910
                        40.800
                  85871405.772 6  20682776.742                    20682775.477
                        41.200
 124925682.297 7  97344737.31644  23772575.563                    23772580.289
        44.900          27.900
                  93741532.118 6  22554575.953                    22554576.219
                        40.600
 118802442.456 7  92573362.69244  22607358.109                    22607360.773
        44.800          29.100
 117719326.729 8  91729321.84746  22401240.523                    22401243.656
        48.000          36.700
 110298650.481 8  85946921.07046  20989110.844                    20989116.840
        49.500          40.500
 121068337.000 7  94338982.95244  23038542.320                    23038545.457
        45.400          29.500
 117891931.350 7  91863770.32545  22434064.453                    22434071.605
        47.100          35.100
 118572462.322 7  92394271.67045  22563631.383                    22563637.988
        45.600          33.600
 125509530.174 7  97799642.19544  23883671.133                    23883675.398
        45.300          29.200
 18  3 15 12 48 58.0000000  0 16G19R19R01R09R10R02R18G32R11G11G17G24
                                G28G01G10G15
 121657349.809 6  94797888.09844  23150623.063                    23150626.504
        41.000          28.700
                  86668372.661 6  20830852.031                    20830852.629
                        41.200
                  84927103.479 6  20426615.438                    20426618.984
                        38.900
                  86325613.980 6  20784875.563                    20784875.926
                        41.200
                  80404814.617 6  19393379.328                    19393383.527
                        40.200
                  89309861.228 6  21518522.586                    21518525.781
                        41.200
                  85873172.425 6  20683200.164                    20683201.359
                        41.500
 124922903.649 7  97342572.12044  23772046.188                    23772052.082
        44.900          28.100
                  93738520.586 6  22553850.180                    22553851.926
                        40.400
 118803906.292 7  92574503.34844  22607636.977                    22607639.629
        45.200          28.700
 117717745.247 8  91728089.53846  22400939.484                    22400942.867
        48.900          37.700
 110298178.135 8  85946553.00946  20989021.203                    20989026.941
        50.100          40.900
 121071516.248 7  94341460.28844  23039147.359                    23039150.414
        45.300          29.100
 117891408.412 7  91863362.85045  22433965.078                    22433971.711
        47.200          35.200
 118574468.060 7  92395834.59745  22564013.133                    22564019.285
        46.000          33.500
 125513527.178 7  97802756.73044  23884432.039                    23884436.078
        45.800          27.900
 18  3 15 12 48 59.0000000  0 16G19R19R01R09R10R02R18G32R11G11G17G24
                                G28G01G10G15
 121654284.134 6  94795499.29244  23150043.047                    23150042.965
        40.800          28.100
                  86666669.630 6  20830443.469                    20830442.809
                        40.400
                  84928690.319 6  20426997.531                    20427001.047
                        38.000
                  86328440.380 6  20785556.844                    20785556.996
                        40.900
                  80404319.507 6  19393259.695                    19393263.742
                        40.100
                  89307712.529 6  21518004.586                    21518008.539
                        40.600
                  85874939.829 6  20683623.523                    20683627.188
                        41.100
 124920125.367 7  97340407.21944  23771518.000                    23771522.828
        44.900          27.900
                  93735509.272 6  22553124.664                    22553127.586
                        40.500
 118805370.898 7  92575644.60044  22607915.500                    22607918.016
        44.500          29.200
 117716164.290 8  91726857.62546  22400638.953                    22400641.809
        50.200          39.300
 110297706.473 8  85946185.47846  20988931.242                    20988937.043
        50.400          40.200
 121074695.846 7  94343937.89544  23039752.063                    23039755.438
        44.900          28.700
 117890886.190 7  91862955.92845  22433865.805                    22433872.445
        47.400          34.600
 118576474.438 7  92397398.02245  22564394.836                    22564401.242
        46.000          33.900
 125517524.557 7  97805871.56644  23885191.984                    23885196.379
        46.100          29.700
 18  3 15 12 49  0.0000000  0 16G19R19R01R09R10R02R18G32R11G11G17G24
                                G28G01G10G15
 121651218.806 5  94793110.73143  23149457.727                    23149461.277
        34.900          22.200
                  86664967.344 6  20830034.445                    20830033.477
                        39.700
                  84930277.949 5  20427379.594                    20427382.945
                        35.500
                  86331267.265 6  20786237.773                    20786237.445
                        40.800
                  80403825.036 5  19393140.945                    19393144.398
                        35.700
                  89305564.420 6  21517487.266                    21517490.668
                        40.500
                  85876708.030 6  20684048.836                    20684052.805
                        41.400
 124917347.558 7  97338242.68244  23770988.688                    23770994.418
        45.300          28.300
                  93732498.311 5  22552404.078                    22552402.676
                        35.400
 118806836.313 7  92576786.48344  22608194.148                    22608196.984
        43.900          27.400
 117714584.027 8  91725626.24446  22400337.953                    22400341.059
        50.000          37.300
 110297235.520 8  85945818.51245  20988841.500                    20988847.293
        48.100          34.800
 121077875.854 7  94346415.80744  23040357.773                    23040360.395
        45.600          28.500
 117890364.816 7  91862549.65845  22433766.305                    22433773.059
        47.600          34.300
 118578481.543 7  92398961.99845  22564776.609                    22564783.047
        44.200          30.500
 125521522.075 6  97808986.48543  23885952.945                    23885957.313
        41.500          22.000
 18  3 15 12 49  1.0000000  0 16G19R19R01R09R10R02R18G32R11G11G17G24
                                G28G01G10G15
 121648153.957 5  94790722.69643  23148869.914                    23148877.387
        35.700          21.500
                  86663265.646 6  20829625.672                    20829624.578
                        41.800
                  84931866.197 6  20427761.664                    20427764.859
                        38.200
                  86334094.647 7  20786917.633                    20786917.844
                        42.000
                  80403331.356 6  19393021.688                    19393025.348
                        39.900
                  89303416.805 6  21516970.219                    21516972.809
                        41.500
                  85878476.769 6  20684477.367                    20684478.422
                        41.100
 124914570.067 7  97336078.39544  23770460.359                    23770465.602
        44.500          27.300
                  93729487.475 6  22551676.273                    22551678.996
                        39.200
 118808302.500 7  92577928.97244  22608473.188                    22608475.508
        43.700          28.700
 117713004.278 8  91724395.25145  22400037.805                    22400040.520
        48.400          35.500
 110296765.311 8  85945452.10546  20988752.227                    20988758.016
        49.000          37.500
 121081056.240 7  94348894.02744  23040963.188                    23040965.738
        45.000          27.500
 117889844.199 7  91862143.98345  22433667.578                    22433674.266
        47.500          33.500
 118580489.192 7  92400526.37545  22565159.258                    22565165.078
        46.200          32.700
 125525519.977 7  97812101.72143  23886713.195                    23886718.016
        42.800          20.900
 18  3 15 12 49  2.0000000  0 16G19R19R01R09R10R02R18G32R11G11G17G24
                                G28G01G10G15
 121645089.457 6  94788334.87843  23148286.898                    23148294.117
        37.800          21.100
                  86661564.552 6  20829216.336                    20829216.156
                        41.700
                  84933455.201 6  20428143.555                    20428147.633
                        38.600
                  86336922.382 7  20787599.055                    20787599.285
                        42.700
                  80402838.239 6  19392903.602                    19392906.891
                        38.700
                  89301269.681 6  21516454.242                    21516455.223
                        38.800
                  85880246.165 6  20684905.758                    20684904.648
                        40.100
 124911793.092 7  97333914.52544  23769931.320                    23769936.711
        44.100          27.100
                  93726476.971 6  22550952.148                    22550953.926
                        40.500
 118809769.401 7  92579071.97744  22608752.234                    22608754.883
        45.200          28.900
 117711425.060 8  91723164.69545  22399736.672                    22399739.711
        49.300          35.900
 110296295.742 7  85945086.19945  20988662.570                    20988668.469
        47.600          34.100
 121084236.940 7  94351372.50744  23041569.344                    23041571.035
        46.000          26.900
 117889324.302 7  91861738.85945  22433568.406                    22433575.070
        47.300          32.400
 118582497.643 7  92402091.37944  22565541.484                    22565547.504
        44.400          28.500
 125529518.185 6  97815217.16843  23887474.500                    23887479.113
        38.700          18.300
 18  3 15 12 49  3.0000000  0 16G19R19R01R09R10R02R18G32R11G11G17G24
                                G28G01G10G15
 121642025.375 6  94785947.36743  23147707.313                    23147710.590
        37.700          20.600
                  86659864.119 6  20828807.180                    20828807.566
                        39.100
                  84935044.907 6  20428525.391                    20428528.996
                        37.000
                  86339750.606 6  20788279.922                    20788279.320
                        39.300
                  80402345.812 6  19392783.813                    19392788.113
                        37.800
                  89299123.061 6  21515937.234                    21515937.375
                        39.600
                  85882016.316 6  20685330.531                    20685331.945
                        41.600
 124909016.391 7  97331750.85244  23769403.258                    23769408.324
        43.700          26.700
                  93723466.582 6  22550228.086                    22550230.582
                        39.800
 118811237.057 7  92580215.60044  22609031.125                    22609034.234
        44.300          28.900
 117709846.439 7  91721934.60744  22399436.977                    22399439.371
        45.400          28.400
 110295826.889 7  85944720.85545  20988573.531                    20988579.105
        47.800          34.900
 121087417.987 7  94353851.24145  23042174.320                    23042176.902
        47.000          30.100
 117888805.171 7  91861334.36145  22433468.992                    22433476.445
        47.100          34.000
 118584506.736 7  92403656.89244  22565922.641                    22565929.559
        44.600          29.700
 125533516.587 6  97818332.79342  23888234.672                    23888240.051
        40.900          17.400
 18  3 15 12 49  4.0000000  0 16G19R19R01R09R10R02R18G32R11G11G17G24
                                G28G01G10G15
 121638961.772 6  94783560.23243  23147125.570                    23147128.328
        40.900          19.900
                  86658164.231 6  20828398.500                    20828398.918
                        40.000
                  84936635.240 6  20428908.734                    20428911.031
                        37.600
                  86342579.225 6  20788960.789                    20788960.988
                        40.200
                  80401854.011 6  19392666.086                    19392669.715
                        38.500
                  89296976.908 6  21515420.063                    21515420.094
                        40.000
                  85883787.125 7  20685754.609                    20685758.684
                        42.000
 124906239.979 7  97329587.40844  23768874.406                    23768880.633
        43.400          27.900
                  93720456.349 6  22549502.328                    22549505.543
                        39.700
 118812705.394 7  92581359.78444  22609310.813                    22609313.574
        43.700          28.600
 117708268.332 7  91720704.93845  22399137.180                    22399139.621
        46.300          30.500
 110295358.656 7  85944355.99245  20988484.484                    20988490.652
        47.900          35.400
 121090599.364 7  94356330.22344  23042779.469                    23042782.082
        46.600          29.500
 117888286.684 7  91860930.35345  22433371.039                    22433377.508
        47.700          34.600
 118586516.284 7  92405222.77145  22566305.875                    22566311.977
        44.300          31.300
 125537515.219 7  97821448.64142  23888995.813                    23889000.262
        42.500          16.900
 18  3 15 12 49  5.0000000  0 16G19R19R01R09R10R02R18G32R11G11G17G24
                                G28G01G10G15
 121635898.648 7  94781173.42943  23146543.641                    23146545.996
        43.700          20.100
                  86656465.022 6  20827990.766                    20827990.867
                        41.100
                  84938226.238 6  20429291.016                    20429294.141
                        37.700
                  86345408.294 6  20789641.711                    20789642.199
                        41.400
                  80401362.844 6  19392547.070                    19392550.953
                        38.700
                  89294831.252 6  21514902.047                    21514902.926
                        40.600
                  85885558.657 6  20686179.398                    20686184.715
                        41.700
 124903464.021 7  97327424.32344  23768346.047                    23768352.777
        43.700          28.800
                  93717446.374 6  22548780.680                    22548781.363
                        40.400
 118814174.502 7  92582504.55744  22609590.578                    22609593.203
        43.900          29.100
 117706690.822 8  91719475.71545  22398836.750                    22398839.672
        48.300          32.400
 110294891.078 8  85943991.64946  20988395.680                    20988401.504
        48.200          37.500
 121093781.050 7  94358809.44344  23043383.945                    23043387.469
        44.900          29.100
 117887768.981 7  91860526.95045  22433272.984                    22433279.270
        47.400          33.200
 118588526.592 7  92406789.26445  22566688.594                    22566694.813
        45.400          31.200
 125541514.114 7  97824564.68042  23889756.547                    23889761.758
        42.200          16.900
 18  3 15 12 49  6.0000000  0 16G19R19R01R09R10R02R18G32R11G11G17G24
                                G28G01G10G15
 121632835.959 7  94778786.94943  23145959.953                    23145964.418
        44.900          19.900
                  86654766.446 6  20827582.180                    20827582.422
                        41.400
                  84939817.988 6  20429674.117                    20429677.129
                        37.200
                  86348237.809 6  20790323.508                    20790324.293
                        41.800
                  80400872.375 6  19392428.555                    19392432.785
                        38.300
                  89292686.130 6  21514384.227                    21514386.617
                        40.500
                  85887330.882 6  20686608.156                    20686611.980
                        41.200
 124900688.477 7  97325261.57844  23767818.609                    23767824.148
        44.500          28.800
                  93714436.630 6  22548055.227                    22548057.516
                        39.100
 118815644.386 7  92583649.92444  22609869.750                    22609873.160
        43.000          28.900
 117705113.851 8  91718246.89545  22398536.000                    22398539.355
        48.600          33.200
 110294424.259 8  85943627.90246  20988306.789                    20988312.609
        48.700          37.100
 121096963.075 7  94361288.95044  23043989.641                    23043992.617
        43.700          26.600
 117887252.000 7  91860124.09945  22433174.102                    22433181.176
        46.800          32.800
 118590537.576 7  92408356.29145  22567071.234                    22567077.504
        45.900          30.400
 125545513.375 7  97827680.98343  23890517.703                    23890522.176
        42.300          18.300
 18  3 15 12 49  7.0000000  0 16G19R19R01R09R10R02R18G32R11G11G17G24
                                G28G01G10G15
 121629773.669 7                  23145377.125
        44.700
                  86653068.480 6  20827174.344                    20827173.984
                        41.400
                  84941410.402 6  20430056.508                    20430060.371
                        36.600
                  86351067.755 6  20791005.195                    20791005.199
                        41.900
                  80400382.591 6  19392310.547                    19392314.848
                        38.300
                  89290541.532 6  21513867.047                    21513870.629
                        40.600
                  85889103.688 6  20687038.344                    20687038.051
                        40.300
 124897913.294 7  97323099.12444  23767290.906                    23767296.465
        44.500          26.900
                  93711427.177 6  22547330.914                    22547332.719
                        38.300
 118817114.978 7  92584795.85644  22610148.930                    22610152.961
        42.200          28.500
 117703537.438 8  91717018.51445  22398235.898                    22398239.309
        48.200          34.000
 110293958.096 8  85943264.65446  20988217.797                    20988223.684
        49.400          36.600
 121100145.484 7  94363768.77344  23044594.969                    23044598.258
        44.500          27.800
 117886735.785 7  91859721.87045  22433075.414                    22433082.805
        47.500          34.000
 118592549.202 7  92409923.79544  22567453.914                    22567460.102
        46.300          29.700
 125549512.875 7  97830797.48543  23891278.797                    23891283.199
        43.500          21.300
 18  3 15 12 49  8.0000000  0 16G19R19R01R09R10R02R18G32R11G11G17G24
                                G28G01G10G15
 121626711.726 7                  23144794.727
        46.800
                  86651371.089 6  20826766.219                    20826765.898
                        40.900
                  84943003.426 6  20430439.672                    20430443.297
                        38.400
                  86353898.104 6  20791685.563                    20791686.363
                        41.800
                  80399893.374 6  19392192.430                    19392196.391
                        41.000
                  89288397.395 6  21513350.852                    21513354.332
                        40.900
                  85890877.098 6  20687464.984                    20687465.160
                        41.800
 124895138.420 7  97320936.89644  23766763.109                    23766767.891
        44.100          28.100
                  93708417.700 6  22546607.742                    22546609.227
                        40.300
 118818586.279 7  92585942.33845  22610428.758                    22610432.652
        42.900          30.300
 117701961.545 8  91715790.52546  22397935.742                    22397939.277
        49.400          37.200
 110293492.514 8  85942901.86146  20988129.430                    20988135.488
        50.800          40.800
 121103328.171 7  94366248.79144  23045200.984                    23045204.207
        44.700          28.900
 117886220.229 8  91859320.13945  22432977.594                    22432984.695
        48.200          35.000
 118594561.344 7  92411491.68245  22567836.633                    22567843.234
        45.900          33.700
 125553512.557 7  97833914.08443  23892040.734                    23892044.207
        43.200          19.900
 18  3 15 12 49  9.0000000  0 16G19R19R01R09R10R02R18G32R11G11G17G24
                                G28G01G10G15
 121623650.229 8  94771655.86255  23144213.391                    23144207.363
        49.100          32.700
                  86649674.331 6  20826358.422                    20826357.957
                        41.400
                  84944597.181 6  20430823.078                    20430826.809
                        38.600
                  86356728.899 7  20792367.938                    20792367.883
                        42.000
                  80399404.814 6  19392074.836                    19392078.840
                        41.400
                  89286253.809 6  21512834.805                    21512838.141
                        41.100
                  85892651.229 6  20687891.609                    20687892.805
                        41.900
 124892363.941 7  97318774.95645  23766235.086                    23766239.871
        45.500          30.200
                  93705408.525 6  22545883.516                    22545885.125
                        41.500
 118820058.299 7  92587089.36544  22610709.344                    22610712.977
        42.800          28.900
 117700386.183 8  91714562.96746  22397636.156                    22397639.430
        49.600          37.200
 110293027.641 8  85942539.62046  20988040.961                    20988046.840
        51.800          41.400
 121106511.181 7  94368729.04844  23045807.266                    23045809.723
        45.600          28.900
 117885705.417 7  91858918.97945  22432879.578                    22432886.137
        47.900          35.200
 118596574.187 7  92413060.10645  22568219.750                    22568225.750
        46.400          33.600
 125557512.485 7  97837030.97444  23892802.625                    23892805.594
        45.200          28.900
 18  3 15 12 49 10.0000000  0 16G19R19R01R09R10R02R18G32R11G11G17G24
                                G28G01G10G15
 121620589.067 8  94769270.33845  23143630.930                    23143626.836
        48.500          33.300
                  86647978.176 6  20825950.422                    20825950.348
                        41.200
                  84946191.598 6  20431206.500                    20431210.363
                        38.700
                  86359560.075 6  20793050.922                    20793049.867
                        41.600
                  80398916.891 6  19391957.008                    19391961.340
                        40.900
                  89284110.707 6  21512318.844                    21512321.473
                        40.900
                  85894426.048 6  20688318.328                    20688320.805
                        41.200
 124889589.816 7  97316613.30745  23765707.719                    23765712.023
        45.400          30.100
                  93702399.594 6  22545160.539                    22545161.199
                        41.200
 118821531.017 7  92588236.93344  22610989.633                    22610992.973
        42.200          28.900
 117698811.319 8  91713335.80646  22397336.563                    22397340.047
        48.300          36.900
 110292563.407 8  85942177.87746  20987952.508                    20987958.703
        51.900          40.900
 121109694.499 7  94371209.54344  23046413.336                    23046415.492
        46.200          28.700
 117885191.296 8  91858518.37045  22432781.500                    22432788.730
        48.000          34.700
 118598587.607 7  92414628.99945  22568603.102                    22568608.996
        46.300          34.200
 125561512.607 7  97840147.98244  23893563.367                    23893566.992
        46.300          27.800
 18  3 15 12 49 11.0000000  0 16G19R19R01R09R10R02R18G32R11G11G17G24
                                G28G01G10G15
 121617528.316 7  94766885.28045  23143049.000                    23143046.648
        47.500          33.900
                  86646282.603 6  20825542.500                    20825542.969
                        41.400
                  84947786.663 6  20431590.266                    20431593.664
                        38.700
                  86362391.668 6  20793732.680                    20793731.355
                        41.200
                  80398429.589 6  19391840.227                    19391843.750
                        40.300
                  89281968.098 6  21511802.930                    21511804.891
                        40.900
                  85896201.536 6  20688745.781                    20688748.328
                        41.100
 124886816.022 7  97314451.90644  23765179.617                    23765184.426
        45.700          29.600
                  93699390.767 6  22544433.992                    22544437.539
                        40.500
 118823004.488 7  92589385.07044  22611270.797                    22611273.238
        42.000          29.400
 117697236.971 7  91712109.05146  22397037.008                    22397040.676
        47.500          36.900
 110292099.829 8  85941816.64946  20987864.250                    20987870.137
        52.000          40.800
 121112878.132 7  94373690.28444  23047019.313                    23047021.500
        46.100          29.300
 117884677.888 8  91858118.31345  22432683.766                    22432691.152
        48.000          34.900
 118600601.651 7  92416198.37045  22568986.086                    22568992.426
        46.000          34.000
 125565512.979 7  97843265.17744  23894324.109                    23894328.109
        46.400          27.600
 18  3 15 12 49 40.0000000  0 16G19R19R01R09R10R02R18G32R11G11G17G24
                                G28G01G10G15
 121528949.16214  94697980.13753  23126202.273                    23126190.469
        28.600          19.600
                  86597381.60316  20813789.375                    20813789.262
                        41.200
                  84994342.78016  20442787.820                    20442791.398
                        38.700
                  86444696.20016  20813548.125                    20813547.926
                        41.500
                  80384583.54316  19388500.320                    19388503.902
                        39.900
                  89220052.51916  21496884.422                    21496886.254
                        41.000
                  85947982.86216  20701218.094                    20701219.695
                        41.600
 124806539.71017  97251898.91754  23749901.875                    23749908.414
        44.200          27.100
                  93612229.80516  22523462.977                    22523466.215
                        41.900
 118866053.81917  92622929.91954  22619464.625                    22619465.656
        45.200          28.900
 117651821.16318  91676720.04156  22388394.164                    22388397.902
        48.100          36.300
 110278950.01218  85931570.05256  20985361.883                    20985367.754
        50.000          40.400
 121205349.65117  94445745.94954  23064615.453                    23064618.105
        44.900          29.700
 117870108.42217  91846765.67355  22429911.484                    22429918.176
        45.100          34.900
 118659286.79517  92461927.20555  22580153.852                    22580159.813
        46.600          34.000
 125681635.24117  97933749.97954  23916421.398                    23916424.816
        44.500          27.100
 18  3 15 12 49 41.0000000  0 15R19R01R09R10R02R18G32R11G11G17G24G28
                                G01G10G15
                  86595704.782 6  20813386.289                    20813386.133
                        41.500
                  84995958.536 6  20443176.922                    20443179.965
                        38.500
                  86447540.810 6  20814232.625                    20814233.340
                        41.400
                  80384115.985 6  19388386.938                    19388390.836
                        39.800
                  89217925.221 6  21496370.992                    21496373.195
                        41.200
                  85949778.578 6  20701650.516                    20701652.488
                        41.400
 124803777.342 7  97249746.43944  23749376.906                    23749382.766
        44.300          28.100
                  93609227.574 6  22522741.281                    22522743.570
                        41.400
 118867549.400 7  92624095.32844  22619748.969                    22619749.840
        45.800          28.500
 117650263.457 7  91675506.25446  22388098.180                    22388101.949
        47.900          37.100
 110278506.805 8  85931224.70146  20985277.422                    20985283.449
        49.800          40.000
 121208543.446 7  94448234.60744  23065223.258                    23065225.559
        45.200          29.900
 117869617.146 7  91846382.87345  22429817.977                    22429824.879
        44.800          35.000
 118661320.069 7  92463511.56645  22580540.000                    22580546.199
        46.300          34.100
 125685643.360 7  97936873.17944  23917185.094                    23917187.922
        46.000          27.900
 18  3 15 12 49 42.0000000  0 16G19R19R01R09R10R02R18G32R11G11G17G24
                                G28G01G10G15
 121522853.68216  94693229.80453  23125040.398                    23125032.277
        41.500          20.100
                  86594028.603 6  20812983.852                    20812983.160
                        41.200
                  84997574.978 6  20443565.828                    20443568.875
                        38.700
                  86450385.903 6  20814916.688                    20814918.066
                        41.200
                  80383649.111 6  19388274.398                    19388278.527
                        39.900
                  89215798.382 6  21495858.438                    21495861.156
                        40.400
                  85951574.973 6  20702082.695                    20702085.254
                        41.500
 124801015.365 7  97247594.26344  23748851.023                    23748856.820
        44.200          26.900
                  93606225.596 6  22522021.344                    22522021.734
                        41.100
 118869045.708 7  92625261.29545  22620033.570                    22620035.070
        45.300          30.200
 117648706.342 7  91674292.92446  22387801.750                    22387805.109
        47.800          36.700
 110278064.305 8  85930879.89446  20985193.484                    20985199.094
        49.500          40.400
 121211737.601 7  94450723.54744  23065831.797                    23065833.746
        45.500          29.500
 117869126.580 7  91846000.62345  22429724.211                    22429731.586
        45.300          35.100
 118663353.972 7  92465096.43145  22580927.266                    22580933.707
        46.600          34.100
 125689651.749 7  97939996.60344  23917947.289                    23917950.352
        46.300          28.100
 18  3 15 12 49 43.0000000  0 16G19R19R01R09R10R02R18G32R11G11G17G24
                                G28G01G10G15
 121519806.349 7  94690855.04744  23124452.273                    23124451.582
        45.400          29.800
                  86592352.975 6  20812581.203                    20812581.457
                        41.400
                  84999192.096 6  20443954.594                    20443958.219
                        39.100
                  86453231.376 6  20815602.492                    20815603.535
                        41.400
                  80383182.856 6  19388161.727                    19388165.773
                        39.900
                  89213672.001 6  21495345.422                    21495348.418
                        40.600
                  85953372.008 6  20702515.594                    20702517.988
                        41.400
 124798253.683 7  97245442.30344  23748325.906                    23748330.602
        44.500          27.100
                  93603223.675 6  22521295.594                    22521299.148
                        40.900
 118870542.694 7  92626427.78444  22620317.922                    22620319.707
        45.100          29.800
 117647149.730 7  91673079.99346  22387505.586                    22387509.289
        47.200          37.000
 110277622.430 8  85930535.57846  20985109.273                    20985114.941
        49.300          40.400
 121214932.023 7  94453212.69644  23066438.938                    23066441.688
        45.600          28.900
 117868636.698 7  91845618.89645  22429631.367                    22429638.324
        45.500          35.500
 118665388.511 7  92466681.78645  22581314.641                    22581320.863
        46.800          34.600
 125693660.350 7  97943120.20444  23918709.844                    23918713.512
        46.100          27.500
 18  3 15 12 49 44.0000000  0 16G19R19R01R09R10R02R18G32R11G11G17G24
                                G28G01G10G15
 121516759.433 7  94688480.78445  23123871.969                    23123872.762
        47.600          34.200
                  86590677.949 6  20812178.695                    20812178.250
                        41.300
                  85000809.856 6  20444343.383                    20444347.133
                        38.800
                  86456077.268 6  20816288.664                    20816288.559
                        41.400
                  80382717.249 6  19388049.797                    19388053.527
                        40.200
                  89211546.133 6  21494834.258                    21494835.770
                        40.700
                  85955169.722 6  20702948.602                    20702950.609
                        41.300
 124795492.410 7  97243290.67444  23747800.750                    23747805.754
        45.000          28.300
                  93600222.092 6  22520574.648                    22520576.355
                        40.500
 118872040.443 7  92627594.86644  22620602.320                    22620604.781
        45.600          29.700
 117645593.658 7  91671867.47746  22387209.727                    22387213.008
        47.000          37.300
 110277181.212 8  85930191.76946  20985025.547                    20985031.000
        49.600          40.900
 121218126.764 7  94455702.10545  23067046.961                    23067049.578
        45.700          30.000
 117868147.597 7  91845237.77545  22429538.500                    22429545.316
        45.500          34.800
 118667423.652 7  92468267.61445  22581702.156                    22581708.387
        46.300          34.500
 125697669.181 7  97946243.98144  23919473.078                    23919476.316
        46.600          26.900
 18  3 15 12 49 45.0000000  0 16G19R19R01R09R10R02R18G32R11G11G17G24
                                G28G01G10G15
 121513712.976 8  94686106.97446  23123292.414                    23123294.586
        48.800          36.400
                  86589003.595 6  20811775.906                    20811775.723
                        41.100
                  85002428.354 6  20444732.766                    20444736.078
                        38.400
                  86458923.635 6  20816973.219                    20816973.660
                        41.400
                  80382252.338 6  19387937.859                    19387941.152
                        40.200
                  89209420.853 6  21494322.250                    21494324.176
                        40.900
                  85956968.150 6  20703382.195                    20703384.219
                        41.700
 124792731.562 7  97241139.37744  23747275.727                    23747280.832
        45.200          29.100
                  93597220.768 6  22519854.367                    22519854.770
                        40.300
 118873538.952 7  92628762.52744  22620887.078                    22620890.070
        44.600          29.900
 117644038.201 7  91670655.44746  22386914.055                    22386916.969
        47.500          36.600
 110276740.716 8  85929848.52546  20984941.617                    20984947.387
        49.600          41.100
 121221321.929 7  94458191.85444  23067654.828                    23067657.492
        45.600          29.800
 117867659.270 7  91844857.26245  22429445.641                    22429452.891
        45.300          35.300
 118669459.489 7  92469853.98745  22582089.148                    22582095.945
        46.300          33.900
 125701678.381 7  97949368.03844  23920235.195                    23920239.258
        45.100          26.700
 18  3 15 12 49 46.0000000  0 16G19R19R01R09R10R02R18G32R11G11G17G24
                                G28G01G10G15
 121510666.916 8  94683733.50346  23122712.930                    23122714.988
        49.300          37.700
                  86587329.852 6  20811373.703                    20811373.785
                        41.500
                  85004047.508 6  20445121.672                    20445125.840
                        38.400
                  86461770.404 6  20817658.859                    20817658.953
                        41.500
                  80381788.051 6  19387826.203                    19387829.746
                        40.500
                  89207296.052 6  21493810.758                    21493812.891
                        41.300
                  85958767.220 6  20703814.656                    20703817.570
                        41.700
 124789971.067 7  97238988.34144  23746750.703                    23746755.223
        45.500          28.400
                  93594219.524 6  22519128.820                    22519132.621
                        40.600
 118875038.191 7  92629930.77045  22621172.234                    22621175.039
        44.600          30.000
 117642483.264 8  91669443.82546  22386618.398                    22386621.277
        48.300          36.800
 110276300.883 8  85929505.80546  20984858.172                    20984863.434
        49.500          40.800
 121224517.386 7  94460681.82644  23068262.531                    23068265.527
        45.200          29.600
 117867171.614 7  91844477.27545  22429352.633                    22429359.656
        45.500          34.700
 118671495.942 7  92471440.84445  22582477.125                    22582483.379
        46.000          33.500
 125705687.712 7  97952492.19244  23920997.305                    23921002.348
        44.100          25.300
 18  3 15 12 49 47.0000000  0 16G19R19R01R09R10R02R18G32R11G11G17G24
                                G28G01G10G15
 121507621.300 8  94681360.36246  23122132.758                    23122135.836
        49.200          38.600
                  86585656.778 6  20810971.078                    20810971.461
                        40.700
                  85005667.347 6  20445511.516                    20445515.230
                        38.100
                  86464617.614 6  20818345.234                    20818344.777
                        41.100
                  80381324.433 6  19387714.352                    19387717.762
                        40.200
                  89205171.763 6  21493299.344                    21493300.891
                        41.200
                  85960566.959 6  20704247.313                    20704250.945
                        41.500
 124787210.924 7  97236837.56544  23746224.773                    23746230.227
        45.200          29.500
                  93591218.600 6  22518408.641                    22518409.883
                        40.200
 118876538.176 7  92631099.59844  22621457.469                    22621461.109
        44.600          29.500
 117640928.896 8  91668232.63346  22386322.352                    22386325.105
        48.800          36.600
 110275861.751 8  85929163.62046  20984774.203                    20984780.277
        49.100          40.900
 121227713.184 7  94463172.06244  23068870.531                    23068873.668
        45.400          29.700
 117866684.726 7  91844097.88645  22429259.328                    22429267.082
        45.500          35.000
 118673533.031 7  92473028.19545  22582864.398                    22582871.027
        45.800          33.000
 125709697.381 7  97955616.61644  23921760.617                    23921765.582
        42.700          25.000
 18  3 15 12 49 48.0000000  0 16G19R19R01R09R10R02R18G32R11G11G17G24
                                G28G01G10G15
 121504576.091 8  94678987.50446  23121553.828                    23121556.188
        48.700          37.700
                  86583984.332 6  20810569.586                    20810570.098
                        41.000
                  85007287.893 6  20445901.445                    20445904.895
                        38.500
                  86467465.248 6  20819030.742                    20819030.152
                        41.300
                  80380861.494 6  19387602.313                    19387606.664
                        39.900
                  89203048.040 6  21492787.766                    21492789.906
                        40.900
                  85962367.414 6  20704681.375                    20704684.258
                        41.400
 124784451.193 7  97234687.12545  23745700.078                    23745705.250
        45.300          30.200
                  93588217.876 6  22517687.766                    22517688.301
                        40.700
 118878038.917 7  92632269.00844  22621743.172                    22621746.422
        44.600          28.700
 117639375.101 8  91667021.87846  22386026.781                    22386029.520
        49.600          37.100
 110275423.289 8  85928821.96446  20984691.188                    20984696.813
        49.300          41.000
 121230909.318 7  94465662.54844  23069479.313                    23069482.184
        45.400          29.600
 117866198.579 7  91843719.07745  22429166.969                    22429174.695
        45.600          34.900
 118675570.754 7  92474616.03745  22583252.469                    22583258.406
        45.700          33.100
 125713707.293 7  97958741.21844  23922523.219                    23922528.211
        42.600          25.700
 18  3 15 12 49 49.0000000  0 16G19R19R01R09R10R02R18G32R11G11G17G24
                                G28G01G10G15
 121501531.317 7  94676614.96746  23120975.172                    23120977.043
        46.800          36.000
                  86582312.533 6  20810167.984                    20810167.914
                        41.200
                  85008909.117 6  20446291.609                    20446295.129
                        38.300
                  86470313.314 6  20819715.930                    20819716.000
                        41.200
                  80380399.202 6  19387490.711                    19387494.289
                        40.000
                  89200924.833 6  21492275.508                    21492277.852
                        41.200
                  85964168.518 6  20705117.031                    20705118.219
                        41.300
 124781691.824 7  97232536.96844  23745174.414                    23745180.277
        44.300          29.700
                  93585217.316 6  22516963.461                    22516966.367
                        40.600
 118879540.403 7  92633438.99845  22622028.875                    22622032.414
        44.300          30.000
 117637821.859 8  91665811.54546  22385731.094                    22385733.977
        50.000          37.100
 110274985.514 8  85928480.83746  20984607.453                    20984613.383
        49.300          40.600
 121234105.799 7  94468153.30044  23070087.773                    23070090.152
        45.100          28.700
 117865713.186 7  91843340.85145  22429074.852                    22429081.988
        45.500          35.500
 118677609.107 7  92476204.36845  22583639.891                    22583646.945
        45.500          34.200
 125717717.462 7  97961866.02044  23923286.320                    23923291.387
        42.200          25.000
 18  3 15 12 49 50.0000000  0 16G19R19R01R09R10R02R18G32R11G11G17G24
                                G28G01G10G15
 121498486.960 7  94674242.73445  23120396.117                    23120398.063
        44.900          32.800
                  86580641.367 6  20809766.734                    20809765.910
                        41.200
                  85010531.027 6  20446681.477                    20446685.723
                        38.400
                  86473161.835 6  20820401.219                    20820401.785
                        41.200
                  80379937.576 6  19387378.969                    19387383.098
                        40.200
                  89198802.145 6  21491763.680                    21491766.660
                        40.600
                  85965970.270 6  20705552.695                    20705553.008
                        41.200
 124778932.839 7  97230387.11244  23744649.281                    23744655.563
        44.200          28.500
                  93582217.049 6  22516243.688                    22516244.762
                        40.900
 118881042.548 7  92634609.50044  22622314.664                    22622318.367
        43.200          29.700
 117636269.174 8  91664601.65446  22385435.508                    22385438.297
        49.600          36.300
 110274548.423 8  85928140.24746  20984524.484                    20984530.098
        49.300          40.800
 121237302.604 7  94470644.30644  23070696.125                    23070698.668
        45.600          29.000
 117865228.486 7  91842963.16445  22428982.805                    22428990.344
        45.800          34.900
 118679648.101 7  92477793.19345  22584028.320                    22584034.723
        45.800          34.400
 125721727.876 7  97964990.99644  23924050.414                    23924054.211
        42.500          25.800
 18  3 15 12 49 51.0000000  0 16G19R19R01R09R10R02R18G32R11G11G17G24
                                G28G01G10G15
 121495443.001 6  94671870.81144  23119817.727                    23119818.918
        40.800          28.300
                  86578970.806 6  20809365.461                    20809364.730
                        41.300
                  85012153.622 6  20447072.180                    20447075.258
                        38.400
                  86476010.772 6  20821087.820                    20821087.738
                        41.100
                  80379476.610 6  19387268.344                    19387271.605
                        40.200
                  89196679.979 6  21491251.375                    21491254.355
                        40.300
                  85967772.691 6  20705986.016                    20705986.133
                        41.400
 124776174.237 7  97228237.55544  23744124.016                    23744130.172
        43.900          29.300
                  93579216.971 6  22515521.211                    22515523.234
                        40.600
 118882545.490 7  92635780.61844  22622600.406                    22622604.484
        43.200          29.100
 117634717.019 8  91663392.17346  22385139.648                    22385143.359
        48.900          36.600
 110274111.965 8  85927800.14846  20984441.461                    20984447.016
        49.300          40.800
 121240499.731 7  94473135.57444  23071304.828                    23071307.230
        45.600          28.600
 117864744.525 7  91842586.05345  22428890.469                    22428898.332
        45.700          35.000
 118681687.721 7  92479382.51345  22584415.953                    22584422.406
        46.300          34.200
 125725738.540 7  97968116.17044  23924813.836                    23924817.355
        42.800          26.000
 18  3 15 12 49 52.0000000  0 16G19R19R01R09R10R02R18G32R11G11G17G24
                                G28G01G10G15
 121492399.491 4  94669499.24243  23119238.305                    23119238.832
        29.900          22.200
                  86577300.840 6  20808963.398                    20808963.465
                        41.400
                  85013776.911 6  20447461.891                    20447465.891
                        38.200
                  86478860.157 6  20821773.156                    20821773.641
                        41.100
                  80379016.300 6  19387157.141                    19387160.422
                        40.100
                  89194558.313 6  21490740.719                    21490743.355
                        40.700
                  85969575.799 6  20706418.563                    20706420.816
                        41.700
 124773415.979 7  97226088.27344  23743598.727                    23743605.438
        43.000          27.400
                  93576217.087 6  22514798.266                    22514800.840
                        40.800
 118884049.152 7  92636952.30645  22622887.008                    22622890.809
        43.400          30.000
 117633165.416 8  91662183.12946  22384844.523                    22384847.988
        48.600          36.300
 110273676.216 8  85927460.60846  20984358.445                    20984364.242
        49.300          40.900
 121243697.229 7  94475627.12944  23071912.922                    23071915.648
        45.000          28.700
 117864261.326 7  91842209.53945  22428798.758                    22428806.070
        45.500          35.300
 118683727.969 7  92480972.31545  22584804.641                    22584810.836
        46.000          34.300
 125729749.469 7  97971241.56444  23925577.797                    23925580.578
        43.700          25.900
 18  3 15 12 49 53.0000000  0 15R19R01R09R10R02R18G32R11G11G17G24G28
                                G01G10G15
                  86575631.521 6  20808561.250                    20808561.395
                        41.500
                  85015400.893 6  20447853.031                    20447856.910
                        38.600
                  86481709.975 6  20822458.961                    20822460.039
                        41.000
                  80378556.640 6  19387046.625                    19387050.051
                        40.400
                  89192437.160 6  21490231.047                    21490232.375
                        40.700
                  85971379.600 6  20706852.641                    20706855.254
                        41.400
 124770658.125 7  97223939.31544  23743074.203                    23743080.824
        42.800          26.900
                  93573217.459 6  22514078.563                    22514079.191
                        41.000
 118885553.555 7  92638124.56345  22623173.047                    22623176.406
        43.200          30.300
 117631614.405 8  91660974.54646  22384549.383                    22384552.965
        48.400          36.600
 110273241.137 8  85927121.59046  20984275.820                    20984281.480
        49.200          40.900
 121246895.051 7  94478118.94144  23072520.945                    23072524.047
        45.300          29.600
 117863778.888 7  91841833.62445  22428707.117                    22428713.836
        45.800          35.300
 118685768.907 7  92482562.66145  22585192.969                    22585199.086
        46.000          34.000
 125733760.636 7  97974367.16744  23926340.797                    23926343.637
        44.300          26.000
 18  3 15 12 49 54.0000000  0 16G19R19R01R09R10R02R18G32R11G11G17G24
                                G28G01G10G15
 121486311.25117                  23118081.297
        42.000
                  86573962.845 6  20808160.477                    20808160.695
                        41.400
                  85017025.589 6  20448243.844                    20448247.637
                        38.200
                  86484560.246 6  20823145.898                    20823145.410
                        41.100
                  80378097.650 6  19386936.125                    19386939.566
                        40.700
                  89190316.493 6  21489720.836                    21489721.301
                        41.100
                  85973184.070 6  20707286.313                    20707289.730
                        41.600
 124767900.663 7  97221790.66344  23742550.125                    23742555.777
        43.400          27.100
                  93570217.983 6  22513355.000                    22513357.594
                        40.900
 118887058.729 7  92639297.42044  22623459.328                    22623462.918
        42.800          29.600
 117630063.961 8  91659766.41246  22384253.844                    22384257.617
        48.300          36.100
 110272806.765 8  85926783.11546  20984193.000                    20984198.754
        49.600          40.900
 121250093.260 7  94480611.05244  23073129.758                    23073132.680
        45.100          29.800
 117863297.180 7  91841458.26845  22428615.203                    22428622.484
        46.000          34.600
 118687810.486 7  92484153.51045  22585581.289                    22585587.645
        45.900          33.600
 125737772.104 7  97977492.99744  23927104.375                    23927107.219
        44.500          26.800
 18  3 15 12 49 55.0000000  0 16G19R19R01R09R10R02R18G32R11G11G17G24
                                G28G01G10G15
 121483269.077 7                  23117499.484
        45.800
                  86572294.809 6  20807759.984                    20807759.930
                        41.400
                  85018651.000 6  20448634.688                    20448638.406
                        38.100
                  86487410.957 6  20823832.586                    20823833.000
                        41.200
                  80377639.331 6  19386824.938                    19386828.848
                        40.500
                  89188196.339 6  21489209.852                    21489210.816
                        41.200
                  85974989.234 6  20707721.547                    20707724.332
                        41.300
 124765143.648 7  97219642.36144  23742025.742                    23742030.832
        44.400          26.200
                  93567218.830 6  22512633.914                    22512635.703
                        41.000
 118888564.637 7  92640470.84844  22623746.328                    22623749.492
        42.300          29.100
 117628514.072 8  91658558.70646  22383959.117                    22383962.629
        48.000          36.200
 110272373.116 8  85926445.20846  20984110.563                    20984116.238
        49.500          40.800
 121253291.823 7  94483103.43144  23073738.953                    23073741.090
        45.100          29.300
 117862816.209 7  91841083.48945  22428523.672                    22428531.070
        45.800          35.200
 118689852.746 7  92485744.88645  22585969.695                    22585976.094
        46.000          33.500
 125741783.819 7  97980619.01744  23927867.461                    23927870.949
        44.700          27.900
 18  3 15 12 49 56.0000000  0 16G19R19R01R09R10R02R18G32R11G11G17G24
                                G28G01G10G15
 121480227.307 7                  23116920.266
        47.800
                  86570627.405 6  20807359.516                    20807359.520
                        41.100
                  85020277.112 6  20449025.984                    20449029.559
                        38.400
                  86490262.101 6  20824518.625                    20824519.328
                        41.500
                  80377181.658 6  19386714.945                    19386718.727
                        40.200
                  89186076.738 6  21488698.961                    21488700.586
                        41.200
                  85976795.054 6  20708156.789                    20708159.703
                        41.300
 124762387.032 7  97217494.33944  23741501.656                    23741506.090
        45.700          28.100
                  93564219.935 6  22511913.258                    22511914.605
                        41.100
 118890071.304 7  92641644.86944  22624033.383                    22624035.766
        42.100          29.700
 117626964.765 7  91657351.46546  22383664.344                    22383667.660
        47.800          36.300
 110271940.123 8  85926107.81346  20984027.906                    20984033.863
        49.100          40.800
 121256490.718 7  94485596.06944  23074347.359                    23074349.922
        45.500          29.600
 117862336.040 7  91840709.33045  22428432.133                    22428439.375
        45.800          34.700
 118691895.679 7  92487336.79045  22586358.539                    22586365.230
        45.800          33.300
 125745795.832 7  97983745.26844  23928630.695                    23928634.258
        44.700          28.700
 18  3 15 12 49 57.0000000  0 16G19R19R01R09R10R02R18G32R11G11G17G24
                                G28G01G10G15
 121477185.967 8  94657505.00755  23116341.266                    23116332.695
        48.800          33.200
                  86568960.621 6  20806958.047                    20806958.523
                        40.600
                  85021903.910 6  20449416.633                    20449420.488
                        38.400
                  86493113.684 6  20825205.750                    20825205.996
                        41.400
                  80376724.652 6  19386604.648                    19386608.414
                        39.900
                  89183957.666 6  21488187.133                    21488190.117
                        41.000
                  85978601.559 6  20708593.133                    20708594.332
                        41.300
 124759630.781 7  97215346.59244  23740977.258                    23740981.531
        45.900          27.800
                  93561221.197 6  22511190.313                    22511192.414
                        41.300
 118891578.716 6  92642819.46744  22624320.430                    22624322.934
        41.700          28.700
 117625416.029 7  91656144.66645  22383369.680                    22383373.055
        47.200          35.900
 110271507.801 8  85925770.94046  20983945.820                    20983951.555
        49.100          40.500
 121259689.963 7  94488088.99244  23074956.742                    23074958.605
        45.700          29.600
 117861856.584 7  91840335.72545  22428340.922                    22428348.238
        45.800          34.900
 118693939.220 7  92488929.17745  22586747.016                    22586753.684
        45.700          32.800
 125749808.087 7  97986871.69344  23929393.336                    23929398.309
        43.700          27.300
 18  3 15 12 49 58.0000000  0 16G19R19R01R09R10R02R18G32R11G11G17G24
                                G28G01G10G15
 121474145.064 8  94655135.49845  23115763.125                    23115757.410
        49.200          34.900
                  86567294.484 6  20806558.305                    20806558.117
                        40.900
                  85023531.416 6  20449808.078                    20449812.141
                        38.300
                  86495965.706 6  20825893.016                    20825892.734
                        41.200
                  80376268.306 6  19386494.109                    19386498.531
                        40.200
                  89181839.187 6  21487674.867                    21487679.406
                        40.300
                  85980408.734 6  20709029.664                    20709030.527
                        41.300
 124756874.955 7  97213199.16244  23740453.258                    23740456.816
        46.500          28.500
                  93558222.717 6  22510470.625                    22510471.574
                        40.500
 118893086.833 7  92643994.61844  22624608.203                    22624609.945
        42.300          29.600
 117623867.852 7  91654938.30246  22383075.438                    22383078.480
        47.400          36.000
 110271076.179 8  85925434.61246  20983863.586                    20983869.543
        49.000          40.700
 121262889.527 7  94490582.15644  23075564.602                    23075567.746
        45.500          29.600
 117861377.891 7  91839962.72145  22428249.930                    22428257.672
        45.700          34.700
 118695983.444 7  92490522.10445  22587136.109                    22587142.816
        45.000          33.200
 125753820.595 7  97989998.32744  23930156.664                    23930162.254
        43.100          26.500
 18  3 15 12 49 59.0000000  0 16G19R19R01R09R10R02R18G32R11G11G17G24
                                G28G01G10G15
 121471104.577 8  94652766.27346  23115183.820                    23115184.430
        49.400          36.200
                  86565628.975 6  20806157.969                    20806157.824
                        40.600
                  85025159.599 6  20450199.750                    20450204.121
                        38.400
                  86498818.139 6  20826579.898                    20826579.398
                        41.200
                  80375812.616 6  19386384.383                    19386388.527
                        40.000
                  89179721.225 6  21487164.156                    21487168.352
                        40.200
                  85982216.595 6  20709464.422                    20709466.027
                        41.600
 124754119.479 7  97211051.99644  23739928.320                    23739932.273
        46.400          29.400
                  93555224.395 6  22509747.625                    22509750.078
                        40.900
 118894595.743 7  92645170.38344  22624895.086                    22624896.828
        42.500          29.000
 117622320.235 8  91653732.37046  22382781.117                    22382784.262
        48.100          36.300
 110270645.235 8  85925098.81346  20983781.555                    20983787.262
        49.100          40.800
 121266089.476 7  94493075.62644  23076173.695                    23076176.699
        44.800          29.600
 117860899.925 7  91839590.28545  22428159.211                    22428166.563
        45.800          34.400
 118698028.312 7  92492115.53445  22587525.539                    22587531.887
        45.700          33.800
 125757833.408 7  97993125.18644  23930920.156                    23930925.789
        42.300          26.300
 18  3 15 12 50  0.0000000  0 16G19R19R01R09R10R02R18G32R11G11G17G24
                                G28G01G10G15
 121468064.509 8  94650397.37446  23114605.766                    23114609.180
        48.800          37.000
                  86563964.097 6  20805757.984                    20805757.453
                        40.700
                  85026788.476 6  20450591.547                    20450595.301
                        38.300
                  86501671.040 6  20827265.258                    20827266.215
                        41.100
                  80375357.567 6  19386274.578                    19386278.309
                        40.100
                  89177603.776 6  21486656.383                    21486657.734
                        39.700
                  85984025.142 6  20709899.875                    20709900.613
                        41.600
 124751364.420 7  97208905.17344  23739403.883                    23739408.020
        45.700          29.200
                  93552226.355 6  22509027.086                    22509028.543
                        41.000
 118896105.360 7  92646346.70744  22625182.766                    22625184.160
        43.600          29.500
 117620773.198 8  91652526.89046  22382486.781                    22382489.648
        48.400          36.900
 110270214.977 8  85924763.54946  20983700.148                    20983705.938
        49.100          40.600
 121269289.730 7  94495569.32744  23076782.570                    23076785.770
        44.900          29.900
 117860422.709 7  91839218.43645  22428067.836                    22428075.340
        45.800          34.500
 118700073.763 7  92493709.41645  22587914.805                    22587921.199
        44.800          33.100
 125761846.476 7  97996252.22344  23931684.000                    23931689.324
        42.600          27.000
 18  3 15 12 50  1.0000000  0 16G19R19R01R09R10R02R18G32R11G11G17G24
                                G28G01G10G15
 121465024.850 7  94648028.77945  23114027.047                    23114031.867
        47.600          35.900
                  86562299.815 6  20805358.484                    20805357.293
                        40.700
                  85028418.022 6  20450984.172                    20450987.594
                        38.500
                  86504524.358 6  20827952.438                    20827953.117
                        41.400
                  80374903.188 6  19386165.539                    19386168.801
                        40.000
                  89175486.781 6  21486146.625                    21486147.234
                        40.200
                  85985834.381 6  20710334.984                    20710337.141
                        41.600
 124748609.692 7  97206758.61444  23738879.359                    23738884.340
        44.800          28.900
                  93549228.518 6  22508306.016                    22508307.598
                        41.000
 118897615.686 7  92647523.59244  22625470.000                    22625471.559
        44.000          29.100
 117619226.678 8  91651321.81046  22382192.492                    22382195.348
        48.200          36.500
 110269785.396 8  85924428.81446  20983618.055                    20983623.680
        49.300          40.600
 121272490.315 7  94498063.29244  23077391.828                    23077394.754
        45.000          29.700
 117859946.173 7  91838847.10345  22427977.719                    22427984.430
        45.600          34.200
 118702119.852 7  92495303.78645  22588304.008                    22588310.820
        44.900          32.700
 125765859.770 7  97999379.44144  23932448.367                    23932453.027
        42.600          25.800
 18  3 15 12 50  2.0000000  0 16G19R19R01R09R10R02R18G32R11G11G17G24
                                G28G01G10G15
 121461985.581 7  94645660.55145  23113447.922                    23113453.129
        45.500          34.300
                  86560636.168 6  20804957.797                    20804957.758
                        41.000
                  85030048.231 6  20451375.766                    20451379.078
                        38.500
                  86507378.080 6  20828639.523                    20828639.664
                        41.200
                  80374449.459 6  19386055.688                    19386059.645
                        39.700
                  89173370.256 6  21485637.430                    21485637.914
                        40.600
                  85987644.320 6  20710769.383                    20710773.137
                        41.600
 124745855.334 7  97204612.35444  23738354.953                    23738360.266
        43.900          29.100
                  93546230.839 6  22507583.141                    22507585.828
                        41.100
 118899126.746 7  92648701.04845  22625757.789                    22625759.027
        44.400          30.400
 117617680.721 8  91650117.17146  22381898.086                    22381900.949
        48.100          36.800
 110269356.471 8  85924094.58746  20983536.570                    20983542.086
        49.300          40.800
 121275691.226 7  94500557.50045  23078000.797                    23078003.484
        45.100          30.000
 117859470.423 7  91838476.38645  22427887.094                    22427894.258
        46.000          34.100
 118704166.524 7  92496898.59745  22588693.617                    22588699.602
        45.000          33.300
 125769873.325 7  98002506.88144  23933212.391                    23933216.586
        43.000          26.800
 18  3 15 12 50  3.0000000  0 16G19R19R01R09R10R02R18G32R11G11G17G24
                                G28G01G10G15
 121458946.758 7  94643292.66345  23112868.586                    23112874.984
        43.000          32.600
                  86558973.153 6  20804558.039                    20804557.172
                        40.700
                  85031679.149 6  20451768.234                    20451771.551
                        38.500
                  86510232.240 6  20829327.180                    20829327.867
                        41.200
                  80373996.407 6  19385946.492                    19385950.684
                        39.900
                  89171254.229 6  21485127.461                    21485127.809
                        41.100
                  85989454.938 6  20711205.633                    20711208.957
                        41.300
 124743101.382 7  97202466.42244  23737830.430                    23737836.984
        42.400          29.300
                  93543233.440 6  22506863.273                    22506864.969
                        40.900
 118900638.558 7  92649879.09845  22626045.461                    22626046.676
        44.600          30.200
 117616135.313 8  91648912.96246  22381604.023                    22381607.359
        48.000          36.700
 110268928.246 8  85923760.91146  20983455.102                    20983460.895
        49.000          40.700
 121278892.460 7  94503051.95744  23078610.273                    23078612.813
        45.200          29.100
 117858995.390 7  91838106.22945  22427796.969                    22427803.801
        46.000          34.500
 118706213.886 7  92498493.93845  22589083.172                    22589089.629
        45.000          33.100
 125773887.107 7  98005634.49544  23933976.320                    23933979.898
        43.500          25.900
 18  3 15 12 50  4.0000000  0 16G19R19R01R09R10R02R18G32R11G11G17G24
                                G28G01G10G15
 121455908.286 6  94640925.06245  23112287.250                    23112296.391
        39.000          30.100
                  86557310.787 6  20804158.555                    20804158.035
                        41.100
                  85033310.760 6  20452160.734                    20452164.004
                        38.100
                  86513086.841 6  20830013.219                    20830013.973
                        41.400
                  80373544.025 6  19385836.883                    19385841.309
                        39.800
                  89169138.704 6  21484617.711                    21484619.355
                        41.000
                  85991266.174 6  20711642.164                    20711644.523
                        41.400
 124740347.775 6  97200320.77944  23737305.531                    23737312.949
        41.500          27.500
                  93540236.245 6  22506141.156                    22506143.746
                        41.000
 118902151.073 7  92651057.69044  22626332.891                    22626334.848
        45.100          29.400
 117614590.464 8  91647709.18846  22381310.008                    22381313.293
        48.600          37.000
 110268500.729 8  85923427.77846  20983373.320                    20983379.496
        49.000          40.600
 121282094.044 7  94505546.70144  23079220.094                    23079222.441
        45.700          29.700
 117858521.095 7  91837736.65245  22427706.469                    22427713.496
        45.800          34.900
 118708261.840 7  92500089.73445  22589472.961                    22589479.367
        45.300          33.200
 125777901.169 7  98008762.34444  23934740.258                    23934743.887
        44.500          27.000
 18  3 15 12 50  5.0000000  0 16G19R19R01R09R10R02R18G32R11G11G17G24
                                G28G01G10G15
 121452870.209 6  94638557.81344  23111708.766                    23111717.500
        37.100          29.800
                  86555649.054 6  20803759.609                    20803759.191
                        40.900
                  85034943.071 6  20452553.648                    20452556.996
                        38.400
                  86515941.889 6  20830701.852                    20830701.926
                        41.200
                  80373092.308 6  19385728.992                    19385732.609
                        39.900
                  89167023.759 6  21484106.898                    21484110.680
                        40.900
                  85993078.081 6  20712079.688                    20712080.875
                        41.300
 124737594.575 6  97198175.47744  23736782.367                    23736789.277
        41.800          28.100
                  93537239.297 6  22505420.844                    22505422.773
                        41.100
 118903664.384 7  92652236.89745  22626620.477                    22626622.813
        44.900          30.500
 117613046.200 8  91646505.86446  22381016.133                    22381019.578
        48.800          37.100
 110268073.891 8  85923095.18346  20983292.188                    20983297.797
        49.000          40.600
 121285295.996 7  94508041.72544  23079828.883                    23079831.496
        45.800          29.900
 117858047.603 7  91837367.70145  22427616.242                    22427623.422
        46.400          34.700
 118710310.457 7  92501686.04345  22589862.883                    22589869.203
        45.400          33.700
 125781915.477 7  98011890.38344  23935504.047                    23935507.875
        45.200          27.000
 18  3 15 12 50  6.0000000  0 16G19R19R01R09R10R02R18G32R11G11G17G24
                                G28G01G10G15
 121449832.592 6  94636190.95744  23111132.219                    23111138.660
        40.700          29.100
                  86553987.962 6  20803360.320                    20803360.023
                        40.900
                  85036576.083 6  20452946.156                    20452949.547
                        38.200
                  86518797.353 6  20831390.156                    20831389.863
                        41.700
                  80372641.253 6  19385619.539                    19385623.797
                        40.000
                  89164909.342 6  21483596.453                    21483601.293
                        40.900
                  85994890.650 6  20712516.070                    20712518.023
                        41.300
 124734841.771 7  97196030.47544  23736259.219                    23736265.316
        42.700          27.800
                  93534242.606 6  22504700.953                    22504701.707
                        41.000
 118905178.409 7  92653416.65645  22626908.547                    22626910.332
        44.500          30.500
 117611502.471 8  91645302.96246  22380722.180                    22380725.754
        48.700          36.300
 110267647.737 8  85922763.11546  20983211.297                    20983216.586
        49.000          40.600
 121288498.251 7  94510536.98944  23080438.180                    23080440.922
        46.000          29.800
 117857574.786 7  91836999.28345  22427526.609                    22427533.410
        46.400          34.700
 118712359.748 7  92503282.87745  22590252.633                    22590258.930
        45.700          34.200
 125785930.048 7  98015018.64944  23936268.633                    23936271.574
        45.600          26.000
 18  3 15 12 50  7.0000000  0 16G19R19R01R09R10R02R18G32R11G11G17G24
                                G28G01G10G15
 121446795.433 7  94633824.43544  23110556.133                    23110560.188
        44.300          29.100
                  86552327.495 6  20802961.188                    20802960.832
                        40.800
                  85038209.771 6  20453338.742                    20453342.215
                        38.500
                  86521653.234 6  20832077.531                    20832077.633
                        41.400
                  80372190.859 6  19385511.070                    19385515.137
                        39.800
                  89162795.478 6  21483087.695                    21483091.352
                        40.400
                  85996703.913 6  20712952.961                    20712954.945
                        41.200
 124732089.346 7  97193885.75344  23735736.281                    23735741.371
        43.800          28.600
                  93531246.018 6  22503977.648                    22503980.543
                        41.000
 118906693.165 7  92654597.00044  22627196.219                    22627198.906
        44.500          29.600
 117609959.303 8  91644100.49446  22380428.328                    22380432.316
        48.400          36.800
 110267222.240 8  85922431.56346  20983130.203                    20983135.996
        49.100          40.800
 121291700.842 7  94513032.52044  23081047.477                    23081050.621
        45.700          29.500
 117857102.704 7  91836631.42845  22427436.727                    22427443.508
        46.400          34.900
 118714409.667 7  92504880.21145  22590642.750                    22590649.121
        45.800          34.000
 125789944.858 7  98018147.09444  23937032.156                    23937035.422
        45.800          26.200
 18  3 15 12 50  8.0000000  0 16G19R19R01R09R10R02R18G32R11G11G17G24
                                G28G01G10G15
 121443758.743 7  94631458.20844  23109978.438                    23109982.449
        46.200          29.100
                  86550667.654 6  20802561.844                    20802561.844
                        40.800
                  85039844.140 6  20453731.789                    20453735.551
                        38.500
                  86524509.557 6  20832764.664                    20832765.531
                        41.500
                  80371741.147 6  19385402.578                    19385406.863
                        40.000
                  89160682.133 6  21482578.625                    21482581.965
                        40.000
                  85998517.854 6  20713389.977                    20713391.734
                        41.300
 124729337.319 7  97191741.31444  23735212.602                    23735217.801
        45.100          29.200
                  93528249.728 6  22503258.344                    22503259.602
                        41.200
 118908208.649 7  92655777.90144  22627484.289                    22627487.301
        43.700          28.600
 117608416.671 7  91642898.44646  22380134.750                    22380138.441
        47.800          36.500
 110266797.436 8  85922100.53946  20983049.633                    20983055.043
        49.200          40.700
 121294903.789 7  94515528.32145  23081657.109                    23081660.406
        45.500          30.500
 117856631.378 7  91836264.15845  22427346.773                    22427353.988
        46.400          34.900
 118716460.227 7  92506478.06545  22591032.938                    22591039.148
        45.300          34.200
 125793959.914 7  98021275.72944  23937795.883                    23937799.527
        45.600          27.500
 18  3 15 12 50  9.0000000  0 16G19R19R01R09R10R02R18G32R11G11G17G24
                                G28G01G10G15
 121440722.444 7  94629092.24644  23109401.172                    23109403.531
        47.500          26.300
                  86549008.425 6  20802163.570                    20802163.023
                        40.800
                  85041479.207 6  20454124.633                    20454129.117
                        38.900
                  86527366.310 6  20833453.383                    20833453.254
                        41.200
                  80371292.080 6  19385294.234                    19385298.402
                        40.200
                  89158569.259 6  21482070.625                    21482072.438
                        39.600
                  86000332.442 6  20713826.844                    20713828.750
                        41.500
 124726585.688 7  97189597.17744  23734689.586                    23734694.180
        46.000          29.600
                  93525253.653 6  22502537.430                    22502539.367
                        41.000
 118909724.863 7  92656959.36044  22627772.273                    22627775.855
        43.200          28.800
 117606874.589 7  91641696.82646  22379841.555                    22379844.883
        47.500          36.500
 110266373.278 8  85921770.02946  20982969.078                    20982974.602
        49.000          40.800
 121298107.050 7  94518024.36544  23082266.359                    23082269.191
        45.400          29.600
 117856160.777 7  91835897.44445  22427257.641                    22427264.203
        46.400          35.000
 118718511.439 7  92508076.43545  22591423.406                    22591429.711
        44.400          33.500
 125797975.243 7  98024404.56244  23938559.695                    23938563.777
        45.100          27.500
 18  3 15 12 50 10.0000000  0 16G19R19R01R09R10R02R18G32R11G11G17G24
                                G28G01G10G15
 121437686.634 8  94626726.59644  23108823.547                    23108823.383
        48.500          27.000
                  86547349.836 6  20801765.406                    20801764.359
                        41.100
                  85043114.975 6  20454518.188                    20454522.680
                        38.700
                  86530223.511 6  20834140.711                    20834141.250
                        40.800
                  80370843.724 6  19385186.289                    19385190.125
                        39.900
                  89156456.922 6  21481562.492                    21481562.965
                        39.600
                  86002147.717 6  20714264.016                    20714265.824
                        41.600
 124723834.480 7  97187453.35644  23734166.070                    23734170.410
        46.500          28.300
                  93522257.772 6  22501814.617                    22501817.918
                        41.000
 118911241.866 7  92658141.43444  22628061.164                    22628065.137
        42.900          28.600
 117605333.109 8  91640495.67546  22379548.164                    22379551.473
        48.000          36.600
 110265949.830 8  85921440.06346  20982888.352                    20982893.766
        49.600          40.900
 121301310.688 7  94520520.69745  23082875.875                    23082879.391
        45.400          30.000
 117855690.940 7  91835531.33245  22427167.836                    22427175.215
        46.400          35.800
 118720563.322 7  92509675.32345  22591813.391                    22591819.961
        44.300          33.400
 125801990.847 7  98027533.59544  23939323.875                    23939327.941
        43.800          26.400
 18  3 15 12 50 11.0000000  0 16G19R19R01R09R10R02R18G32R11G11G17G24
                                G28G01G10G15
 121434651.267 8  94624361.23845  23108246.586                    23108243.719
        48.200          30.200
                  86545691.888 6  20801366.195                    20801365.750
                        41.000
                  85044751.429 6  20454912.492                    20454915.930
                        38.300
                  86533081.173 6  20834828.125                    20834828.762
                        40.700
                  80370396.035 6  19385078.281                    19385082.109
                        39.800
                  89154345.082 6  21481053.602                    21481053.758
                        40.100
                  86003963.691 6  20714701.086                    20714703.320
                        41.200
 124721083.661 7  97185309.83444  23733642.234                    23733647.117
        46.700          29.300
                  93519262.222 6  22501096.789                    22501097.402
                        41.100
 118912759.625 7  92659324.08044  22628350.000                    22628353.449
        42.000          28.900
 117603792.191 7  91639294.96046  22379255.070                    22379258.230
        47.700          36.700
 110265527.074 8  85921110.64846  20982807.883                    20982813.367
        49.500          40.900
 121304514.666 7  94523017.29644  23083486.273                    23083488.602
        45.500          29.400
 117855221.870 7  91835165.81345  22427078.602                    22427085.891
        46.700          35.400
 118722615.852 7  92511274.71145  22592204.078                    22592210.844
        44.300          33.500
 125806006.727 7  98030662.83344  23940087.406                    23940092.211
        43.600          28.100
 18  3 15 12 50 12.0000000  0 16G19R19R01R09R10R02R18G32R11G11G17G24
                                G28G01G10G15
 121431616.313 7  94621996.22145  23107668.883                    23107665.578
        47.800          31.000
                  86544034.580 6  20800967.867                    20800967.344
                        40.900
                  85046388.590 6  20455305.984                    20455309.508
                        38.500
                  86535939.275 6  20835516.102                    20835516.770
                        40.900
                  80369948.996 6  19384970.578                    19384974.180
                        39.800
                  89152233.744 6  21480544.352                    21480544.645
                        40.400
                  86005780.345 6  20715137.656                    20715141.098
                        41.000
 124718333.225 7  97183166.61344  23733119.133                    23733123.094
        45.800          29.100
                  93516266.811 6  22500375.352                    22500377.035
                        41.000
 118914278.104 6  92660507.29344  22628638.883                    22628642.348
        41.800          28.900
 117602251.853 7  91638094.69746  22378961.789                    22378964.914
        47.800          36.500
 110265105.003 8  85920781.76346  20982727.625                    20982733.063
        49.800          40.600
 121307718.987 7  94525514.16344  23084096.164                    23084098.715
        45.900          29.300
 117854753.550 7  91834800.88745  22426989.750                    22426996.500
        46.800          35.600
 118724669.034 7  92512874.61545  22592595.055                    22592601.773
        44.600          34.200
 125810022.893 7  98033792.29244  23940852.414                    23940856.895
        43.200          26.600
 18  3 15 12 50 13.0000000  0 16G19R19R01R09R10R02R18G32R11G11G17G24
                                G28G01G10G15
 121428581.795 7  94619631.58545  23107091.391                    23107088.270
        46.900          31.800
                  86542377.906 6  20800569.758                    20800569.688
                        40.700
                  85048026.444 6  20455700.086                    20455703.508
                        38.700
                  86538797.779 6  20836204.727                    20836204.957
                        40.900
                  80369502.617 6  19384862.680                    19384866.453
                        39.900
                  89150122.917 6  21480034.430                    21480037.125
                        41.000
                  86007597.697 6  20715574.609                    20715578.609
                        41.300
 124715583.191 7  97181023.70644  23732594.664                    23732600.012
        45.200          28.100
                  93513271.685 6  22499653.406                    22499655.992
                        40.900
 118915797.388 7  92661691.15444  22628928.430                    22628931.648
        42.300          29.600
 117600712.067 7  91636894.86546  22378668.867                    22378672.098
        47.800          36.900
 110264683.648 8  85920453.43746  20982647.266                    20982653.148
        49.600          40.900
 121310923.653 7  94528011.30844  23084705.617                    23084708.688
        46.000          29.900
 117854285.951 7  91834436.52345  22426900.555                    22426907.656
        46.900          35.200
 118726722.864 7  92514475.02845  22592985.578                    22592992.332
        44.500          33.800
 125814039.279 7  98036921.91844  23941616.445                    23941621.395
        43.000          26.600
 18  3 15 12 50 14.0000000  0 16G19R19R01R09R10R02R18G32R11G11G17G24
                                G28G01G10G15
 121425547.686 7  94617267.31345  23106513.078                    23106512.207
        45.700          30.800
                  86540721.858 6  20800171.188                    20800171.688
                        40.900
                  85049664.983 6  20456094.289                    20456097.602
                        38.600
                  86541656.716 6  20836893.594                    20836893.383
                        40.900
                  80369056.876 6  19384755.438                    19384759.469
                        40.000
                  89148012.630 6  21479525.852                    21479529.164
                        41.300
                  86009415.698 6  20716013.578                    20716016.504
                        41.400
 124712833.526 7  97178881.08944  23732070.914                    23732076.535
        43.900          27.200
                  93510276.789 6  22498934.641                    22498935.832
                        41.200
 118917317.369 7  92662875.56244  22629218.133                    22629221.070
        42.100          29.000
 117599172.838 7  91635695.46546  22378376.336                    22378379.031
        47.900          36.600
 110264262.964 8  85920125.63146  20982567.406                    20982572.801
        50.200          40.800
 121314128.638 7  94530508.69544  23085315.359                    23085318.441
        45.700          29.700
 117853819.069 7  91834072.70845  22426811.672                    22426818.754
        47.200          35.300
 118728777.303 7  92516075.91345  22593376.617                    22593382.887
        44.600          33.900
 125818055.944 7  98040051.76044  23942381.180                    23942385.887
        43.300          25.600
 18  3 15 12 50 15.0000000  0 16G19R19R01R09R10R02R18G32R11G11G17G24
                                G28G01G10G15
 121422513.991 7  94614903.40345  23105934.906                    23105935.832
        43.700          30.700
                  86539066.458 6  20799773.344                    20799773.184
                        41.200
                  85051304.217 6  20456488.250                    20456492.008
                        38.800
                  86544516.077 6  20837581.828                    20837581.902
                        41.300
                  80368611.779 6  19384648.414                    19384652.273
                        40.000
                  89145902.912 6  21479017.781                    21479021.402
                        41.800
                  86011234.385 6  20716452.969                    20716455.070
                        41.400
 124710084.175 7  97176738.71444  23731547.148                    23731553.227
        42.400          27.100
                  93507282.039 6  22498211.797                    22498214.820
                        41.100
 118918838.068 7  92664060.53344  22629508.023                    22629510.543
        42.500          29.700
 117597634.155 8  91634496.48646  22378083.906                    22378086.262
        48.500          36.500
 110263842.957 8  85919798.35546  20982487.352                    20982493.344
        50.200          40.800
 121317333.960 7  94533006.35044  23085925.094                    23085928.199
        45.700          28.900
 117853352.935 7  91833709.47945  22426722.953                    22426730.379
        47.600          35.400
 118730832.405 7  92517677.31345  22593768.117                    22593774.164
        45.000          33.700
 125822072.845 7  98043181.78844  23943145.875                    23943149.992
        43.800          26.200
 18  3 15 12 50 16.0000000  0 16G19R19R01R09R10R02R18G32R11G11G17G24
                                G28G01G10G15
 121419480.698 6  94612539.83745  23105355.906                    23105359.664
        40.200          30.500
                  86537411.706 6  20799376.508                    20799375.797
                        41.200
                  85052944.134 6  20456882.656                    20456886.469
                        38.700
                  86547375.878 6  20838270.352                    20838270.711
                        41.200
                  80368167.341 6  19384540.297                    19384544.848
                        39.600
                  89143793.742 6  21478510.727                    21478513.668
                        41.300
                  86013053.728 6  20716892.133                    20716892.766
                        41.700
 124707335.252 6  97174596.70044  23731023.820                    23731030.152
        41.200          28.300
                  93504287.523 6  22497493.125                    22497494.465
                        41.500
 118920359.524 7  92665246.08844  22629797.883                    22629800.336
        42.100          29.200
 117596096.052 8  91633297.95346  22377790.711                    22377793.484
        48.000          36.500
 110263423.606 8  85919471.60146  20982407.492                    20982413.004
        50.200          41.000
 121320539.630 7  94535504.27445  23086535.070                    23086538.148
        45.600          30.000
 117852887.533 7  91833346.81845  22426634.250                    22426641.531
        47.600          35.200
 118732888.113 7  92519279.17845  22594158.820                    22594165.605
        44.800          33.600
 125826089.977 7  98046312.01444  23943910.719                    23943915.078
        44.500          25.300
 18  3 15 12 50 17.0000000  0 16G19R19R01R09R10R02R18G32R11G11G17G24
                                G28G01G10G15
 121416447.714 6  94610176.54145  23104776.398                    23104782.785
        36.300          30.600
                  86535757.543 6  20798978.875                    20798978.578
                        41.300
                  85054584.715 6  20457277.453                    20457280.773
                        38.400
                  86550236.081 6  20838959.945                    20838958.691
                        41.200
                  80367723.529 6  19384433.727                    19384437.020
                        40.200
                  89141685.063 6  21478002.438                    21478005.473
                        41.200
                  86014873.718 6  20717329.906                    20717331.570
                        41.400
 124704586.630 6  97172454.94344  23730500.758                    23730507.309
        41.100          27.400
                  93501293.230 6  22496771.930                    22496774.172
                        41.300
 118921881.642 7  92666432.14044  22630087.680                    22630089.738
        42.600          29.600
 117594558.454 7  91632099.81246  22377498.156                    22377501.453
        47.500          36.700
 110263004.940 8  85919145.36746  20982327.742                    20982333.770
        50.500          40.900
 121323745.584 7  94538002.42045  23087145.164                    23087148.340
        45.300          30.200
 117852422.872 7  91832984.73645  22426546.203                    22426553.434
        46.400          34.700
 118734944.417 7  92520881.50445  22594550.938                    22594556.750
        44.700          33.400
 125830107.346 7  98049442.43344  23944674.836                    23944679.199
        44.900          25.900
 18  3 15 12 50 18.0000000  0 16G19R19R01R09R10R02R18G32R11G11G17G24
                                G28G01G10G15
 121413415.190 6  94607813.65645  23104200.195                    23104205.832
        38.600          30.900
                  86534103.998 6  20798581.461                    20798580.840
                        40.900
                  85056225.997 6  20457672.414                    20457675.688
                        38.600
                  86553096.738 6  20839648.352                    20839647.949
                        41.300
                  80367280.414 6  19384326.656                    19384330.680
                        40.300
                  89139576.896 6  21477495.250                    21477496.637
                        41.100
                  86016694.424 6  20717767.648                    20717769.426
                        41.200
 124701838.430 7  97170313.54144  23729977.984                    23729984.211
        42.100          28.300
                  93498299.187 6  22496051.766                    22496053.066
                        40.700
 118923404.584 7  92667618.83444  22630376.852                    22630379.891
        42.600          29.700
 117593021.438 7  91630902.12546  22377205.000                    22377208.602
        47.500          36.900
 110262586.953 8  85918819.66346  20982248.461                    20982253.793
        50.800          41.100
 121326951.896 7  94540500.84844  23087755.484                    23087758.504
        45.500          28.300
 117851958.957 7  91832623.23845  22426458.047                    22426465.176
        46.800          35.500
 118737001.434 7  92522484.38845  22594942.109                    22594947.988
        44.600          33.200
 125834124.995 7  98052573.08344  23945439.602                    23945443.906
        44.700          24.700
 18  3 15 12 50 19.0000000  0 16G19R19R01R09R10R02R18G32R11G11G17G24
                                G28G01G10G15
 121410383.220 7  94605451.19445  23103625.602                    23103629.246
        42.300          32.800
                  86532451.102 6  20798183.500                    20798183.434
                        40.800
                  85057867.986 6  20458067.047                    20458070.742
                        38.600
                  86555957.858 6  20840336.852                    20840337.051
                        41.200
                  80366837.986 6  19384220.453                    19384223.887
                        39.900
                  89137469.260 6  21476986.375                    21476988.543
                        40.800
                  86018515.822 6  20718206.320                    20718208.535
                        41.100
 124699090.728 7  97168172.51544  23729456.742                    23729461.750
        43.200          27.400
                  93495305.396 6  22495330.469                    22495333.613
                        41.500
 118924928.261 7  92668806.11544  22630666.836                    22630669.559
        43.400          29.300
 117591485.015 7  91629704.91446  22376912.656                    22376916.754
        47.400          36.900
 110262169.695 8  85918494.52546  20982168.750                    20982174.582
        50.800          40.800
 121330158.606 7  94542999.57144  23088365.734                    23088368.734
        45.200          28.900
 117851495.821 7  91832262.34945  22426369.953                    22426377.008
        47.200          34.900
 118739059.087 7  92524087.77945  22595334.000                    22595339.656
        44.900          33.600
 125838142.919 7  98055703.94943  23946203.273                    23946207.707
        44.600          22.900
 18  3 15 12 50 20.0000000  0 16G19R19R01R09R10R02R18G32R11G11G17G24
                                G28G01G10G15
 121407351.652 7  94603088.99545  23103050.516                    23103052.863
        45.000          34.300
                  86530798.831 6  20797786.344                    20797786.398
                        40.700
                  85059510.632 6  20458462.367                    20458465.660
                        38.800
                  86558819.396 6  20841025.922                    20841026.168
                        40.900
                  80366396.192 6  19384113.797                    19384117.008
                        40.000
                  89135362.115 6  21476477.773                    21476480.563
                        40.900
                  86020337.884 6  20718644.477                    20718647.285
                        40.900
 124696343.354 7  97166031.73044  23728934.453                    23728938.797
        44.700          29.200
                  93492311.769 6  22494610.641                    22494612.438
                        41.000
 118926452.705 7  92669994.00244  22630957.219                    22630960.188
        43.700          29.200
 117589949.132 7  91628508.12746  22376620.594                    22376624.023
        47.600          36.600
 110261753.079 8  85918169.88646  20982089.758                    20982095.328
        51.000          41.000
 121333365.633 7  94545498.53944  23088976.023                    23088978.539
        45.400          28.500
 117851033.415 7  91831902.03245  22426281.336                    22426288.965
        47.300          35.200
 118741117.330 7  92525691.61945  22595725.344                    22595731.348
        45.100          33.400
 125842161.079 7  98058834.99944  23946967.969                    23946972.395
        44.500          24.200
 18  3 15 12 50 21.0000000  0 16G19R19R01R09R10R02R18G32R11G11G17G24
                                G28G01G10G15
 121404320.572 7  94600727.13045  23102474.516                    23102476.375
        47.300          35.300
                  86529147.193 6  20797389.305                    20797389.055
                        40.900
                  85061153.999 6  20458858.109                    20458861.008
                        38.200
                  86561681.379 6  20841714.938                    20841714.973
                        41.200
                  80365955.084 6  19384006.883                    19384011.035
                        40.400
                  89133255.507 6  21475970.359                    21475973.504
                        41.200
                  86022160.624 6  20719083.555                    20719086.434
                        41.100
 124693596.409 7  97163891.25945  23728412.594                    23728416.527
        45.800          30.600
                  93489318.404 6  22493891.391                    22493892.723
                        41.000
 118927977.889 7  92671182.47844  22631247.234                    22631250.160
        43.400          29.500
 117588413.836 7  91627311.79346  22376328.867                    22376332.188
        47.800          36.500
 110261337.178 8  85917845.80646  20982010.719                    20982016.063
        50.900          40.900
 121336573.007 7  94547997.78044  23089587.023                    23089589.449
        45.500          29.200
 117850571.768 7  91831542.31445  22426193.953                    22426200.883
        47.300          35.000
 118743176.222 7  92527295.95245  22596117.555                    22596122.824
        45.000          33.100
 125846179.540 7  98061966.29744  23947732.484                    23947736.977
        44.000          25.500
 18  3 15 12 50 22.0000000  0 16G19R19R01R09R10R02R18G32R11G11G17G24
                                G28G01G10G15
 121401289.914 8  94598365.55746  23101897.906                    23101900.230
        48.600          36.000
                  86527496.204 6  20796993.031                    20796992.297
                        40.800
                  85062798.052 6  20459252.367                    20459255.855
                        38.500
                  86564543.795 6  20842404.188                    20842404.262
                        41.000
                  80365514.655 6  19383900.727                    19383904.848
                        40.700
                  89131149.450 6  21475464.414                    21475466.023
                        41.100
                  86023984.012 6  20719522.695                    20719525.324
                        41.200
 124690849.877 7  97161751.08945  23727888.906                    23727893.813
        46.300          30.800
                  93486325.270 6  22493170.578                    22493172.508
                        40.900
 118929503.749 7  92672371.47544  22631537.805                    22631540.211
        43.700          28.200
 117586879.109 8  91626115.90446  22376036.992                    22376039.836
        48.200          36.700
 110260921.962 8  85917522.25646  20981931.305                    20981937.141
        51.000          40.500
 121339780.691 7  94550497.27244  23090197.094                    23090199.820
        45.700          29.500
 117850110.903 7  91831183.20645  22426106.172                    22426113.211
        46.700          35.700
 118745235.807 7  92528900.81545  22596508.938                    22596514.938
        45.200          33.100
 125850198.255 7  98065097.78144  23948497.430                    23948501.773
        43.700          25.300
 18  3 15 12 50 23.0000000  0 16G19R19R01R09R10R02R18G32R11G11G17G24
                                G28G01G10G15
 121398259.709 8  94596004.32545  23101321.531                    23101323.918
        48.900          35.000
                  86525845.849 6  20796596.313                    20796595.941
                        40.900
                  85064442.798 6  20459648.242                    20459652.313
                        38.200
                  86567406.665 6  20843092.750                    20843093.918
                        41.000
                  80365074.901 6  19383794.852                    19383798.785
                        40.500
                  89129043.915 6  21474957.680                    21474958.160
                        41.200
                  86025808.085 6  20719961.719                    20719964.738
                        41.100
 124688103.729 7  97159611.20645  23727366.727                    23727371.418
        46.400          31.400
                  93483332.394 6  22492450.859                    22492452.402
                        41.300
 118931030.421 7  92673561.09044  22631828.164                    22631830.953
        44.000          29.000
 117585344.962 8  91624920.46146  22375745.102                    22375748.160
        48.500          36.800
 110260507.417 8  85917199.23346  20981852.156                    20981858.090
        51.100          40.600
 121342988.759 7  94552997.06644  23090807.813                    23090810.313
        46.000          29.500
 117849650.771 7  91830824.67845  22426018.992                    22426025.875
        46.300          35.300
 118747296.020 7  92530506.17145  22596900.945                    22596907.156
        45.100          33.400
 125854217.230 7  98068229.44944  23949261.594                    23949266.461
        43.200          26.500
 18  3 15 12 50 24.0000000  0 16G19R19R01R09R10R02R18G32R11G11G17G24
                                G28G01G10G15
 121395229.923 8  94593643.42545  23100744.789                    23100746.988
        49.100          34.000
                  86524196.133 6  20796200.227                    20796199.211
                        40.800
                  85066088.215 6  20460044.180                    20460047.629
                        38.200
                  86570269.953 6  20843781.492                    20843782.703
                        40.600
                  80364635.825 6  19383688.820                    19383692.641
                        40.500
                  89126938.907 6  21474450.242                    21474451.559
                        41.300
                  86027632.807 6  20720402.188                    20720403.938
                        40.700
 124685357.920 7  97157471.58845  23726844.195                    23726849.203
        45.800          30.500
                  93480339.739 6  22491730.836                    22491732.113
                        41.100
 118932557.793 7  92674751.25244  22632119.086                    22632121.543
        44.300          27.900
 117583811.346 8  91623725.42946  22375453.047                    22375456.086
        48.600          36.600
 110260093.534 8  85916876.73246  20981773.664                    20981779.363
        51.200          40.500
 121346197.134 7  94555497.10344  23091418.125                    23091420.832
        45.200          29.300
 117849191.368 7  91830466.71745  22425931.391                    22425937.969
        46.900          35.200
 118749356.861 7  92532112.02745  22597293.109                    22597299.125
        45.200          33.000
 125858236.480 7  98071361.32944  23950026.133                    23950031.434
        42.600          25.300
 18  3 15 12 50 25.0000000  0 16G19R19R01R09R10R02R18G32R11G11G17G24
                                G28G01G10G15
 121392200.550 8  94591282.85445  23100168.000                    23100170.148
        48.400          31.700
                  86522547.036 6  20795803.383                    20795802.762
                        40.800
                  85067734.324 6  20460439.438                    20460443.555
                        38.400
                  86573133.650 6  20844472.766                    20844472.328
                        40.900
                  80364197.399 6  19383583.719                    19383587.184
                        40.500
                  89124834.422 6  21473942.633                    21473944.793
                        40.800
                  86029458.214 6  20720842.383                    20720843.480
                        40.900
 124682612.551 7  97155332.31344  23726321.516                    23726326.441
        45.100          29.100
                  93477347.246 6  22491009.953                    22491012.219
                        40.900
 118934085.896 7  92675941.97844  22632409.273                    22632411.867
        44.600          28.600
 117582278.303 8  91622530.84446  22375161.367                    22375164.652
        48.000          36.300
 110259680.353 8  85916554.77046  20981695.148                    20981700.680
        51.000          40.400
 121349405.844 7  94557997.40144  23092028.547                    23092032.008
        45.000          28.800
 117848732.691 7  91830109.31145  22425843.930                    22425850.691
        46.400          34.800
 118751418.338 7  92533718.38245  22597685.477                    22597691.395
        45.600          33.500
 125862255.959 7  98074493.36944  23950791.828                    23950796.680
        42.500          25.900
 18  3 15 12 50 26.0000000  0 16G19R19R01R09R10R02R18G32R11G11G17G24
                                G28G01G10G15
 121389171.590 7  94588922.59944  23099591.352                    23099593.086
        47.700          29.300
                  86520898.580 6  20795406.797                    20795406.961
                        40.800
                  85069381.097 6  20460836.180                    20460839.828
                        37.900
                  86575997.766 6  20845162.766                    20845161.613
                        40.900
                  80363759.629 6  19383477.164                    19383481.660
                        40.400
                  89122730.438 6  21473434.945                    21473437.762
                        40.700
                  86031284.292 6  20721282.711                    20721283.176
                        41.400
 124679867.539 7  97153193.32744  23725797.797                    23725804.574
        44.600          28.700
                  93474354.981 6  22490290.758                    22490292.895
                        40.900
 118935614.696 7  92677133.25444  22632700.328                    22632702.578
        44.300          28.200
 117580745.787 7  91621336.66646  22374869.578                    22374873.070
        47.800          36.700
 110259267.834 8  85916233.33446  20981616.773                    20981622.059
        51.100          40.800
 121352614.883 7  94560497.95344  23092638.828                    23092642.102
        45.100          29.200
 117848274.729 7  91829752.45745  22425756.766                    22425763.820
        46.000          34.700
 118753480.406 7  92535325.19245  22598077.680                    22598083.641
        45.500          33.500
 125866275.664 7  98077625.58444  23951556.641                    23951561.598
        42.400          26.700
 18  3 15 12 50 27.0000000  0 16G19R19R01R09R10R02R18G32R11G11G17G24
                                G28G01G10G15
 121386143.065 7  94586562.67844  23099014.719                    23099015.926
        46.300          26.800
                  86519250.765 6  20795010.680                    20795010.902
                        40.500
                  85071028.539 6  20461232.734                    20461235.801
                        37.800
                  86578862.319 6  20845852.039                    20845851.590
                        41.100
                  80363322.516 6  19383372.430                    19383375.520
                        40.000
                  89120626.988 6  21472927.195                    21472931.035
                        40.500
                  86033111.032 6  20721722.672                    20721723.422
                        41.000
 124677122.885 7  97151054.62544  23725274.727                    23725281.184
        42.600          26.000
                  93471362.933 6  22489570.695                    22489572.934
                        41.100
 118937144.259 7  92678325.14344  22632991.484                    22632993.887
        44.600          29.000
 117579213.845 7  91620142.94046  22374577.695                    22374581.367
        47.800          36.000
 110258856.022 8  85915912.44346  20981538.383                    20981544.082
        51.200          40.600
 121355824.260 7  94562998.76244  23093249.313                    23093252.527
        45.200          29.400
 117847817.500 7  91829396.16745  22425669.711                    22425676.840
        45.600          34.800
 118755543.104 7  92536932.47945  22598470.656                    22598476.363
        45.800          33.200
 125870295.657 7  98080758.02644  23952322.273                    23952326.492
        42.700          25.500
 18  3 15 12 50 28.0000000  0 16G19R19R01R09R10R02R18G32R11G11G17G24
                                G28G01G10G15
 121383114.995 7  94584203.08044  23098436.891                    23098438.742
        43.600          24.800
                  86517603.612 6  20794615.188                    20794614.215
                        40.500
                  85072676.698 6  20461628.328                    20461632.332
                        37.500
                  86581727.343 6  20846541.789                    20846541.449
                        41.200
                  80362886.122 6  19383266.367                    19383270.480
                        40.200
                  89118524.098 6  21472420.578                    21472423.785
                        40.400
                  86034938.488 6  20722162.133                    20722164.293
                        41.100
 124674378.659 6  97148916.26344  23724752.188                    23724759.438
        41.100          25.800
                  93468371.204 6  22488851.148                    22488852.949
                        40.900
 118938674.629 7  92679517.65844  22633282.398                    22633284.758
        44.300          29.300
 117577682.514 7  91618949.69446  22374286.109                    22374290.129
        47.900          36.300
 110258444.912 8  85915592.09646  20981460.000                    20981465.727
        51.000          40.600
 121359034.018 7  94565499.86144  23093860.469                    23093863.105
        44.800          28.900
 117847361.073 7  91829040.50245  22425582.852                    22425589.445
        46.000          35.000
 118757606.505 7  92538540.31845  22598863.258                    22598869.250
        45.400          33.400
 125874315.902 7  98083890.66544  23953087.406                    23953091.637
        42.700          26.500
 18  3 15 12 50 29.0000000  0 16G19R19R01R09R10R02R18G32R11G11G17G24
                                G28G01G10G15
 121380087.293 6  94581843.79044  23097858.609                    23097862.008
        40.600          24.700
                  86515957.094 6  20794219.344                    20794219.137
                        40.600
                  85074325.549 6  20462025.336                    20462029.371
                        38.000
                  86584592.807 6  20847232.453                    20847231.684
                        41.000
                  80362450.400 6  19383161.461                    19383165.461
                        40.000
                  89116421.751 6  21471915.102                    21471917.164
                        40.400
                  86036766.652 6  20722601.422                    20722604.164
                        41.000
 124671634.817 6  97146778.22044  23724230.258                    23724236.895
        40.600          26.000
                  93465379.689 6  22488130.563                    22488132.996
                        41.100
 118940205.759 7  92680710.77844  22633573.719                    22633575.836
        44.300          28.900
 117576151.753 8  91617756.89946  22373995.008                    22373998.668
        48.100          36.900
 110258034.547 8  85915272.33046  20981381.945                    20981387.844
        50.900          40.900
 121362244.147 7  94568001.25144  23094471.797                    23094474.215
        45.300          29.700
 117846905.405 7  91828685.43245  22425496.234                    22425503.102
        45.500          34.100
 118759670.585 7  92540148.68545  22599256.000                    22599261.656
        45.800          33.600
 125878336.449 7  98087023.53644  23953852.242                    23953856.973
        43.600          25.800
 18  3 15 12 50 30.0000000  0 16G19R19R01R09R10R02R18G32R11G11G17G24
                                G28G01G10G15
 121377060.047 6  94579484.90244  23097283.055                    23097285.301
        38.800          27.400
                  86514311.223 6  20793823.906                    20793823.363
                        41.000
                  85075975.078 6  20462421.703                    20462426.004
                        38.100
                  86587458.710 6  20847921.289                    20847921.793
                        40.900
                  80362015.319 6  19383056.281                    19383060.328
                        39.800
                  89114319.918 6  21471409.398                    21471410.641
                        40.600
                  86038595.517 6  20723040.945                    20723044.273
                        41.100
 124668891.373 6  97144640.49444  23723708.625                    23723714.727
        41.000          26.900
                  93462388.347 6  22487410.852                    22487413.059
                        40.900
 118941737.639 7  92681904.47944  22633864.992                    22633867.691
        44.300          28.300
 117574621.568 8  91616564.55546  22373704.195                    22373707.105
        48.500          37.000
 110257624.845 8  85914953.08546  20981304.000                    20981309.590
        51.200          40.900
 121365454.605 7  94570502.89844  23095083.391                    23095085.336
        45.500          29.000
 117846450.496 7  91828330.94945  22425409.453                    22425416.563
        45.600          34.000
 118761735.278 7  92541757.53645  22599649.141                    22599654.898
        45.800          33.600
 125882357.254 7  98090156.62744  23954617.086                    23954622.445
        43.800          26.400
 18  3 15 12 50 31.0000000  0 16G19R19R01R09R10R02R18G32R11G11G17G24
                                G28G01G10G15
 121374033.199 6  94577126.37144  23096708.516                    23096709.316
        41.200          28.000
                  86512665.978 6  20793428.188                    20793428.051
                        40.800
                  85077625.271 6  20462818.609                    20462822.566
                        38.100
                  86590325.066 6  20848610.594                    20848612.102
                        41.200
                  80361580.909 6  19382952.102                    19382956.328
                        40.000
                  89112218.593 6  21470904.109                    21470905.230
                        40.700
                  86040425.006 6  20723482.992                    20723485.176
                        41.400
 124666148.317 7  97142503.07744  23723187.367                    23723192.648
        42.400          27.000
                  93459397.266 6  22486693.172                    22486693.574
                        41.100
 118943270.227 7  92683098.71444  22634155.555                    22634158.652
        43.900          28.800
 117573091.959 8  91615372.65846  22373413.023                    22373416.172
        48.800          37.000
 110257215.850 8  85914634.38546  20981226.391                    20981232.000
        51.400          40.800
 121368665.409 7  94573004.82444  23095693.844                    23095696.215
        45.600          29.300
 117845996.317 7  91827977.05145  22425322.867                    22425330.234
        45.200          34.900
 118763800.598 7  92543366.86045  22600041.602                    22600047.711
        45.700          33.900
 125886378.323 7  98093289.93744  23955382.805                    23955387.809
        43.700          24.500
 18  3 15 12 50 32.0000000  0 16G19R19R01R09R10R02R18G32R11G11G17G24
                                G28G01G10G15
 121371006.882 7  94574768.26845  23096133.820                    23096133.867
        43.900          30.900
                  86511021.358 6  20793032.625                    20793032.305
                        41.200
                  85079276.171 6  20463216.563                    20463219.918
                        38.200
                  86593191.849 6  20849300.781                    20849301.875
                        41.000
                  80361147.152 6  19382847.125                    19382851.363
                        40.000
                  89110117.766 6  21470397.602                    21470397.922
                        40.800
                  86042255.137 6  20723924.258                    20723925.516
                        41.200
 124663405.668 7  97140365.96744  23722665.938                    23722670.637
        43.800          28.800
                  93456406.393 6  22485971.516                    22485975.098
                        40.900
 118944803.547 7  92684293.51344  22634447.641                    22634451.008
        43.400          29.300
 117571562.887 8  91614181.17246  22373122.219                    22373125.199
        48.700          37.100
 110256807.496 8  85914316.18446  20981148.164                    20981154.270
        51.500          40.900
 121371876.527 7  94575506.99744  23096304.695                    23096307.203
        45.900          29.000
 117845542.914 7  91827623.76145  22425236.828                    22425243.828
        45.500          34.600
 118765866.570 7  92544976.69145  22600434.820                    22600440.945
        45.800          33.600
 125890399.600 7  98096423.40344  23956148.000                    23956152.613
        43.400          24.200
 18  3 15 12 50 33.0000000  0 16G19R19R01R09R10R02R18G32R11G11G17G24
                                G28G01G10G15
 121367981.000 7  94572410.48145  23095558.461                    23095558.402
        46.200          33.400
                  86509377.388 6  20792638.469                    20792637.520
                        41.100
                  85080927.764 6  20463613.922                    20463617.355
                        38.000
                  86596059.048 6  20849991.797                    20849992.090
                        41.000
                  80360714.062 6  19382742.648                    19382746.594
                        39.900
                  89108017.452 6  21469890.828                    21469892.305
                        40.400
                  86044085.961 6  20724365.039                    20724366.141
                        41.200
 124660663.438 7  97138229.16145  23722144.523                    23722148.684
        45.000          30.100
                  93453415.770 6  22485251.867                    22485254.602
                        41.200
 118946337.637 7  92685488.89944  22634739.008                    22634742.578
        42.700          28.300
 117570034.382 8  91612990.12146  22372831.531                    22372834.543
        48.500          36.900
 110256399.843 8  85913998.53446  20981070.813                    20981076.480
        51.500          40.900
 121375087.998 7  94578009.44144  23096915.430                    23096918.574
        45.600          29.700
 117845090.228 7  91827271.02645  22425150.727                    22425157.555
        45.400          34.200
 118767933.153 7  92546586.99645  22600827.813                    22600834.293
        45.900          33.400
 125894421.206 7  98099557.12343  23956912.367                    23956917.754
        43.700          23.500
 18  3 15 12 50 34.0000000  0 16G19R19R01R09R10R02R18G32R11G11G17G24
                                G28G01G10G15
 121364955.513 7  94570052.96245  23094982.875                    23094983.148
        47.200          34.200
                  86507734.006 6  20792242.703                    20792242.543
                        40.800
                  85082580.058 6  20464011.133                    20464014.691
                        38.100
                  86598926.649 6  20850682.141                    20850682.074
                        40.900
                  80360281.603 6  19382638.359                    19382642.160
                        39.900
                  89105917.654 6  21469383.805                    21469386.000
                        40.700
                  86045917.462 6  20724806.055                    20724808.625
                        41.200
 124657921.556 7  97136092.60445  23721623.359                    23721627.125
        45.600          30.600
                  93450425.396 6  22484535.031                    22484534.758
                        41.000
 118947872.408 7  92686684.81344  22635031.273                    22635034.828
        42.200          29.400
 117568506.403 8  91611799.48446  22372540.617                    22372543.586
        48.100          37.500
 110255992.844 8  85913681.39746  20980993.617                    20980998.969
        51.100          40.700
 121378299.782 7  94580512.13545  23097526.664                    23097529.496
        45.700          30.000
 117844638.247 7  91826918.84745  22425064.648                    22425071.344
        45.500          34.600
 118770000.338 7  92548197.76945  22601221.180                    22601227.719
        45.400          33.300
 125898442.964 7  98102690.97043  23957677.703                    23957683.125
        43.200          23.600
 18  3 15 12 50 35.0000000  0 16G19R19R01R09R10R02R18G32R11G11G17G24
                                G28G01G10G15
 121361930.541 7  94567695.83045  23094407.063                    23094407.992
        47.700          34.500
                  86506091.302 6  20791848.141                    20791847.969
                        40.700
                  85084233.118 6  20464408.414                    20464412.441
                        37.800
                  86601794.743 6  20851372.977                    20851373.203
                        41.100
                  80359849.865 6  19382534.727                    19382538.594
                        40.200
                  89103818.468 6  21468877.516                    21468880.137
                        40.200
                  86047749.709 6  20725246.813                    20725249.805
                        41.200
 124655180.132 7  97133956.41045  23721101.398                    23721105.973
        45.800          30.500
                  93447435.218 6  22483813.039                    22483815.781
                        40.500
 118949408.030 6  92687881.38544  22635323.758                    22635327.367
        41.400          29.200
 117566979.043 8  91610609.32346  22372249.836                    22372252.918
        48.000          37.100
 110255586.629 8  85913364.87246  20980916.047                    20980921.992
        51.600          40.700
 121381511.957 7  94583015.12644  23098137.711                    23098140.938
        45.200          28.900
 117844187.076 7  91826567.29845  22424978.516                    22424985.520
        45.300          34.600
 118772068.229 7  92549809.08145  22601614.703                    22601621.219
        45.200          33.300
 125902465.083 7  98105825.10043  23958442.617                    23958448.313
        43.000          22.800
 18  3 15 12 50 36.0000000  0 16G19R19R01R09R10R02R18G32R11G11G17G24
                                G28G01G10G15
 121358905.984 7  94565339.02145  23093831.891                    23093833.141
        47.700          34.500
                  86504449.268 6  20791453.500                    20791453.609
                        40.800
                  85085886.880 6  20464806.031                    20464810.035
                        37.900
                  86604663.254 6  20852064.344                    20852063.352
                        41.100
                  80359418.778 6  19382429.961                    19382433.953
                        40.000
                  89101719.809 6  21468371.906                    21468374.953
                        40.200
                  86049582.634 6  20725689.625                    20725691.238
                        41.200
 124652439.109 7  97131820.52445  23720579.211                    23720584.477
        45.900          30.500
                  93444445.308 6  22483093.750                    22483095.824
                        40.500
 118950944.338 6  92689078.48844  22635617.117                    22635619.684
        41.900          29.300
 117565452.266 8  91609419.61846  22371959.289                    22371962.445
        48.300          37.000
 110255181.069 8  85913048.85446  20980838.813                    20980844.887
        51.900          40.800
 121384724.493 7  94585518.39044  23098749.078                    23098752.375
        45.100          29.400
 117843736.643 7  91826216.30545  22424892.820                    22424899.719
        45.300          34.400
 118774136.803 7  92551420.92645  22602008.469                    22602014.547
        45.200          33.400
 125906487.441 7  98108959.42443  23959208.250                    23959213.414
        42.800          23.000
 18  3 15 12 50 37.0000000  0 16G19R19R01R09R10R02R18G32R11G11G17G24
                                G28G01G10G15
 121355881.849 7  94562982.53945  23093256.172                    23093257.969
        47.100          33.500
                  86502807.823 6  20791059.531                    20791058.438
                        40.600
                  85087541.289 6  20465204.156                    20465208.000
                        37.900
                  86607532.174 6  20852755.984                    20852754.316
                        41.000
                  80358988.339 6  19382326.203                    19382330.160
                        40.000
                  89099621.634 6  21467867.086                    21467868.879
                        40.400
                  86051416.177 6  20726131.883                    20726132.238
                        41.500
 124649698.445 7  97129684.92245  23720057.453                    23720062.848
        45.600          30.200
                  93441455.663 6  22482376.508                    22482377.043
                        40.900
 118952481.401 6  92690276.18045  22635909.563                    22635912.141
        41.100          30.200
 117563926.019 8  91608230.33146  22371668.859                    22371672.238
        48.600          36.800
 110254776.157 8  85912733.34246  20980762.086                    20980767.410
        51.900          40.700
 121387937.322 7  94588021.88244  23099360.414                    23099363.547
        45.400          28.700
 117843286.930 7  91825865.87045  22424807.523                    22424814.645
        44.800          34.500
 118776205.993 7  92553033.27145  22602402.422                    22602408.039
        45.700          33.900
 125910510.037 7  98112093.91043  23959974.219                    23959978.813
        42.600          23.200
 18  3 15 12 50 38.0000000  0 16G19R19R01R09R10R02R18G32R11G11G17G24
                                G28G01G10G15
 121352858.088 7  94560626.35845  23092680.117                    23092682.531
        45.500          32.200
                  86501166.996 6  20790664.414                    20790664.219
                        40.900
                  85089196.368 6  20465601.906                    20465605.508
                        38.100
                  86610401.512 6  20853445.766                    20853445.203
                        41.300
                  80358558.535 6  19382223.195                    19382226.641
                        39.900
                  89097523.953 6  21467362.219                    21467363.691
                        40.900
                  86053250.354 6  20726572.867                    20726574.563
                        41.600
 124646958.127 7  97127549.59944  23719536.250                    23719541.551
        45.000          29.500
                  93438466.088 6  22481655.023                    22481658.059
                        41.200
 118954019.160 6  92691474.41144  22636203.117                    22636204.996
        41.400          29.600
 117562400.325 8  91607041.48046  22371378.398                    22371382.074
        48.800          36.800
 110254371.894 8  85912418.33746  20980685.000                    20980690.773
        51.700          40.900
 121391150.471 7  94590525.63644  23099972.617                    23099974.980
        45.600          29.100
 117842837.912 7  91825515.97845  22424722.563                    22424728.785
        44.900          34.000
 118778275.778 7  92554646.09145  22602796.805                    22602802.945
        45.400          33.200
 125914532.872 7  98115228.58444  23960739.867                    23960744.531
        42.100          24.700
 18  3 15 12 50 39.0000000  0 16G19R19R01R09R10R02R18G32R11G11G17G24
                                G28G01G10G15
 121349834.776 7  94558270.54044  23092103.797                    23092106.926
        44.500          29.700
                  86499526.832 6  20790270.523                    20790269.906
                        40.900
                  85090852.148 6  20466000.180                    20466004.273
                        38.000
                  86613271.311 6  20854136.445                    20854136.734
                        41.400
                  80358129.419 6  19382119.305                    19382123.461
                        40.100
                  89095426.784 6  21466856.516                    21466858.578
                        40.700
                  86055085.223 6  20727014.266                    20727016.438
                        41.200
 124644218.257 7  97125414.63444  23719013.797                    23719020.117
        44.400          28.900
                  93435476.801 6  22480936.617                    22480938.297
                        40.900
 118955557.656 7  92692673.23544  22636496.414                    22636497.910
        42.400          29.500
 117560875.196 8  91605853.06746  22371088.094                    22371091.836
        48.400          36.500
 110253968.360 8  85912103.89146  20980608.352                    20980613.816
        51.000          40.900
 121394363.943 7  94593029.63044  23100584.438                    23100586.613
        45.800          29.300
 117842389.681 7  91825166.70445  22424637.305                    22424643.793
        44.900          34.800
 118780346.240 7  92556259.44645  22603190.133                    22603197.000
        45.500          33.200
 125918555.967 7  98118363.45544  23961505.609                    23961509.945
        42.300          26.400
 18  3 15 12 50 40.0000000  0 16G19R19R01R09R10R02R18G32R11G11G17G24
                                G28G01G10G15
 121346811.848 7  94555915.01344  23091527.320                    23091531.262
        42.500          26.500
                  86497887.272 6  20789875.758                    20789875.984
                        40.900
                  85092508.600 6  20466398.859                    20466402.238
                        38.000
                  86616141.513 6  20854827.250                    20854827.602
                        41.300
                  80357700.946 6  19382016.242                    19382020.465
                        40.400
                  89093330.085 6  21466351.438                    21466353.777
                        40.800
                  86056920.740 6  20727455.086                    20727458.504
                        41.400
 124641478.702 7  97123279.92544  23718492.211                    23718498.430
        43.700          27.500
                  93432487.789 6  22480218.281                    22480218.902
                        40.800
 118957096.854 7  92693872.60844  22636789.297                    22636790.836
        42.600          29.100
 117559350.606 8  91604665.08146  22370797.922                    22370801.613
        48.100          36.300
 110253565.482 8  85911789.95946  20980531.500                    20980536.930
        50.500          41.000
 121397577.765 7  94595533.90744  23101195.523                    23101197.961
        45.500          29.700
 117841942.156 7  91824817.98345  22424551.820                    22424558.484
        44.500          34.400
 118782417.307 7  92557873.26345  22603584.414                    22603590.695
        45.900          33.400
 125922579.286 7  98121498.49044  23962271.969                    23962275.223
        42.900          27.300
 18  3 15 12 50 41.0000000  0 16G19R19R01R09R10R02R18G32R11G11G17G24
                                G28G01G10G15
 121343789.278 6  94553559.76544  23090951.383                    23090955.461
        41.100          26.900
                  86496248.294 6  20789481.922                    20789482.258
                        40.900
                  85094165.654 6  20466797.445                    20466801.023
                        38.300
                  86619012.072 6  20855518.516                    20855518.660
                        41.400
                  80357273.087 6  19381912.977                    19381916.816
                        40.700
                  89091233.884 6  21465845.828                    21465848.598
                        40.600
                  86058756.921 6  20727897.648                    20727900.375
                        41.300
 124638739.487 7  97121145.48544  23717970.305                    23717976.973
        42.900          27.800
                  93429498.836 6  22479496.617                    22479500.441
                        40.700
 118958636.731 7  92695072.51644  22637082.516                    22637083.574
        43.500          29.700
 117557826.526 8  91603477.49246  22370507.531                    22370511.406
        48.400          36.700
 110253163.238 8  85911476.52546  20980454.961                    20980460.832
        51.000          40.900
 121400791.840 7  94598038.38644  23101806.938                    23101809.914
        45.500          29.600
 117841495.296 7  91824469.78445  22424466.523                    22424473.512
        44.700          34.800
 118784488.927 7  92559487.50945  22603978.938                    22603985.016
        45.800          33.400
 125926602.795 7  98124633.69344  23963037.227                    23963041.113
        43.300          27.800
 18  3 15 12 50 42.0000000  0 16G19R19R01R09R10R02R18G32R11G11G17G24
                                G28G01G10G15
 121340767.167 6  94551204.86544  23090377.070                    23090379.180
        41.400          25.300
                  86494609.963 6  20789088.328                    20789088.129
                        40.700
                  85095823.468 6  20467196.508                    20467199.715
                        38.200
                  86621883.123 6  20856208.859                    20856210.059
                        41.100
                  80356845.932 6  19381809.781                    19381813.734
                        40.400
                  89089138.222 6  21465341.008                    21465343.707
                        40.500
                  86060593.786 6  20728340.672                    20728342.816
                        41.000
 124636000.700 7  97119011.38444  23717449.422                    23717456.555
        42.400          27.900
                  93426510.229 6  22478778.719                    22478781.219
                        40.800
 118960177.405 7  92696273.04944  22637375.445                    22637377.238
        43.500          29.200
 117556303.048 8  91602290.37846  22370218.164                    22370221.684
        48.600          37.300
 110252761.694 8  85911163.62946  20980378.719                    20980383.953
        51.200          40.800
 121404006.329 7  94600543.19144  23102418.000                    23102421.391
        44.900          29.900
 117841049.227 7  91824122.19945  22424381.930                    22424388.762
        44.300          34.600
 118786561.242 7  92561102.27945  22604373.469                    22604379.223
        46.300          33.800
 125930626.605 7  98127769.11944  23963803.148                    23963806.922
        43.900          27.400
 18  3 15 12 50 43.0000000  0 16G19R19R01R09R10R02R18G32R11G11G17G24
                                G28G01G10G15
 121337745.517 7  94548850.33344  23089802.734                    23089803.668
        42.600          26.700
                  86492972.303 6  20788695.492                    20788694.391
                        40.600
                  85097481.982 6  20467594.875                    20467597.949
                        38.200
                  86624754.614 6  20856900.578                    20856901.895
                        41.200
                  80356419.439 6  19381707.164                    19381710.898
                        40.400
                  89087043.132 6  21464835.914                    21464839.277
                        40.800
                  86062431.353 6  20728784.875                    20728785.645
                        41.400
 124633262.301 7  97116877.58144  23716929.336                    23716935.285
        43.200          28.200
                  93423521.900 6  22478061.906                    22478062.355
                        41.200
 118961718.790 7  92697474.13844  22637668.383                    22637669.922
        44.300          28.900
 117554780.146 8  91601103.71346  22369928.773                    22369931.879
        48.800          36.700
 110252360.872 8  85910851.29946  20980302.594                    20980308.223
        51.600          40.900
 121407221.127 7  94603048.22644  23103030.227                    23103033.367
        44.600          29.700
 117840603.920 7  91823775.21045  22424297.484                    22424304.000
        44.300          34.100
 118788634.210 7  92562717.56045  22604767.844                    22604773.816
        46.000          33.400
 125934650.692 7  98130904.75044  23964568.602                    23964572.910
        43.700          27.000
 18  3 15 12 50 44.0000000  0 16G19R19R01R09R10R02R18G32R11G11G17G24
                                G28G01G10G15
 121334724.294 7  94546496.11944  23089228.398                    23089228.578
        43.900          28.700
                  86491335.275 6  20788301.555                    20788300.484
                        40.900
                  85099141.153 6  20467994.180                    20467997.090
                        37.900
                  86627626.515 6  20857593.258                    20857593.223
                        41.200
                  80355993.583 6  19381604.023                    19381607.883
                        40.200
                  89084948.541 6  21464331.734                    21464334.215
                        40.800
                  86064269.553 6  20729228.461                    20729228.563
                        41.200
 124630524.311 7  97114744.09144  23716408.516                    23716414.039
        43.500          29.000
                  93420533.661 6  22477339.672                    22477342.973
                        41.400
 118963260.907 7  92698675.78644  22637962.164                    22637963.602
        44.800          28.800
 117553257.787 8  91599917.46546  22369639.219                    22369641.902
        48.900          36.800
 110251960.699 8  85910539.47546  20980226.250                    20980231.777
        51.700          40.800
 121410436.271 7  94605553.53044  23103641.938                    23103644.727
        45.100          29.600
 117840159.369 7  91823428.80945  22424212.492                    22424219.203
        43.700          34.500
 118790707.805 7  92564333.33845  22605162.023                    22605168.313
        46.000          33.700
 125938675.003 7  98134040.57544  23965334.602                    23965339.203
        44.100          27.700
 18  3 15 12 50 45.0000000  0 16G19R19R01R09R10R02R18G32R11G11G17G24
                                G28G01G10G15
 121331703.536 7  94544142.26845  23088653.688                    23088653.820
        44.900          31.800
                  86489698.882 6  20787907.992                    20787907.844
                        41.100
                  85100801.031 6  20468392.898                    20468396.609
                        38.500
                  86630498.810 6  20858285.313                    20858284.625
                        41.200
                  80355568.389 6  19381502.141                    19381505.148
                        40.200
                  89082854.466 6  21463827.859                    21463829.285
                        40.800
                  86066108.415 6  20729670.031                    20729671.684
                        40.700
 124627786.690 7  97112610.88844  23715887.688                    23715893.352
        44.300          29.500
                  93417545.716 6  22476621.727                    22476623.867
                        41.300
 118964803.757 7  92699877.99544  22638255.750                    22638256.965
        45.700          28.900
 117551736.015 8  91598731.66546  22369348.992                    22369352.359
        48.400          36.400
 110251561.242 8  85910228.21046  20980150.305                    20980155.453
        51.200          41.100
 121413651.742 7  94608059.08444  23104254.078                    23104256.641
        45.400          29.300
 117839715.536 7  91823082.96645  22424128.141                    22424134.703
        43.900          33.600
 118792782.050 7  92565949.63345  22605556.820                    22605563.020
        46.000          34.000
 125942699.535 7  98137176.57544  23966100.047                    23966104.688
        43.700          26.800
 18  3 15 12 50 46.0000000  0 16G19R19R01R09R10R02R18G32R11G11G17G24
                                G28G01G10G15
 121328683.160 7  94541788.71845  23088078.930                    23088079.453
        45.700          32.700
                  86488063.047 6  20787514.469                    20787514.645
                        41.200
                  85102461.535 6  20468792.883                    20468796.496
                        38.200
                  86633371.530 6  20858976.102                    20858976.445
                        40.900
                  80355143.813 6  19381399.492                    19381403.254
                        40.200
                  89080760.850 6  21463322.281                    21463325.012
                        40.900
                  86067947.927 6  20730111.883                    20730114.625
                        40.600
 124625049.401 7  97110477.93444  23715367.031                    23715372.629
        44.500          28.800
                  93414557.958 6  22475903.813                    22475905.652
                        41.500
 118966347.287 7  92701080.73844  22638548.805                    22638550.813
        45.900          28.300
 117550214.736 8  91597546.24646  22369059.758                    22369062.961
        48.300          36.200
 110251162.395 8  85909917.42246  20980074.070                    20980079.941
        50.900          40.900
 121416867.509 7  94610564.87144  23104866.281                    23104868.813
        45.800          29.600
 117839272.410 7  91822737.68445  22424044.328                    22424050.570
        43.300          34.100
 118794856.846 7  92567566.35445  22605951.563                    22605957.730
        46.100          33.600
 125946724.308 7  98140312.76644  23966865.883                    23966870.578
        43.900          26.400
 18  3 15 12 50 47.0000000  0 16G19R19R01R09R10R02R18G32R11G11G17G24
                                G28G01G10G15
 121325663.234 7  94539435.52645  23087504.844                    23087505.434
        46.200          34.000
                  86486427.860 6  20787121.469                    20787121.508
                        41.100
                  85104122.718 6  20469192.305                    20469195.293
                        38.200
                  86636244.683 6  20859668.422                    20859668.270
                        41.000
                  80354719.892 6  19381296.727                    19381300.660
                        40.300
                  89078667.750 6  21462817.977                    21462820.434
                        40.800
                  86069788.115 6  20730554.273                    20730557.535
                        40.900
 124622312.533 7  97108345.30044  23714845.891                    23714851.531
        45.300          28.600
                  93411570.378 6  22475183.297                    22475186.641
                        41.200
 118967891.592 7  92702284.09144  22638842.039                    22638844.996
        45.700          29.800
 117548694.024 8  91596361.27145  22368770.156                    22368773.555
        48.100          35.900
 110250764.219 8  85909607.15546  20979998.352                    20980004.117
        50.700          40.700
 121420083.603 7  94613070.91744  23105478.195                    23105480.910
        45.700          29.200
 117838829.993 7  91822392.95145  22423959.781                    22423966.168
        42.600          33.900
 118796932.325 7  92569183.59745  22606346.664                    22606352.637
        45.400          33.200
 125950749.329 7  98143449.14844  23967631.094                    23967636.246
        43.700          25.000
 18  3 15 12 50 48.0000000  0 16G19R19R01R09R10R02R18G32R11G11G17G24
                                G28G01G10G15
 121322643.681 7  94537082.63145  23086929.992                    23086931.316
        46.300          34.500
                  86484793.293 6  20786729.078                    20786728.742
                        41.300
                  85105784.569 6  20469592.086                    20469595.539
                        38.300
                  86639118.237 6  20860360.180                    20860359.766
                        40.900
                  80354296.622 6  19381194.922                    19381198.719
                        40.200
                  89076575.149 6  21462313.773                    21462316.504
                        40.700
                  86071628.990 6  20730998.813                    20731000.809
                        41.400
 124619576.056 7  97106212.96944  23714325.563                    23714330.719
        45.600          28.100
                  93408583.069 6  22474466.898                    22474467.832
                        40.800
 118969436.567 7  92703487.96644  22639136.281                    22639139.219
        45.500          29.500
 117547173.861 8  91595176.72146  22368480.727                    22368484.336
        48.100          36.200
 110250366.713 8  85909297.40346  20979922.664                    20979928.453
        50.800          40.800
 121423300.021 7  94615577.22144  23106089.938                    23106092.918
        45.300          29.300
 117838388.323 7  91822048.80345  22423876.461                    22423882.469
        42.500          33.900
 118799008.423 7  92570801.33545  22606741.938                    22606747.824
        46.000          33.600
 125954774.606 7  98146585.72944  23968397.461                    23968402.309
        43.400          25.200
 18  3 15 12 50 49.0000000  0 16G19R19R01R09R10R02R18G32R11G11G17G24
                                G28G01G10G15
 121319624.578 7  94534730.09645  23086354.844                    23086357.641
        46.000          34.600
                  86483159.357 6  20786336.344                    20786336.188
                        41.400
                  85107447.093 6  20469992.023                    20469995.563
                        38.600
                  86641992.217 6  20861051.602                    20861051.277
                        40.900
                  80353874.026 6  19381092.695                    19381097.039
                        40.100
                  89074483.084 6  21461809.469                    21461811.691
                        40.600
                  86073470.490 6  20731442.867                    20731443.895
                        41.300
 124616839.921 7  97104080.92044  23713804.992                    23713809.910
        45.100          29.300
                  93405595.921 6  22473747.133                    22473749.395
                        40.900
 118970982.280 7  92704692.41344  22639430.297                    22639433.230
        45.800          29.200
 117545654.235 8  91593992.60246  22368191.609                    22368194.777
        48.200          36.500
 110249969.870 8  85908988.18046  20979847.125                    20979852.797
        51.000          41.000
 121426516.757 7  94618083.77144  23106702.070                    23106705.203
        45.200          29.300
 117837947.399 7  91821705.22445  22423792.195                    22423798.445
        42.700          34.600
 118801085.171 7  92572419.58345  22607136.945                    22607142.883
        46.200          34.300
 125958800.099 7  98149722.47943  23969163.406                    23969168.277
        42.800          23.300
 18  3 15 12 50 50.0000000  0 16G19R19R01R09R10R02R18G32R11G11G17G24
                                G28G01G10G15
 121316605.906 7  94532377.90145  23085780.570                    23085784.102
        45.600          34.400
                  86481526.063 6  20785943.367                    20785943.922
                        41.000
                  85109110.301 6  20470392.109                    20470395.523
                        38.300
                  86644866.657 6  20861742.984                    20861743.855
                        40.900
                  80353452.098 6  19380991.086                    19380995.055
                        39.600
                  89072391.548 6  21461306.578                    21461308.254
                        40.700
                  86075312.639 6  20731887.539                    20731888.094
                        41.000
 124614104.192 7  97101949.18144  23713283.961                    23713289.313
        45.100          28.200
                  93402609.023 6  22473027.508                    22473029.906
                        41.200
 118972528.761 7  92705897.44945  22639724.422                    22639727.508
        46.000          30.000
 117544135.212 8  91592808.95446  22367902.328                    22367905.766
        48.600          36.100
 110249573.720 8  85908679.48546  20979772.039                    20979777.773
        51.300          40.900
 121429733.840 7  94620590.58744  23107313.977                    23107317.398
        44.600          28.900
 117837507.190 7  91821362.20845  22423708.711                    22423714.449
        42.400          35.100
 118803162.603 7  92574038.37945  22607532.242                    22607538.367
        46.200          34.600
 125962825.897 7  98152859.46944  23969929.141                    23969933.875
        42.100          25.300
 18  3 15 12 50 51.0000000  0 16G19R19R01R09R10R02R18G32R11G11G17G24
                                G28G01G10G15
 121313587.664 7  94530026.03945  23085206.281                    23085210.043
        44.500          33.400
                  86479893.380 6  20785551.195                    20785550.914
                        41.100
                  85110774.210 6  20470792.188                    20470795.844
                        38.100
                  86647741.501 6  20862434.336                    20862435.793
                        41.000
                  80353030.830 6  19380889.750                    19380893.246
                        39.700
                  89070300.525 6  21460803.219                    21460804.480
                        40.600
                  86077155.473 6  20732331.211                    20732332.258
                        41.200
 124611368.837 7  97099817.72144  23712763.188                    23712769.410
        45.000          28.900
                  93399622.379 6  22472310.383                    22472311.934
                        41.400
 118974075.999 7  92707103.08844  22640018.797                    22640022.574
        45.700          29.600
 117542616.723 8  91591625.71946  22367613.641                    22367617.199
        48.800          36.300
 110249178.248 8  85908371.32746  20979696.828                    20979702.223
        51.800          41.100
 121432951.261 7  94623097.66544  23107926.281                    23107929.352
        44.600          28.900
 117837067.742 7  91821019.78045  22423625.195                    22423631.238
        42.800          34.700
 118805240.601 7  92575657.63045  22607927.453                    22607934.242
        45.700          33.500
 125966851.896 6  98155996.60544  23970695.547                    23970700.117
        41.800          25.400
