     2.11           OBSERVATION DATA    M (MIXED)           RINEX VERSION / TYPE
teqc  2018Mar15                         20180319 14:17:33UTCPGM / RUN BY / DATE
Linux 2.6.32-573.12.1.x86_64|x86_64|gcc -static|Linux 64|=+ COMMENT
END OF STATIC MODE OBSERVATION                              COMMENT
BIT 2 OF LLI FLAGS DATA COLLECTED UNDER A/S CONDITION       COMMENT
-Unknown-                                                   MARKER NAME
4625                                                        MARKER NUMBER
-Unknown-           -Unknown-                               OBSERVER / AGENCY
5127468778          TRIMBLE             4.63                REC # / TYPE / VERS
47477114                            NONE                    ANT # / TYPE
  6378137.0000        0.0000        0.0000                  APPROX POSITION XYZ
        0.0000        0.0000        0.0000                  ANTENNA: DELTA H/E/N
     1     1                                                WAVELENGTH FACT L1/2
     7    L1    L2    C1    P1    P2    S1    S2            # / TYPES OF OBSERV
    18                                                      LEAP SECONDS
 SNR is mapped to RINEX snr flag value [0-9]                COMMENT
  L1 & L2: min(max(int(snr_dBHz/6), 0), 9)                  COMMENT
  2018     3    15    11    21   35.0000000     GPS         TIME OF FIRST OBS
                                                            END OF HEADER
 18  3 15 11 21 35.0000000  0 14R09R10R01G24R16R17R18G08G11G30G28G10
                                G15G13
                  80839015.499 7  19463851.875                    19463851.926
                        42.500
                                  22226473.422

                  88067769.222 5  21182008.766                    21182011.859
                        31.600
 122787669.219 5                  23365718.430
        32.600
                  88117669.300 5  21208904.859                    21208906.547
                        33.300
                  86268707.233 6  20727475.805                    20727478.086
                        37.900
                  88249480.473 6  21255560.313                    21255562.090
                        37.300
 120912750.429 6  94217742.95642  23008931.820                    23008938.305
        36.600          16.300
 123404914.233 6                  23483174.625
        36.600
 124990182.774 5                  23784832.438
        34.600
 112690143.699 7  87810513.92844  21444222.141                    21444224.238
        46.300          29.400
 119626926.266 6  93215801.56743  22764245.266                    22764252.219
        36.400          21.100
 112449529.022 8  87622990.61645  21398434.422                    21398437.859
        52.600          35.800
 115021764.289 8  89627351.50945  21887914.133                    21887916.363
        48.800          30.800
 18  3 15 11 21 36.0000000  0 14R09R10R01G24R16R17R18G08G11G30G28G10
                                G15G13
                  80838694.030 7  19463774.523                    19463773.770
                        42.400
                  92147812.06614  22225750.531                    22225751.148
                        26.800
                  88065752.975 5  21181522.828                    21181526.578
                        32.500
 122784498.646 5                  23365114.867
        33.700
                  88120738.243 5  21209643.602                    21209644.871
                        33.700
                  86269926.014 6  20727768.531                    20727770.527
                        38.100
                  88247520.724 6  21255088.469                    21255090.566
                        37.400
 120915294.183 6  94219725.08742  23009416.344                    23009422.375
        36.400          15.600
 123402662.018 6                  23482745.930
        36.600
 124994135.692 5                  23785585.195
        34.600
 112690708.771 7  87810954.23944  21444329.328                    21444332.141
        46.500          28.900
 119625340.938 6  93214566.28943  22763944.828                    22763950.250
        37.700          20.600
 112450916.503 8  87624071.78145  21398698.156                    21398701.414
        52.700          35.300
 115024703.160 8  89629641.52345  21888473.281                    21888475.602
        49.100          30.600
 18  3 15 11 21 37.0000000  0 14R09R10R01G24R16R17R18G08G11G30G28G10
                                G15G13
                  80838373.279 7  19463697.180                    19463697.258
                        42.300
                  92144811.94814  22225028.742                    22225027.832
                        27.500
                  88063737.332 5  21181038.398                    21181041.688
                        33.200
 122781328.427 5                  23364511.781
        33.300
                  88123807.591 5  21210382.023                    21210384.082
                        33.500
                  86271145.569 6  20728061.547                    20728063.953
                        37.900
                  88245561.607 6  21254616.938                    21254618.836
                        37.300
 120917838.647 6  94221707.76542  23009899.711                    23009906.195
        36.700          15.600
 123400410.369 6                  23482318.117
        36.800
 124998088.887 5                  23786337.063
        34.800
 112691274.498 7  87811395.07244  21444436.992                    21444439.258
        46.500          29.800
 119623756.320 6  93213331.57043  22763644.180                    22763648.809
        39.900          21.100
 112452304.728 8  87625153.51345  21398962.125                    21398965.766
        52.500          35.400
 115027642.624 8  89631932.01245  21889032.555                    21889035.082
        49.500          30.800
 18  3 15 11 21 38.0000000  0 13R09R01G24R16R17R18G08G11G30G28G10G15
                                G13
                  80838053.169 7  19463620.336                    19463620.313
                        42.300
                  88061722.224 5  21180553.172                    21180557.453
                        33.200
 122778158.419 5                  23363908.578
        33.100
                  88126877.313 5  21211121.203                    21211122.953
                        33.300
                  86272365.855 6  20728355.695                    20728357.172
                        37.900
                  88243603.057 6  21254144.375                    21254146.844
                        37.800
 120920383.674 6  94223690.92342  23010384.258                    23010390.762
        37.200          15.600
 123398159.282 6                  23481889.414
        36.400
 125002042.309 5                  23787088.836
        34.800
 112691840.844 7  87811836.38345  21444544.734                    21444547.277
        47.100          30.000
 119622172.317 6  93212097.32243  22763343.063                    22763347.578
        41.800          20.900
 112453693.610 8  87626235.75245  21399226.516                    21399229.969
        52.200          35.400
 115030582.618 8  89634222.93644  21889591.328                    21889594.551
        48.800          29.200
 18  3 15 11 21 39.0000000  0 13R09R01G24R16R17R18G08G11G30G28G10G15
                                G13
                  80837733.741 7  19463543.211                    19463543.109
                        42.400
                  88059707.653 5  21180069.125                    21180072.297
                        33.100
 122774988.805 5                  23363305.742
        32.500
                  88129947.412 5  21211861.141                    21211862.082
                        33.700
                  86273586.856 6  20728648.289                    20728650.410
                        38.000
                  88241645.066 6  21253673.844                    21253675.820
                        37.200
 120922929.181 6  94225674.46342  23010868.586                    23010874.863
        36.800          16.300
 123395908.726 5                  23481460.477
        35.800
 125005995.953 5                  23787841.500
        34.400
 112692407.793 7  87812278.16345  21444653.313                    21444655.258
        46.800          30.000
 119620588.916 7  93210863.49243  22763041.578                    22763046.074
        42.000          21.100
 112455083.199 8  87627318.54245  21399490.930                    21399494.660
        51.800          35.500
 115033523.146 8  89636514.26645  21890150.367                    21890154.082
        48.400          31.300
 18  3 15 11 21 40.0000000  0 13R09R01G24R16R17R18G08G11G30G28G10G15
                                G13
                  80837414.950 7  19463466.398                    19463466.633
                        42.400
                  88057693.597 5  21179585.141                    21179588.266
                        33.300
 122771819.414 5                  23362702.047
        34.100
                  88133017.882 5  21212599.344                    21212601.031
                        33.100
                  86274808.580 6  20728942.734                    20728943.625
                        38.600
                  88239687.647 6  21253201.844                    21253204.316
                        37.300
 120925475.312 6  94227658.46342  23011353.039                    23011359.738
        37.500          16.300
 123393658.727 6                  23481032.891
        36.400
 125009949.896 5                  23788594.453
        34.400
 112692975.322 7  87812720.39045  21444760.586                    21444763.215
        46.700          30.200
 119619006.096 6  93209630.09043  22762739.969                    22762745.016
        41.600          21.500
 112456473.460 8  87628401.85445  21399755.719                    21399758.773
        51.900          35.200
 115036464.220 7  89638806.01345  21890709.531                    21890713.820
        47.600          30.500
 18  3 15 11 21 41.0000000  0 13R09R01G24R16R17R18G08G11G30G28G10G15
                                G13
                  80837096.827 7  19463389.320                    19463389.711
                        42.300
                  88055680.054 5  21179100.039                    21179103.871
                        33.800
 122768650.333 5                  23362098.773
        35.300
                  88136088.746 5  21213339.531                    21213340.254
                        32.300
                  86276031.042 6  20729236.391                    20729237.520
                        38.700
                  88237730.760 6  21252731.047                    21252732.719
                        36.700
 120928021.970 6  94229642.85542  23011837.656                    23011844.016
        37.200          16.900
 123391409.276 5                  23480604.688
        35.900
 125013903.966 5                  23789346.477
        35.200
 112693543.483 7  87813163.11445  21444868.789                    21444871.441
        47.200          30.300
 119617423.908 6  93208397.18143  22762437.938                    22762443.840
        39.200          21.100
 112457864.397 8  87629485.69445  21400020.445                    21400023.590
        52.300          35.500
 115039405.847 7  89641098.18844  21891269.734                    21891273.230
        47.800          29.600
 18  3 15 11 21 42.0000000  0 14R09R10R01G24R16R17R18G08G11G30G28G10
                                G15G13
                  80836779.354 7  19463313.906                    19463313.730
                        42.900
                  92129815.43714  22221409.031                    22221410.906
                        26.600
                  88053667.025 5  21178614.695                    21178619.520
                        33.400
 122765481.528 5                  23361495.461
        34.800
                  88139160.082 5  21214077.633                    21214079.477
                        32.900
                  86277254.219 6  20729530.109                    20729531.238
                        38.700
                  88235774.602 6  21252259.531                    21252261.484
                        37.100
 120930569.176 6  94231627.69042  23012322.133                    23012329.094
        37.400          16.300
 123389160.351 6                  23480176.523
        36.200
 125017858.420 5                  23790098.227
        32.600
 112694112.198 7  87813606.27144  21444977.297                    21444979.500
        46.100          28.300
 119615842.228 5  93207164.67443  22762136.031                    22762143.344
        35.400          20.100
 112459256.006 8  87630570.06345  21400285.289                    21400288.535
        52.000          35.600
 115042347.981 8  89643390.75345  21891830.570                    21891833.133
        48.500          30.500
 18  3 15 11 21 43.0000000  0 14R09R10R01G24R16R17R18G08G11G30G28G10
                                G15G13
                  80836462.512 7  19463237.695                    19463237.055
                        42.800
                                  22220686.336

                  88051654.570 5  21178132.281                    21178135.172
                        34.500
 122762313.035 6                  23360892.758
        36.200
                  88142231.682 5  21214817.328                    21214819.109
                        32.900
                  86278478.073 6  20729823.797                    20729824.988
                        38.300
                  88233818.867 6  21251788.852                    21251789.957
                        37.400
 120933116.933 6  94233612.93642  23012807.250                    23012814.020
        36.600          16.300
 123386911.909 6                  23479748.953
        36.900
 125021813.040 5                  23790852.555
        31.900
 112694681.510 7  87814049.89344  21445085.719                    21445088.023
        46.100          29.100
 119614261.133 5  93205932.68543  22761835.281                    22761842.680
        35.600          19.900
 112460648.270 8  87631654.94746  21400550.297                    21400553.719
        52.000          36.100
 115045290.605 8  89645683.69445  21892390.680                    21892393.211
        49.600          32.300
 18  3 15 11 21 44.0000000  0 13R09R01G24R16R17R18G08G11G30G28G10G15
                                G13
                  80836146.394 7  19463160.883                    19463161.309
                        42.300
                  88049642.660 5  21177647.867                    21177651.914
                        34.700
 122759144.778 5                  23360288.266
        32.400
                  88145303.696 5  21215556.609                    21215558.406
                        33.500
                  86279702.680 6  20730118.609                    20730119.410
                        38.700
                  88231863.736 6  21251317.367                    21251319.211
                        37.000
 120935665.301 6  94235598.69642  23013292.617                    23013298.273
        36.700          15.600
 123384664.101 6                  23479321.484
        36.000
 125025768.34915                  23791605.453
        30.700
 112695251.477 7  87814494.02044  21445193.563                    21445196.043
        45.700          28.900
 119612680.703 6  93204701.24843  22761535.188                    22761540.906
        37.600          20.100
 112462041.279 8  87632740.42045  21400815.039                    21400818.797
        51.700          35.000
 115048233.804 8  89647977.08345  21892950.828                    21892953.211
        50.700          32.600
 18  3 15 11 21 45.0000000  0 13R09R01G24R16R17R18G08G11G30G28G10G15
                                G13
                  80835830.925 7  19463084.969                    19463084.793
                        42.400
                  88047631.248 5  21177164.422                    21177168.586
                        35.100
 122755977.032 5                  23359686.125
        31.200
                  88148376.106 5  21216296.703                    21216297.652
                        33.000
                  86280928.003 6  20730413.602                    20730413.641
                        38.500
                  88229909.210 6  21250845.273                    21250848.648
                        37.900
 120938214.291 6  94237584.87542  23013777.031                    23013783.996
        37.600          14.800
 123382416.814 5                  23478893.922
        35.900
 125029723.073 5                  23792357.188
        32.400
 112695822.016 7  87814938.60044  21445301.977                    21445304.844
        46.300          27.300
 119611100.876 6  93203470.29743  22761235.648                    22761240.488
        39.700          20.600
 112463434.953 8  87633826.40645  21401080.461                    21401084.160
        52.000          35.500
 115051177.510 8  89650270.87745  21893510.320                    21893513.305
        50.900          31.700
 18  3 15 11 21 46.0000000  0 12R09R01G24R16R17R18G08G11G28G10G15G13
                  80835516.118 6  19463008.922                    19463009.496
                        40.400
                  88045620.350 5  21176681.109                    21176684.453
                        34.000
 122752809.35815                  23359083.344
        32.800
                  88151448.852 5  21217036.992                    21217036.094
                        32.000
                  86282154.055 6  20730708.148                    20730709.023
                        38.000
                  88227955.205 6  21250374.750                    21250378.043
                        36.300
 120940763.801 6  94239571.47042  23014261.797                    23014269.086
        37.100          14.800
 123380170.113 5                  23478466.492
        34.600
 112696393.100 8  87815383.58446  21445411.070                    21445413.719
        51.200          37.500
 119609521.594 6  93202239.72543  22760935.797                    22760939.898
        39.900          21.700
 112464829.271 8  87634912.89145  21401345.555                    21401349.355
        52.200          34.700
 115054121.475 6  89652564.88643  21894070.930                    21894073.918
        41.100          21.800
 18  3 15 11 21 47.0000000  0 12R09R01G24R16R17R18G08G11G30G28G10G15
                  80835201.945 6  19462933.609                    19462933.824
                        39.700
                  88043610.004 5  21176197.797                    21176201.133
                        33.800
 122749642.191 5                  23358481.180
        35.400
                  88154522.001 5  21217776.477                    21217777.188
                        30.900
                  86283380.867 6  20731002.109                    20731003.504
                        38.100
                  88226001.892 6  21249905.789                    21249907.098
                        36.200
 120943313.877 6  94241558.56242  23014747.164                    23014754.344
        36.500          14.800
 123377923.827 5                  23478037.742
        34.000
 125037633.79315                  23793862.359
        35.200
 112696964.860 8  87815829.10345  21445519.852                    21445522.219
        49.800          34.500
 119607942.978 6  93201009.60443  22760635.758                    22760639.516
        41.700          21.700
 112466224.294 8  87635999.92345  21401610.969                    21401614.531
        51.500          33.500
 18  3 15 11 21 48.0000000  0 13R09R01G24R16R17R18G08G11G30G28G10G15
                                G13
                  80834888.479 6  19462857.797                    19462858.309
                        39.800
                  88041600.224 5  21175713.813                    21175717.652
                        34.200
 122746475.227 5                  23357879.430
        34.800
                  88157595.527 5  21218514.445                    21218516.457
                        31.200
                  86284608.373 6  20731297.063                    20731298.348
                        38.100
                  88224049.064 6  21249435.156                    21249437.488
                        36.300
 120945864.506 6  94243546.08742  23015233.266                    23015239.945
        36.900          15.600
 123375678.102 5                  23477610.117
        32.600
 125041589.617 5                  23794614.703
        35.100
 112697537.204 8  87816275.08445  21445628.688                    21445631.418
        50.500          35.000
 119606364.960 6  93199779.93943  22760334.367                    22760339.379
        41.700          21.300
 112467620.037 8  87637087.49445  21401876.656                    21401880.004
        51.200          32.500
 115060012.55615                  21895189.289
        35.400
 18  3 15 11 21 49.0000000  0 14R09R10R01G24R16R17R18G08G11G30G28G10
                                G15G13
                  80834575.735 6  19462782.320                    19462782.844
                        39.500
                  92108830.69314  22216347.719                    22216349.484
                        24.900
                  88039590.979 5  21175230.852                    21175234.668
                        32.400
 122743308.669 5                  23357276.664
        35.800
                  88160669.510 5  21219254.664                    21219256.309
                        30.300
                  86285836.668 6  20731592.125                    20731593.965
                        36.100
                  88222096.885 5  21248965.320                    21248967.168
                        35.600
 120948415.751 6  94245534.07642  23015718.625                    23015725.496
        36.400          15.600
 123373432.947 6                  23477183.617
        36.400
 125045545.70215                  23795367.156
        35.000
 112698110.194 8  87816721.58045  21445738.117                    21445740.324
        49.800          33.600
 119604787.552 6  93198550.77143  22760032.781                    22760039.078
        41.700          21.500
 112469016.467 8  87638175.61245  21402142.328                    21402145.668
        52.100          34.800
 115062957.991 6                  21895751.711
        38.600
 18  3 15 11 21 50.0000000  0 14R09R10R01G24R16R17R18G08G11G30G28G10
                                G15G13
                  80834263.625 6  19462707.898                    19462707.465
                        39.300
                  92105834.079 4  22215625.289                    22215626.672
                        28.100
                  88037582.332 5  21174746.898                    21174751.621
                        32.200
 122740142.392 5                  23356673.570
        31.600
                  88163743.893 5  21219995.805                    21219996.582
                        31.300
                  86287065.686 5  20731888.273                    20731888.902
                        35.800
                  88220145.234 5  21248494.602                    21248496.949
                        35.800
 120950967.598 6  94247522.52442  23016204.117                    23016211.117
        38.300          15.600
 123371188.425 5                  23476757.086
        35.800
 125049502.071 5                  23796120.852
        33.500
 112698683.849 8  87817168.58945  21445847.055                    21445849.531
        50.700          35.100
 119603210.775 6  93197322.08243  22759732.344                    22759739.152
        40.200          21.300
 112470413.670 8  87639264.33245  21402408.211                    21402411.613
        52.400          35.800
 115065904.499 5                  21896312.633
        32.200
 18  3 15 11 21 51.0000000  0 13R09R01G24R16R17R18G08G11G30G28G10G15
                                G13
                  80833952.188 6  19462632.805                    19462632.430
                        37.900
                  88035574.258 5  21174264.992                    21174268.699
                        31.500
 122736976.426 5                  23356071.438
        35.100
                  88166818.636 4  21220735.844                    21220736.137
                        29.200
                  86288295.530 5  20732182.867                    20732184.594
                        35.800
                  88218194.231 5  21248025.484                    21248026.629
                        35.600
 120953520.078 6  94249511.49542  23016690.398                    23016696.969
        38.800          16.300
 123368944.439 5                  23476330.617
        35.200
 125053458.804 5                  23796873.711
        35.500
 112699258.143 8  87817616.07646  21445956.219                    21445958.754
        52.300          36.700
 119601634.604 6  93196093.91143  22759432.977                    22759438.977
        40.100          21.500
 112471811.508 8  87640353.58245  21402674.094                    21402677.586
        51.200          31.000
 115068851.164 7                  21896874.266
        43.500
 18  3 15 11 21 52.0000000  0 13R09R01G24R16R17R18G08G11G30G28G10G15
                                G13
                  80833641.420 6  19462558.008                    19462557.398
                        36.300
                  88033566.698 4  21173781.867                    21173785.898
                        29.600
 122733810.776 5                  23355469.211
        34.800
                  88169893.765 4  21221475.750                    21221476.090
                        26.500
                  86289526.017 5  20732478.633                    20732480.293
                        35.600
                  88216243.809 5  21247556.047                    21247557.410
                        32.900
 120956073.013 6  94251500.83942  23017176.117                    23017182.930
        37.200          16.900
 123366701.101 6                  23475903.664
        37.200
 125057415.590 6                  23797625.969
        36.500
 112699832.968 8  87818063.97445  21446065.656                    21446068.043
        52.300          35.200
 119600059.050 6  93194866.20343  22759134.320                    22759139.527
        39.500          21.100
 112473210.053 8  87641443.37745  21402940.789                    21402943.551
        50.900          30.400
 115071798.96314                  21897434.438
        29.600
 18  3 15 11 21 53.0000000  0 13R09R01G24R16R17R18G08G11G30G28G10G15
                                G13
                  80833331.506 5  19462483.883                    19462483.379
                        32.600
                  88031559.703 4  21173297.688                    21173303.031
                        29.000
 122730645.34815                  23354865.672
        31.300
                                  21222215.109

                  86290757.217 5  20732774.234                    20732775.598
                        32.100
                  88214294.035 5  21247086.547                    21247087.488
                        32.400
 120958626.698 6  94253490.72742  23017661.672                    23017668.039
        37.300          16.900
 123364458.117 6                  23475476.391
        36.200
 125061372.758 6                  23798378.945
        36.900
 112700408.366 7  87818512.32544  21446175.352                    21446177.555
        47.000          25.000
 119598483.954 7  93193638.87643  22758833.859                    22758838.867
        42.000          20.600
 112474609.290 8  87642533.69144  21403207.430                    21403210.102
        49.900          27.000
 115074747.70817                  21897997.156
        44.600
 18  3 15 11 21 54.0000000  0 12R09R01G24R17R18G08G11G30G28G10G15G13
                  80833022.050 5  19462408.453                    19462408.133
                        34.800
                  88029553.083 5  21172816.070                    21172819.477
                        31.000
 122727480.43315                  23354263.273
        32.500
                  86291989.186 6  20733069.977                    20733072.430
                        38.300
                  88212344.755 6  21246616.469                    21246618.074
                        36.200
 120961180.985 5  94255481.02342  23018147.547                    23018154.461
        33.700          15.600
 123362215.863 5                  23475049.852
        34.700
 125065330.092 5                  23799132.969
        32.200
 112700984.455 7  87818961.22644  21446284.508                    21446287.191
        45.400          24.000
 119596909.725 6  93192412.21743  22758534.313                    22758539.766
        39.700          22.300
 112476009.221 7  87643624.54244  21403474.305                    21403476.332
        46.700          29.600
 115077696.31218                  21898557.445
        48.000
 18  3 15 11 21 55.0000000  0 12R09R10R01R17R18G08G11G30G28G10G15G13
                  80832713.278 5  19462333.984                    19462334.148
                        33.600
                                  22212010.164

                  88027547.037 5  21172333.906                    21172337.434
                        34.100
                  86293221.929 5  20733367.102                    20733368.246
                        33.700
                  88210396.024 6  21246147.391                    21246148.637
                        37.100
 120963735.597 5  94257471.58942  23018633.273                    23018640.676
        31.900          16.300
 123359974.068 6                  23474623.031
        36.200
 125069287.686 5                  23799885.523
        35.800
 112701561.142 7  87819410.59044  21446394.625                    21446397.074
        46.200          29.200
 119595336.021 6  93191185.92544  22758234.773                    22758240.766
        38.100          24.400
 112477409.867 7  87644715.93945  21403739.477                    21403742.867
        47.200          32.100
 115080645.418 7                  21899118.367
        43.800
 18  3 15 11 21 56.0000000  0 12R09R10R01R17R18G08G11G30G28G10G15G13
                  80832405.180 5  19462260.164                    19462260.156
                        34.000
                                  22211288.648

                  88025541.615 5  21171851.016                    21171854.957
                        35.600
                  86294455.350 5  20733663.594                    20733664.418
                        34.900
                  88208447.994 6  21245678.609                    21245679.469
                        36.900
 120966290.980 5  94259462.81742  23019118.625                    23019127.199
        33.800          16.300
 123357732.802 6                  23474196.328
        37.100
 125073245.487 5                  23800638.078
        34.200
 112702138.438 7  87819860.43144  21446504.742                    21446507.156
        46.100          28.300
 119593762.850 6  93189960.02644  22757936.313                    22757941.359
        40.500          24.600
 112478811.191 7  87645807.84045  21404006.508                    21404009.762
        47.500          33.000
 115083595.129 7                  21899678.773
        43.900
 18  3 15 11 21 57.0000000  0 13R09R10R01R16R17R18G08G11G30G28G10G15
                                G13
                  80832097.822 6  19462186.109                    19462185.797
                        37.200
                                  22210564.852

                  88023536.745 4  21171368.953                    21171373.121
                        29.700
                  88185275.34514  21225177.016                    21225178.648
                        29.900
                  86295689.531 6  20733959.469                    20733960.328
                        36.200
                  88206500.518 5  21245208.469                    21245210.262
                        35.400
 120968846.827 5  94261454.30642  23019606.555                    23019613.488
        34.400          17.400
 123355492.198 6                  23473769.563
        36.500
 125077203.681 5                  23801392.250
        33.000
 112702716.385 7  87820310.77844  21446614.641                    21446616.938
        45.700          26.700
 119592190.380 6  93188734.71844  22757637.336                    22757641.859
        41.400          25.600
 112480213.231 8  87646900.34045  21404273.195                    21404276.539
        48.400          32.700
 115086545.429 7  89677826.46856  21900239.766                    21900241.453
        45.200          36.100
 18  3 15 11 21 58.0000000  0 13R09R10R01R16R17R18G08G11G30G28G10G15
                                G13
                  80831791.104 5  19462112.180                    19462112.656
                        31.000
                                  22209842.961

                  88021532.419 5  21170886.500                    21170891.156
                        32.700
                  88188352.866 4  21225917.484                    21225919.055
                        27.900
                  86296924.457 6  20734257.141                    20734257.199
                        36.300
                  88204553.633 5  21244739.555                    21244741.363
                        34.300
 120971403.274 6  94263446.32442  23020092.438                    23020099.750
        39.900          16.900
 123353252.135 5                  23473342.273
        33.900
 125081162.202 5                  23802146.078
        30.800
 112703295.133 6  87820761.73643  21446724.391                    21446727.090
        38.800          21.500
 119590618.484 6  93187509.86543  22757337.781                    22757343.105
        40.200          23.800
 112481615.979 8  87647993.41145  21404539.945                    21404543.641
        48.900          35.900
 115089496.385 7  89680125.93944  21900801.648                    21900804.410
        45.200          26.200
 18  3 15 11 21 59.0000000  0 12R09R10R01R16R17R18G08G11G28G10G15G13
                                  19462040.164

                                  22209121.438

                  88019528.674 5  21170405.609                    21170408.891
                        33.300
                  88191430.788 4  21226657.398                    21226659.859
                        25.400
                  86298160.150 5  20734554.117                    20734555.199
                        34.600
                  88202607.376 5  21244270.688                    21244272.387
                        32.200
 120973960.360 5  94265438.87042  23020578.617                    23020586.727
        35.300          16.900
 123351012.605 5                  23472917.031
        35.900
 112703874.183 6  87821212.93543  21446835.383                    21446837.430
        41.600          21.500
 119589047.257 6  93186285.58243  22757038.711                    22757043.777
        41.700          22.200
 112483019.403 8  87649086.99745  21404806.727                    21404810.605
        49.100          35.900
 115092447.688 7  89682425.71353  21901363.641                    21901366.836
        44.700          21.800
 18  3 15 11 22  0.0000000  0 10R01R16R17R18G08G11G28G10G15G13
                  88017525.404 5  21169923.828                    21169927.660
                        32.400
                  88194509.011 3  21227400.078                    21227401.254
                        23.800
                  86299396.574 6  20734849.930                    20734851.504
                        38.400
                  88200661.575 5  21243802.828                    21243804.184
                        30.000
 120976517.893 5  94267431.78842  23021066.500                    23021073.125
        35.700          16.300
 123348773.536 6                  23472491.625
        36.100
 112704453.993 6  87821664.75843  21446945.484                    21446947.598
        40.400          20.400
 119587476.486 6  93185061.64844  22756738.125                    22756745.285
        38.300          26.000
 112484423.463 7  87650181.05345  21405073.969                    21405077.676
        47.500          33.200
 115095399.543 6                  21901925.547
        41.400
 18  3 15 11 22  1.0000000  0 10R01R16R17R18G08G11G28G10G15G13
                  88015522.628 5  21169440.133                    21169445.844
                        31.400
                  88197587.680 3  21228140.617                    21228142.516
                        21.600
                  86300633.653 6  20735147.570                    20735148.824
                        37.300
                  88198716.414 4  21243333.734                    21243335.559
                        29.400
 120979076.100 5  94269425.30442  23021551.461                    23021560.164
        30.100          14.800
 123346535.071 6                  23472065.961
        36.800
 112705034.344 6  87822116.99843  21447055.563                    21447058.078
        40.900          18.600
 119585906.262 5  93183838.17243  22756438.086                    22756445.977
        33.900          22.000
 112485828.221 7  87651275.65145  21405342.094                    21405345.297
        46.900          30.300
 115098351.983 6                  21902485.867
        41.000
 18  3 15 11 22  2.0000000  0 10R01R16R17R18G08G11G28G10G15G13
                  88013520.455 5  21168960.313                    21168963.941
                        30.300
                                  21228881.914

                  86301871.456 6  20735444.648                    20735446.113
                        36.800
                  88196771.864 4  21242863.758                    21242867.465
                        29.900
 120981634.618 5  94271418.93842  23022038.875                    23022047.035
        32.000          14.800
 123344297.162 5                  23471640.008
        33.000
 112705615.256 7  87822569.67043  21447166.641                    21447168.145
        42.500          19.000
 119584336.740 6  93182615.29743  22756145.656                    22756147.375
        37.700          19.900
 112487233.643 7  87652370.78744  21405609.156                    21405612.586
        44.700          27.400
 115101304.860 6                  21903048.133
        40.900
 18  3 15 11 22  3.0000000  0 12R09R01R16R17R18G08G11G30G28G10G15G13
                  80830268.46515  19461746.594                    19461745.344
                        30.800
                  88011518.789 3  21168480.359                    21168483.398
                        22.800
                                  21229624.023

                  86303110.063 5  20735741.906                    20735744.313
                        30.100
                  88194827.877 5  21242397.578                    21242398.906
                        30.600
 120984193.99716                  23022527.000
        38.800
 123342060.05516                  23471214.648
        38.800
 125100959.05714                  23805913.023
        28.000
 112706196.786 6  87823022.79843  21447277.023                    21447278.844
        40.400          18.600
 119582767.870 7  93181392.72543  22755845.070                    22755848.832
        42.400          19.300
 112488639.810 7  87653466.52644  21405876.586                    21405879.816
        46.000          29.300
 115104258.279 6                  21903610.445
        38.400
 18  3 15 11 22  4.0000000  0  8R09R01R17G08G28G10G15G13
                  80829965.598 6  19461673.078                    19461672.824
                        40.900
                  88009517.645 5  21167996.609                    21168001.688
                        32.400
                  86304349.273 5  20736039.391                    20736041.859
                        34.600
 120986753.41016                  23023012.938
        36.500
 112706778.300 6  87823475.78243  21447387.297                    21447389.879
        40.800          19.000
 119581199.670 6  93180170.67143  22755546.047                    22755551.074
        39.600          19.900
 112490046.617 8  87654562.76546  21406144.313                    21406147.852
        49.400          37.900
 115107212.216 7  89693930.48155  21904174.016                    21904174.742
        46.000          31.200
 18  3 15 11 22  5.0000000  0  9R09R01R17G08G30G28G10G15G13
                  80829663.440 7  19461599.891                    19461599.441
                        42.100
                  88007517.043 5  21167516.477                    21167520.539
                        32.900
                  86305589.272 5  20736337.609                    20736339.609
                        34.700
 120989313.89915                  23023501.047
        32.200
 125108876.20515                  23807419.547
        32.300
 112707361.021 6  87823929.70643  21447497.992                    21447500.848
        38.700          19.900
 119579631.940 7  93178948.95043  22755247.039                    22755252.457
        42.200          22.600
 112491454.117 8  87655659.52445  21406412.367                    21406415.348
        49.300          35.900
 115110166.769 7  89696232.75244  21904736.453                    21904738.340
        47.800          29.000
 18  3 15 11 22  6.0000000  0 10R09R01G24R17G08G30G28G10G15G13
                  80829361.985 6  19461527.234                    19461527.441
                        40.800
                  88005517.038 5  21167036.461                    21167038.805
                        33.600
 122689503.40115                  23347041.742
        31.800
                  86306829.988 5  20736636.656                    20736638.359
                        34.400
 120991874.86015                  23023989.906
        34.000
 125112836.71115                  23808173.016
        30.500
 112707944.511 5  87824384.34742  21447609.047                    21447612.035
        34.200          17.800
 119578064.858 6  93177727.84944  22754947.227                    22754954.156
        39.800          25.000
 112492862.297 8  87656756.81346  21406680.383                    21406683.637
        50.000          36.800
 115113121.771 7  89698535.34544  21905298.211                    21905300.617
        47.200          28.100
 18  3 15 11 22  7.0000000  0 11R09R01G24R17R18G08G30G28G10G15G13
                  80829061.283 5  19461455.320                    19461455.289
                        35.800
                  88003517.533 5  21166554.461                    21166558.242
                        35.300
 122686341.891 4                  23346439.688
        27.300
                  86308071.545 5  20736934.102                    20736935.770
                        34.900
                  88187057.44915  21240525.727                    21240527.102
                        32.700
 120994435.905 5                  23024476.430
        32.800
 125116797.858 5                  23808926.852
        31.200
 112708528.727 6  87824839.57842  21447720.359                    21447722.805
        39.900          17.400
 119576498.444 6  93176507.26944  22754649.086                    22754656.262
        38.700          26.500
 112494271.123 8  87657854.58746  21406948.031                    21406951.516
        51.600          37.900
 115116077.301 7  89700838.36843  21905860.359                    21905863.270
        45.300          21.500
 18  3 15 11 22  8.0000000  0 12R09R01G24R16R17R18G08G30G28G10G15G13
                  80828761.280 5  19461382.641                    19461382.289
                        34.600
                  88001518.549 5  21166073.367                    21166077.105
                        33.800
 122683181.185 4                  23345837.453
        28.600
                                  21233330.078

                  86309313.825 5  20737232.633                    20737234.508
                        35.600
                  88185116.475 5  21240057.336                    21240059.938
                        34.900
 120996998.105 5                  23024964.219
        35.700
 125120758.973 5                  23809679.031
        30.500
 112709113.453 6  87825295.20242  21447832.508                    21447834.133
        41.400          16.300
 119574932.574 6  93175287.10044  22754352.414                    22754358.125
        40.500          24.600
 112495680.702 8  87658952.92745  21407216.430                    21407219.727
        50.200          31.300
 115119033.547 7  89703141.94443  21906422.859                    21906426.051
        42.300          20.600
 18  3 15 11 22  9.0000000  0 10R09R01G24R17G08G30G28G10G15G13
                  80828461.993 5  19461311.680                    19461310.465
                        35.600
                  87999520.049 5  21165593.727                    21165596.387
                        34.000
 122680020.774 4                  23345235.117
        28.600
                  86310556.769 5  20737531.398                    20737533.035
                        30.800
 120999560.836 5                  23025451.328
        33.000
 125124720.058 5                  23810434.117
        30.700
 112709698.738 7  87825751.32443  21447943.117                    21447945.754
        42.000          18.600
 119573367.247 7  93174067.37143  22754055.844                    22754060.730
        42.200          22.200
 112497091.012 7  87660051.86143  21407484.297                    21407488.078
        43.600          21.500
 115121990.275 5                  21906984.250
        34.400
 18  3 15 11 22 10.0000000  0  9R09R01G24R17G08G28G10G15G13
                  80828163.071 6  19461239.977                    19461238.840
                        37.800
                  87997522.190 5  21165112.086                    21165115.828
                        35.600
 122676860.855 5                  23344634.195
        32.900
                  86311800.449 6  20737829.742                    20737831.797
                        36.000
 121002124.042 5                  23025939.430
        35.100
 112710284.316 6  87826207.67943  21448055.297                    21448057.023
        40.600          18.300
 119571802.700 6  93172848.24844  22753756.844                    22753762.230
        41.800          24.400
 112498501.947 8  87661151.28844  21407752.820                    21407756.391
        49.100          29.600
 115124947.421 6                  21907547.188
        39.600
 18  3 15 11 22 11.0000000  0  9R09R01G24R17G08G28G10G15G13
                  80827864.938 6  19461166.047                    19461166.063
                        41.400
                  87995524.889 5  21164631.586                    21164635.547
                        32.900
 122673701.021 5                  23344033.211
        32.200
                  86313044.830 6  20738128.805                    20738131.094
                        37.500
 121004687.842 6                  23026426.242
        37.000
 112710870.402 6  87826664.35743  21448165.797                    21448168.578
        41.900          19.300
 119570238.612 7  93171629.54043  22753460.039                    22753465.113
        42.900          21.500
 112499913.657 8  87662251.32646  21408021.695                    21408025.039
        52.300          36.800
 115127905.105 7  89710047.77854  21908111.719                    21908110.613
        44.600          29.700
 18  3 15 11 22 12.0000000  0  9R09R01G24R17G08G28G10G15G13
                  80827567.536 7  19461094.703                    19461094.820
                        43.500
                  87993528.110 5  21164151.922                    21164155.395
                        35.600
 122670541.580 5                  23343432.586
        34.100
                  86314289.993 6  20738427.938                    20738430.277
                        40.400
 121007252.263 6                  23026914.984
        37.300
 112711457.356 7  87827121.69444  21448278.234                    21448280.105
        45.400          26.400
 119568675.263 6  93170411.31243  22753162.688                    22753167.625
        38.600          21.100
 112501325.972 8  87663351.86545  21408290.906                    21408294.012
        49.800          32.100
 115130863.391 8  89712352.96945  21908675.336                    21908675.875
        50.400          33.300
 18  3 15 11 22 13.0000000  0  9R09R01G24R17G08G28G10G15G13
                  80827270.850 7  19461023.492                    19461023.777
                        42.300
                  87991531.816 5  21163670.914                    21163675.379
                        35.700
 122667382.424 5                  23342831.727
        34.300
                  86315535.827 6  20738727.117                    20738729.211
                        38.900
 121009817.286 5                  23027402.164
        30.700
 112712045.018 7  87827579.61843  21448389.539                    21448392.297
        43.700          22.000
 119567112.459 6  93169193.52543  22752863.414                    22752869.930
        37.900          20.400
 112502739.038 8  87664452.99045  21408560.344                    21408563.211
        51.900          35.800
 115133822.188 8  89714658.53744  21909238.180                    21909240.098
        49.900          29.700
 18  3 15 11 22 14.0000000  0 11R09R01G24R17R18G08G11G28G10G15G13
                  80826974.835 7  19460952.828                    19460952.754
                        42.100
                  87989536.154 5  21163192.773                    21163195.414
                        35.500
 122664223.632 5                  23342230.242
        33.700
                  86316782.495 6  20739027.617                    20739029.156
                        39.300
                  88173484.62915  21237257.359                    21237257.832
                        33.000
 121012382.896 5                  23027889.648
        31.000
 123317521.11415                  23466536.875
        35.400
 112712633.341 7  87828038.07243  21448501.211                    21448504.465
        43.700          23.300
 119565550.292 6  93167976.25043  22752565.977                    22752572.367
        37.100          20.600
 112504152.819 8  87665554.63846  21408828.742                    21408831.977
        51.800          36.100
 115136781.565 8  89716964.57345  21909800.359                    21909803.250
        49.900          31.000
 18  3 15 11 22 15.0000000  0 11R09R01G24R17R18G08G11G28G10G15G13
                  80826679.468 6  19460881.422                    19460881.762
                        41.600
                  87987540.993 5  21162712.836                    21162715.234
                        35.700
 122661065.120 5                  23341628.320
        33.100
                  86318029.834 6  20739326.805                    20739328.980
                        38.500
                  88171547.63315  21236789.164                    21236790.734
                        33.500
 121014949.090 4                  23028377.422
        29.600
 123315290.401 5                  23466112.789
        35.900
 112713222.262 7  87828496.98043  21448613.445                    21448615.645
        43.000          23.000
 119563988.703 6  93166759.43343  22752269.273                    22752275.336
        37.600          21.500
 112505567.248 8  87666656.78545  21409097.664                    21409100.773
        51.900          35.800
 115139741.468 8  89719271.01644  21910362.930                    21910367.031
        48.700          29.200
 18  3 15 11 22 16.0000000  0 11R09R01G24R17R18G08G11G28G10G15G13
                  80826384.724 6  19460810.922                    19460810.523
                        41.000
                  87985546.308 5  21162230.859                    21162235.430
                        35.500
 122657906.849 5                  23341027.844
        32.400
                  86319277.933 6  20739626.086                    20739628.516
                        38.700
                  88169611.122 5  21236323.188                    21236324.594
                        33.100
 121017515.776 5                  23028866.383
        30.800
 123313060.158 5                  23465688.938
        35.400
 112713811.719 7  87828956.29144  21448725.977                    21448728.242
        43.900          25.500
 119562427.668 6  93165543.03443  22751972.289                    22751978.289
        38.600          21.100
 112506982.305 8  87667759.41645  21409367.586                    21409370.227
        51.400          34.400
 115142701.906 7  89721577.83145  21910925.141                    21910930.289
        46.900          30.100
 18  3 15 11 22 17.0000000  0 11R09R01G24R17R18G08G11G28G10G15G13
                  80826090.638 6  19460739.469                    19460739.824
                        41.100
                  87983552.151 5  21161752.086                    21161755.566
                        35.000
 122654748.954 5                  23340427.242
        33.800
                  86320526.731 6  20739927.039                    20739928.305
                        38.500
                  88167675.259 5  21235855.758                    21235858.234
                        33.400
 121020083.021 4                  23029354.523
        29.900
 123310830.433 5                  23465264.789
        34.900
 112714401.810 7  87829416.08744  21448837.750                    21448840.480
        43.900          24.900
 119560867.243 6  93164327.13043  22751675.492                    22751681.277
        39.300          21.700
 112508398.045 8  87668862.59045  21409636.625                    21409639.480
        51.600          35.100
 115145662.860 7  89723885.05844  21911489.469                    21911493.113
        46.100          29.700
 18  3 15 11 22 18.0000000  0 11R09R01G24R17R18G08G11G28G10G15G13
                  80825797.244 6  19460668.977                    19460669.125
                        40.900
                  87981558.629 5  21161274.688                    21161276.309
                        34.900
 122651591.384 5                  23339826.883
        35.200
                  86321776.283 6  20740226.398                    20740228.637
                        38.900
                  88165740.007 5  21235388.766                    21235392.395
                        33.400
 121022650.895 5                  23029844.578
        30.700
 123308601.322 5                  23464840.039
        34.500
 112714992.532 7  87829876.38144  21448950.422                    21448952.770
        44.200          24.300
 119559307.465 6  93163111.70543  22751379.070                    22751384.668
        39.800          22.300
 112509814.524 8  87669966.34045  21409905.969                    21409909.477
        51.500          35.900
 115148624.395 7  89726192.72144  21912053.680                    21912056.430
        47.500          28.900
 18  3 15 11 22 19.0000000  0 11R09R01G24R17R18G08G11G28G10G15G13
                  80825504.563 6  19460598.227                    19460598.457
                        40.900
                  87979565.611 5  21160793.750                    21160797.402
                        34.800
 122648434.160 6                  23339226.164
        36.900
                  86323026.580 6  20740527.305                    20740529.480
                        38.900
                  88163805.396 5  21234923.391                    21234926.477
                        33.600
 121025219.371 5                  23030333.352
        30.800
 123306372.755 5                  23464415.836
        34.600
 112715583.881 7  87830337.16544  21449063.219                    21449065.461
        44.300          25.100
 119557748.372 6  93161896.81043  22751082.500                    22751087.727
        40.100          23.400
 112511231.740 8  87671070.66245  21410175.531                    21410178.859
        51.700          35.700
 115151586.466 8  89728500.80544  21912618.289                    21912620.148
        48.800          29.200
 18  3 15 11 22 20.0000000  0 11R09R01G24R17R18G08G11G28G10G15G13
                  80825212.535 6  19460527.875                    19460528.461
                        40.400
                  87977573.155 5  21160313.047                    21160318.078
                        34.700
 122645277.271 6                  23338625.094
        37.200
                  86324277.592 6  20740827.383                    20740829.699
                        38.400
                  88161871.401 5  21234459.125                    21234460.363
                        32.800
 121027788.456 5                  23030822.305
        31.500
 123304144.803 5                  23463991.133
        35.000
 112716175.864 7  87830798.44544  21449175.656                    21449178.152
        44.100          24.700
 119556189.867 6  93160682.38544  22750785.289                    22750791.395
        40.200          24.500
 112512649.642 8  87672175.51345  21410446.055                    21410448.672
        52.200          35.700
 115154549.060 8  89730809.31945  21913182.422                    21913184.168
        49.700          30.000
 18  3 15 11 22 21.0000000  0 11R09R01G24R17R18G08G11G28G10G15G13
                  80824921.182 6  19460457.828                    19460457.355
                        40.500
                  87975581.286 5  21159836.227                    21159838.453
                        34.700
 122642120.663 6                  23338024.883
        36.600
                  86325529.342 6  20741128.656                    20741130.262
                        38.700
                  88159937.947 5  21233993.016                    21233995.125
                        32.400
 121030358.037 5                  23031311.445
        31.800
 123301917.383 5                  23463568.125
        34.600
 112716768.450 7  87831260.19944  21449288.281                    21449290.762
        43.700          25.700
 119554631.952 6  93159468.42643  22750489.586                    22750494.746
        39.800          22.800
 112514068.228 8  87673280.89945  21410715.750                    21410718.676
        52.200          35.900
 115157512.210 8  89733118.28744  21913745.742                    21913747.984
        49.600          29.100
 18  3 15 11 22 22.0000000  0 11R09R01G24R17R18G08G11G28G10G15G13
                  80824630.502 6  19460387.734                    19460387.699
                        40.400
                  87973589.931 5  21159357.086                    21159360.004
                        34.700
 122638964.376 5                  23337423.703
        35.900
                  86326781.821 6  20741429.477                    20741431.430
                        38.800
                  88158005.088 5  21233526.516                    21233530.023
                        32.700
 121032928.257 5                  23031801.078
        32.400
 123299690.522 5                  23463144.266
        35.000
 112717361.632 7  87831722.40844  21449401.008                    21449404.043
        44.100          26.000
 119553074.635 6  93158254.93443  22750193.281                    22750198.309
        39.700          22.500
 112515487.487 8  87674386.81845  21410985.383                    21410989.133
        51.900          35.800
 115160475.876 8  89735427.66044  21914308.875                    21914312.035
        49.300          28.900
 18  3 15 11 22 23.0000000  0 11R09R01G24R17R18G08G11G28G10G15G13
                  80824340.498 6  19460318.242                    19460318.461
                        40.400
                  87971599.068 5  21158877.281                    21158880.973
                        34.700
 122635808.337 5                  23336823.281
        34.900
                  86328035.046 6  20741731.430                    20741732.656
                        38.600
                  88156072.807 5  21233061.266                    21233063.891
                        32.600
 121035499.000 5                  23032289.977
        32.300
 123297464.214 5                  23462720.633
        35.400
 112717955.439 7  87832185.11544  21449513.977                    21449516.563
        44.700          25.300
 119551517.963 6  93157041.94243  22749897.086                    22749902.496
        40.300          22.500
 112516907.460 8  87675493.29445  21411255.859                    21411259.020
        51.800          35.100
 115163440.094 8  89737737.45745  21914872.742                    21914876.258
        48.500          30.100
 18  3 15 11 22 24.0000000  0 11R09R01G24R17R18G08G11G28G10G15G13
                  80824051.134 6  19460248.875                    19460248.484
                        40.400
                  87969608.777 5  21158398.836                    21158402.375
                        34.600
 122632652.650 5                  23336223.055
        35.300
                  86329288.964 6  20742032.656                    20742034.531
                        38.300
                  88154141.100 5  21232595.672                    21232598.934
                        31.900
 121038070.342 5                  23032778.945
        32.800
 123295238.425 6                  23462296.438
        36.000
 112718549.827 7  87832648.29244  21449627.398                    21449630.148
        44.400          25.200
 119549961.872 6  93155829.39843  22749601.430                    22749606.426
        40.600          22.800
 112518328.081 8  87676600.26845  21411526.492                    21411528.973
        52.200          35.500
 115166404.838 7  89740047.65244  21915436.289                    21915440.277
        47.600          29.900
 18  3 15 11 22 25.0000000  0 11R09R01G24R17R18G08G11G28G10G15G13
                  80823762.390 6  19460178.906                    19460179.059
                        40.600
                  87967618.959 5  21157920.828                    21157923.652
                        34.900
 122629497.123 6                  23335622.336
        36.100
                  86330543.560 6  20742333.180                    20742335.383
                        39.100
                  88152209.889 5  21232131.273                    21232133.320
                        33.000
 121040642.137 5                  23033268.406
        32.800
 123293013.092 5                  23461873.320
        34.800
 112719144.748 7  87833111.86744  21449740.320                    21449742.977
        45.100          26.900
 119548406.326 6  93154617.26743  22749305.281                    22749310.340
        39.600          22.000
 112519749.313 8  87677707.71945  21411797.078                    21411800.000
        52.200          35.500
 115169370.040 7  89742358.19544  21916001.297                    21916004.625
        47.600          29.900
 18  3 15 11 22 26.0000000  0 11R09R01G24R17R18G08G11G28G10G15G13
                  80823474.277 6  19460110.031                    19460109.941
                        41.200
                  87965629.653 5  21157440.359                    21157444.762
                        33.400
 122626341.936 6                  23335021.805
        36.400
                  86331798.900 6  20742634.555                    20742637.461
                        40.100
                  88150279.731 4  21231666.117                    21231668.289
                        29.300
 121043214.494 6                  23033757.875
        38.800
 123290788.77616                  23461450.703
        38.300
 112719740.499 6  87833576.10143  21449853.805                    21449856.316
        40.400          21.700
 119546851.321 6  93153405.59343  22749008.641                    22749014.172
        39.500          21.800
 112521171.222 8  87678815.70645  21412066.648                    21412070.367
        51.700          34.500
 115172335.745 7  89744669.10744  21916565.852                    21916568.730
        46.300          28.200
 18  3 15 11 22 27.0000000  0 11R09R01G24R17R18G08G11G28G10G15G13
                  80823186.808 6  19460039.711                    19460040.500
                        37.400
                  87963640.868 5  21156964.023                    21156966.418
                        34.200
 122623187.165 5                  23334421.563
        31.800
                  86333054.919 6  20742936.273                    20742938.871
                        39.200
                  88148349.64115  21231202.172                    21231204.262
                        35.200
 121045787.381 6                  23034248.086
        40.300
 123288563.992 6                  23461027.961
        38.100
 112720336.35615                  21449967.297
        34.500
 119545297.043 6  93152194.45443  22748713.289                    22748718.563
        41.700          22.300
 112522593.781 8  87679924.18845  21412337.625                    21412340.867
        52.500          34.900
 115175302.019 7  89746980.44544  21917130.750                    21917133.387
        47.500          29.400
 18  3 15 11 22 28.0000000  0 11R09R01G24R17R18G08G11G28G10G15G13
                  80822900.121 6  19459972.414                    19459971.402
                        40.400
                  87961652.688 5  21156485.961                    21156488.766
                        32.600
 122620032.493 5                  23333822.211
        35.200
                  86334311.668 6  20743238.086                    20743240.375
                        38.700
                  88146420.13415  21230738.117                    21230738.887
                        33.800
 121048361.51015                  23034737.813
        34.400
 123286340.92116                  23460604.828
        39.000
 112720933.20715                  21450080.195
        33.700
 119543743.272 7  93150983.74643  22748417.383                    22748422.938
        42.300          23.000
 112524017.093 8  87681033.27145  21412608.117                    21412611.965
        50.200          32.100
 115178268.807 8  89749292.23145  21917694.945                    21917698.152
        48.600          31.600
 18  3 15 11 22 29.0000000  0 14G20R09R10R01G24R16R17R18G08G11G28G10
                                G15G13
 125395643.54115                  23861993.922
        33.100
                  80822614.063 6  19459903.250                    19459902.684
                        40.900
                                  22187482.695

                  87959664.983 5  21156006.773                    21156010.164
                        34.600
 122616878.274 5                  23333221.680
        35.200
                                  21248925.258

                  86335569.177 6  20743540.594                    20743542.941
                        38.300
                  88144490.85716  21230272.609                    21230274.406
                        38.200
 121050935.43216                  23035228.320
        38.100
 123284117.68216                  23460181.789
        36.800
 112721530.36417                  21450195.102
        47.000
 119542190.107 7  93149773.48243  22748121.805                    22748127.344
        42.100          23.300
 112525441.059 8  87682142.88344  21412879.711                    21412883.289
        49.100          29.900
 115181236.014 8  89751604.34645  21918259.695                    21918262.703
        48.800          31.800
 18  3 15 11 22 30.0000000  0 14G20R09R01G24R16R17R18G08G11G30G28G10
                                G15G13
 125399406.25414                  23862709.891
        28.600
                  80822328.604 6  19459834.016                    19459833.520
                        40.400
                  87957677.876 5  21155530.773                    21155532.621
                        33.800
 122613724.83015                  23332622.070
        33.100
                                  21249668.539

                  86336827.408 6  20743843.172                    20743845.215
                        38.100
                  88142562.624 6  21229808.758                    21229810.320
                        37.700
 121053509.550 6                  23035717.594
        37.700
 123281894.632 6                  23459758.688
        36.200
 125207919.29816                  23826273.039
        36.100
 112722128.360 8  87835436.72556  21450308.797                    21450310.855
        52.000          37.200
 119540637.519 6  93148563.68043  22747826.898                    22747831.801
        41.200          22.500
 112526865.695 8  87683253.00245  21413151.305                    21413154.207
        50.000          30.400
 115184203.943 7  89753916.98243  21918824.758                    21918828.051
        42.500          20.600
 18  3 15 11 22 31.0000000  0 13G20R09R01G24R16R17R18G08G11G30G28G10
                                G15
 125403169.04214                  23863427.352
        24.600
                  80822043.863 7  19459765.016                    19459765.418
                        42.200
                  87955691.260 5  21155050.578                    21155054.727
                        33.500
 122610570.666 6                  23332021.094
        36.000
                                  21250410.609

                  86338086.362 6  20744145.117                    20744147.465
                        38.100
                  88140634.963 6  21229343.492                    21229345.992
                        36.700
 121056084.701 6                  23036207.789
        37.500
 123279672.613 6                  23459334.852
        37.100
 125211885.810 5                  23827028.797
        32.800
 112722726.907 8  87835903.11345  21450422.555                    21450424.707
        50.800          34.400
 119539085.618 6  93147354.39543  22747531.195                    22747536.758
        41.800          22.800
 112528291.025 8  87684363.65645  21413422.289                    21413425.539
        50.800          31.800
 18  3 15 11 22 32.0000000  0 14G20R09R01G24R16R17R18G08G11G30G28G10
                                G15G13
 125406932.467 4                  23864142.414
        28.600
                  80821759.798 7  19459696.836                    19459697.082
                        42.100
                  87953705.261 5  21154573.906                    21154577.047
                        33.300
 122607417.418 5                  23331421.133
        35.500
                                  21251154.922

                  86339346.047 6  20744447.805                    20744450.133
                        38.500
                  88138707.884 5  21228878.953                    21228881.367
                        35.600
 121058660.590 6                  23036697.922
        36.900
 123277451.137 6                  23458912.945
        36.100
 125215852.399 5                  23827783.938
        33.200
 112723326.109 8  87836370.02345  21450536.836                    21450538.789
        51.800          34.500
 119537534.328 7  93146145.60444  22747236.055                    22747241.234
        42.000          25.500
 112529717.077 8  87685474.88545  21413693.430                    21413696.750
        51.700          32.800
 115190141.38816                  21919953.203
        39.000
 18  3 15 11 22 33.0000000  0 15G20R09R10R01G24R16R17R18G08G11G30G28
                                G10G15G13
 125410696.13714                  23864859.727
        28.900
                  80821476.432 6  19459628.219                    19459628.164
                        41.800
                                  22184599.836

                  87951719.859 5  21154097.117                    21154099.254
                        33.600
 122604264.387 5                  23330821.117
        34.300
                                  21251898.938

                  86340606.491 6  20744749.867                    20744752.441
                        38.600
                  88136781.423 6  21228416.211                    21228417.051
                        36.900
 121061236.993 6                  23037187.695
        37.400
 123275230.255 5                  23458491.297
        35.100
 125219819.411 5                  23828538.563
        34.800
 112723925.952 8  87836837.46345  21450650.445                    21450653.047
        51.100          34.500
 119535983.733 6  93144937.34843  22746940.422                    22746946.391
        41.200          22.900
 112531143.897 8  87686586.68745  21413964.500                    21413968.027
        50.700          32.400
 115193111.00716                  21920518.375
        37.900
 18  3 15 11 22 34.0000000  0 15G20R09R10R01G24R16R17R18G08G11G30G28
                                G10G15G13
 125414460.06514                  23865575.227
        29.600
                  80821193.746 6  19459561.125                    19459560.438
                        41.000
                                  22183881.133

                  87949734.941 5  21153618.563                    21153622.227
                        33.100
 122601111.824 5                  23330220.875
        34.300
                  88299419.76015  21252642.344                    21252647.102
                        30.100
                  86341867.703 6  20745053.359                    20745056.230
                        38.300
                  88134855.603 6  21227951.484                    21227953.922
                        36.300
 121063813.992 6                  23037677.234
        37.100
 123273009.977 5                  23458068.320
        35.900
 125223786.542 5                  23829293.383
        34.600
 112724526.436 8  87837305.37845  21450765.000                    21450767.242
        51.000          35.300
 119534433.718 6  93143729.53844  22746646.086                    22746651.184
        41.700          24.700
 112532571.388 8  87687699.00445  21414236.516                    21414239.754
        50.200          31.700
 115196081.11017                  21921084.305
        42.600
 18  3 15 11 22 35.0000000  0 15G20R09R10R01G24R16R17R18G08G11G30G28
                                G10G15G13
 125418224.37814                  23866291.836
        28.900
                  80820911.737 6  19459492.766                    19459492.934
                        40.700
                                  22183159.000

                  87947750.576 5  21153141.234                    21153144.609
                        33.700
 122597959.525 5                  23329621.109
        35.400
                  88302511.45215  21253387.109                    21253391.031
                        30.200
                  86343129.646 6  20745356.445                    20745359.125
                        38.300
                  88132930.388 5  21227488.008                    21227489.531
                        35.800
 121066391.563 6                  23038168.297
        36.900
 123270790.313 5                  23457645.320
        34.100
 125227754.011 6                  23830047.930
        36.100
 112725127.537 8  87837773.76345  21450879.609                    21450882.066
        51.000          35.200
 119532884.306 7  93142522.20744  22746351.453                    22746356.559
        42.600          24.800
 112533999.587 8  87688811.88045  21414508.445                    21414511.543
        49.900          31.500
 115199051.74717                  21921648.930
        42.000
 18  3 15 11 22 36.0000000  0 15G20R09R10R01G24R16R17R18G08G11G30G28
                                G10G15G13
 125421988.95714                  23867007.836
        28.000
                  80820630.440 6  19459425.406                    19459424.773
                        40.900
                                  22182440.211

                  87945766.837 5  21152665.156                    21152667.273
                        33.400
 122594807.670 6                  23329021.344
        36.900
                  88305603.562 5  21254131.227                    21254134.488
                        30.700
                  86344392.347 6  20745660.656                    20745662.863
                        38.200
                  88131005.714 6  21227024.938                    21227025.969
                        36.600
 121068969.831 6                  23038658.977
        37.800
 123268571.196 5                  23457223.727
        34.300
 125231721.707 5                  23830802.094
        35.800
 112725729.272 8  87838242.64845  21450993.875                    21450996.359
        51.400          34.900
 119531335.560 7  93141315.39044  22746057.219                    22746061.855
        43.000          25.700
 112535428.515 8  87689925.32945  21414780.344                    21414783.598
        50.200          32.200
 115202022.97116                  21922213.656
        40.800
 18  3 15 11 22 37.0000000  0 15G20R09R10R01G24R16R17R18G08G11G30G28
                                G10G15G13
 125425753.979 4                  23867724.281
        28.900
                  80820349.834 6  19459357.352                    19459357.355
                        40.900
                                  22181719.508

                  87943783.610 5  21152188.016                    21152190.602
                        33.700
 122591656.201 5                  23328421.500
        35.600
                  88308696.064 5  21254875.180                    21254879.277
                        30.300
                  86345655.771 6  20745963.898                    20745966.070
                        38.500
                  88129081.685 6  21226560.906                    21226562.559
                        36.900
 121071548.573 6                  23039150.563
        36.600
 123266352.640 5                  23456801.313
        34.200
 125235689.851 5                  23831557.102
        34.300
 112726331.626 8  87838712.00245  21451108.406                    21451110.934
        51.800          34.900
 119529787.446 7  93140109.05844  22745762.266                    22745767.203
        42.400          25.500
 112536858.165 8  87691039.33645  21415051.734                    21415055.336
        50.500          32.600
 115204994.727 6                  21922779.664
        39.900
 18  3 15 11 22 38.0000000  0 15G20R09R10R01G24R16R17R18G08G11G30G28
                                G10G15G13
 125429519.20014                  23868441.836
        26.800
                  80820069.888 6  19459289.891                    19459289.773
                        41.500
                                  22181000.594

                  87941800.898 5  21151709.711                    21151713.480
                        33.800
 122588504.911 5                  23327821.820
        32.800
                  88311788.929 5  21255619.992                    21255624.160
                        32.000
                  86346919.948 6  20746268.086                    20746270.281
                        39.100
                  88127158.249 6  21226097.430                    21226099.336
                        37.000
 121074127.963 6                  23039641.930
        37.100
 123264134.586 5                  23456378.133
        35.100
 125239658.028 5                  23832313.195
        35.200
 112726934.591 8  87839181.84145  21451223.117                    21451225.570
        51.900          34.600
 119528239.938 7  93138903.19244  22745467.680                    22745473.184
        42.400          25.300
 112538288.449 8  87692153.82945  21415325.086                    21415327.574
        50.900          32.400
 115207966.987 6                  21923345.102
        38.300
 18  3 15 11 22 39.0000000  0 15G20R09R10R01G24R16R17R18G08G11G30G28
                                G10G15G13
 125433284.80915                  23869157.563
        32.300
                  80819790.574 6  19459222.977                    19459222.355
                        40.200
                  91959333.59714  22180282.133                    22180290.813
                        25.800
                  87939818.796 5  21151234.977                    21151237.266
                        32.900
 122585354.27515                  23327222.234
        32.600
                                  21256365.492

                  86348184.863 6  20746572.367                    20746574.199
                        39.000
                  88125235.363 6  21225633.133                    21225636.293
                        37.300
 121076707.869 6                  23040131.266
        37.000
 123261917.192 5                  23455956.180
        35.400
 125243626.459 5                  23833068.484
        33.400
 112727538.174 8  87839652.17945  21451338.117                    21451340.469
        50.800          35.600
 119526693.024 7  93137697.81544  22745172.797                    22745178.434
        42.200          25.400
 112539719.428 8  87693268.88845  21415596.961                    21415599.941
        49.700          31.000
 115210940.55617                  21923912.211
        45.900
 18  3 15 11 22 40.0000000  0 14G20R09R10R01G24R17R18G08G11G30G28G10
                                G15G13
 125437050.75315                  23869874.328
        31.000
                  80819512.009 6  19459156.086                    19459155.395
                        41.400
                  91956349.97514  22179560.359                    22179570.609
                        24.300
                  87937837.240 5  21150757.219                    21150760.449
                        32.700
 122582203.74015                  23326622.508
        32.200
                  86349450.508 6  20746875.297                    20746878.176
                        38.900
                  88123313.173 6  21225172.102                    21225173.758
                        37.200
 121079288.396 6                  23040623.328
        36.200
 123259700.377 5                  23455534.484
        35.400
 125247595.22115                  23833823.023
        34.300
 112728142.405 8  87840123.00845  21451453.047                    21451455.441
        50.700          33.700
 119525146.799 7  93136492.99044  22744878.766                    22744883.941
        42.100          24.300
 112541151.217 8  87694384.57945  21415869.836                    21415872.742
        51.100          32.700
 115213913.99218                  21924478.125
        48.000
 18  3 15 11 22 41.0000000  0 14G20R09R10R01G24R17R18G08G11G30G28G10
                                G15G13
 125440816.90715                  23870590.023
        32.500
                  80819234.084 6  19459089.086                    19459088.879
                        41.500
                  91953366.08713  22178839.641                    22178850.406
                        22.700
                  87935856.188 5  21150279.766                    21150283.715
                        34.200
 122579052.817 5                  23326023.469
        31.200
                  86350716.876 6  20747179.586                    20747182.609
                        39.100
                  88121391.520 5  21224708.875                    21224710.668
                        35.800
 121081869.458 6                  23041114.070
        37.200
 123257484.041 5                  23455112.703
        34.300
 125251564.309 5                  23834578.711
        33.000
 112728747.248 8  87840594.32145  21451568.398                    21451570.594
        51.100          35.400
 119523601.162 7  93135288.59643  22744584.586                    22744590.094
        42.600          23.800
 112542583.617 8  87695500.73345  21416141.922                    21416144.824
        51.000          33.100
 115216887.92318                  21925044.219
        49.600
 18  3 15 11 22 42.0000000  0 14G20R09R10R01G24R17R18G08G11G30G28G10
                                G15G13
 125444583.51915                  23871306.742
        31.600
                  80818956.833 6  19459021.813                    19459022.480
                        41.100
                  91950383.007 3  22178122.141                    22178130.707
                        21.600
                  87933875.756 5  21149805.461                    21149807.289
                        34.100
 122575902.831 5                  23325424.383
        32.900
                  86351983.974 6  20747483.594                    20747486.234
                        38.200
                  88119470.444 5  21224246.156                    21224247.875
                        35.500
 121084451.130 6                  23041605.758
        37.700
 123255268.281 5                  23454691.000
        35.900
 125255533.477 5                  23835334.500
        35.500
 112729352.685 8  87841066.08945  21451683.469                    21451685.941
        51.000          35.800
 119522056.105 7  93134084.64644  22744291.055                    22744296.246
        42.200          26.000
 112544016.718 8  87696617.44545  21416414.336                    21416417.789
        50.600          31.500
 115219862.39918                  21925609.961
        48.500
 18  3 15 11 22 43.0000000  0 15G20R09R10R01G24R16R17R18G08G11G30G28
                                G10G15G13
 125448350.345 4                  23872023.797
        29.400
                  80818680.228 6  19458955.375                    19458955.227
                        40.800
                                  22177402.391

                  87931895.719 5  21149327.641                    21149330.805
                        33.300
 122572753.148 5                  23324824.531
        33.700
                  88327259.22915  21259345.109                    21259347.383
                        32.100
                  86353251.771 6  20747788.469                    20747791.602
                        37.900
                  88117549.922 5  21223783.852                    21223784.871
                        35.400
 121087033.305 6                  23042097.023
        38.900
 123253052.999 5                  23454269.484
        35.500
 125259502.897 6                  23836089.500
        36.000
 112729958.683 8  87841538.30445  21451798.820                    21451801.109
        51.400          35.400
 119520511.675 6  93132881.19244  22743996.742                    22744002.520
        41.600          24.500
 112545450.444 8  87697734.62845  21416687.109                    21416690.172
        51.400          32.900
 115222837.314 8  89784007.26155  21926176.625                    21926178.465
        49.000          31.400
 18  3 15 11 22 44.0000000  0 15G20R09R10R01G24R16R17R18G08G11G30G28
                                G10G15G13
 125452117.486 5                  23872740.820
        30.500
                  80818404.291 6  19458888.883                    19458888.742
                        40.800
                                  22176683.227

                  87929916.300 5  21148852.484                    21148855.043
                        33.100
 122569603.629 5                  23324225.781
        32.200
                  88330354.408 5  21260089.594                    21260092.324
                        31.400
                  86354520.285 6  20748093.945                    20748095.938
                        38.300
                  88115630.010 5  21223321.719                    21223322.863
                        35.600
 121089616.050 6                  23042588.328
        39.200
 123250838.320 5                  23453849.023
        35.400
 125263472.580 5                  23836844.539
        35.900
 112730565.299 8  87842010.98845  21451914.156                    21451917.090
        51.300          35.700
 119518967.802 6  93131678.17644  22743702.719                    22743708.730
        41.000          24.600
 112546884.880 8  87698852.35445  21416960.016                    21416963.355
        51.300          33.100
 115225812.790 8  89786325.79145  21926741.813                    21926744.617
        48.900          32.600
 18  3 15 11 22 45.0000000  0 15G20R09R10R01G24R16R17R18G08G11G30G28
                                G10G15G13
 125455884.894 5                  23873457.195
        32.000
                  80818129.023 6  19458822.516                    19458822.676
                        41.100
                                  22175965.250

                  87927937.425 5  21148377.484                    21148379.203
                        30.800
 122566454.506 5                  23323625.828
        32.600
                  88333449.967 5  21260834.336                    21260837.457
                        31.200
                  86355789.528 6  20748398.328                    20748400.348
                        38.300
                  88113710.673 5  21222859.055                    21222860.016
                        35.300
 121092199.345 6                  23043080.883
        39.900
 123248624.163 5                  23453427.680
        35.900
 125267442.475 5                  23837600.992
        35.100
 112731172.518 8  87842484.14345  21452029.414                    21452032.148
        51.400          35.800
 119517424.561 7  93130475.65844  22743409.133                    22743415.008
        42.300          25.800
 112548319.983 8  87699970.60845  21417233.211                    21417236.898
        51.100          33.300
 115228788.787 8  89788644.72945  21927307.539                    21927311.059
        48.400          32.000
 18  3 15 11 22 46.0000000  0 15G20R09R10R01G24R16R17R18G08G11G30G28
                                G10G15G13
 125459652.595 5                  23874173.945
        30.700
                  80817854.374 6  19458756.406                    19458755.914
                        41.000
                                  22175245.461

                  87925959.042 5  21147899.133                    21147903.113
                        31.600
 122563305.715 5                  23323026.477
        34.500
                  88336545.867 5  21261579.117                    21261582.469
                        30.800
                  86357059.473 6  20748704.242                    20748705.926
                        38.100
                  88111791.924 5  21222396.797                    21222398.559
                        34.900
 121094783.201 6                  23043572.648
        38.700
 123246410.563 5                  23453006.359
        35.700
 125271412.687 5                  23838355.164
        35.200
 112731780.347 8  87842957.76646  21452145.664                    21452147.773
        51.500          36.200
 119515881.936 7  93129273.61744  22743116.164                    22743121.465
        42.300          25.600
 112549755.775 8  87701089.40745  21417506.828                    21417509.793
        50.900          33.400
 115231765.334 7  89790964.09845  21927873.695                    21927877.750
        47.600          31.800
 18  3 15 11 22 47.0000000  0 15G20R09R10R01G24R16R17R18G08G11G30G28
                                G10G15G13
 125463420.563 4                  23874889.641
        27.300
                  80817580.344 6  19458690.602                    19458690.273
                        40.900
                                  22174524.164

                  87923981.202 5  21147425.164                    21147427.906
                        33.400
 122560157.112 5                  23322427.336
        32.300
                  88339642.135 5  21262324.664                    21262327.547
                        31.700
                  86358330.102 6  20749009.094                    20749011.531
                        38.100
                  88109873.675 5  21221935.211                    21221936.125
                        35.600
 121097367.539 6                  23044063.648
        37.800
 123244197.408 5                  23452585.000
        35.800
 125275383.006 5                  23839111.023
        35.900
 112732388.685 8  87843431.79245  21452261.422                    21452264.137
        51.400          35.700
 119514339.811 7  93128071.96343  22742822.766                    22742828.090
        42.500          23.200
 112551192.161 8  87702208.66945  21417779.984                    21417783.148
        50.600          33.300
 115234742.337 7  89793283.82545  21928440.625                    21928444.055
        46.800          31.200
 18  3 15 11 22 48.0000000  0 15G20R09R10R01G24R16R17R18G08G11G30G28
                                G10G15G13
 125467188.813 4                  23875605.836
        27.300
                  80817306.958 6  19458624.547                    19458624.289
                        40.900
                                  22173802.898

                  87922003.869 5  21146949.023                    21146952.203
                        33.300
 122557008.776 5                  23321828.680
        32.400
                  88342738.728 5  21263070.070                    21263072.930
                        31.600
                  86359601.469 6  20749313.820                    20749317.355
                        37.900
                  88107956.012 5  21221472.609                    21221474.777
                        35.800
 121099952.418 6                  23044555.156
        38.600
 123241984.815 5                  23452164.039
        35.400
 125279353.512 5                  23839866.641
        35.600
 112732997.609 8  87843906.27946  21452377.273                    21452379.629
        50.800          36.400
 119512798.275 7  93126870.77144  22742529.703                    22742535.008
        42.500          24.200
 112552629.211 8  87703328.45045  21418053.313                    21418056.957
        50.700          33.300
 115237719.845 7  89795603.95445  21929008.148                    21929010.910
        47.200          31.200
 18  3 15 11 22 49.0000000  0 14R09R10R01G24R16R17R18G08G11G30G28G10
                                G15G13
                  80817034.328 6  19458559.016                    19458559.121
                        41.100
                  91929488.25213  22173087.172                    22173091.824
                        21.100
                  87920027.110 5  21146473.789                    21146476.824
                        33.400
 122553860.767 5                  23321228.273
        31.300
                  88345835.726 5  21263816.344                    21263818.484
                        31.600
                  86360873.625 6  20749619.664                    20749622.738
                        37.800
                  88106038.946 5  21221011.234                    21221012.379
                        35.500
 121102537.951 6                  23045047.523
        38.200
 123239772.845 5                  23451742.406
        35.800
 125283324.274 6                  23840622.313
        37.500
 112733607.197 8  87844381.28245  21452492.930                    21452495.418
        50.500          35.600
 119511257.427 7  93125670.08744  22742235.453                    22742241.746
        42.200          24.700
 112554067.035 8  87704448.84345  21418327.219                    21418330.387
        49.800          32.300
 115240697.921 8  89797924.52545  21929575.156                    21929577.602
        48.500          31.200
 18  3 15 11 22 50.0000000  0 14R09R10R01G24R16R17R18G08G11G30G28G10
                                G15G13
                  80816762.340 6  19458493.336                    19458493.313
                        40.900
                  91926507.07014  22172371.227                    22172373.566
                        24.300
                  87918050.902 5  21145997.703                    21146001.313
                        32.600
 122550713.039 5                  23320628.547
        32.200
                  88348933.169 5  21264561.211                    21264564.137
                        31.900
                  86362146.512 6  20749925.758                    20749929.234
                        37.600
                  88104122.472 5  21220548.617                    21220551.215
                        35.600
 121105124.043 6                  23045539.391
        38.300
 123237561.410 6                  23451321.609
        36.300
 125287295.401 6                  23841378.586
        37.700
 112734217.427 8  87844856.78845  21452609.219                    21452611.531
        50.800          35.900
 119509717.142 6  93124469.84143  22741941.711                    22741948.191
        40.200          22.900
 112555505.561 8  87705569.76745  21418601.219                    21418604.348
        50.000          32.500
 115243676.523 8  89800245.50545  21930142.031                    21930144.395
        49.700          31.000
 18  3 15 11 22 51.0000000  0 14G20R09R01G24R16R17R18G08G11G30G28G10
                                G15G13
 125478495.58715                  23877758.188
        31.900
                  80816491.000 6  19458428.477                    19458427.598
                        40.900
                  87916075.224 5  21145523.961                    21145525.867
                        33.600
 122547565.675 5                  23320031.273
        34.500
                  88352030.937 5  21265305.977                    21265309.418
                        31.600
                  86363420.114 6  20750231.688                    20750234.699
                        38.100
                  88102206.634 5  21220087.906                    21220089.727
                        35.700
 121107710.657 6                  23046031.648
        37.200
 123235350.549 5                  23450900.867
        35.700
 125291266.727 6                  23842135.039
        37.800
 112734828.215 8  87845332.73046  21452725.359                    21452727.867
        51.200          36.000
 119508177.478 6  93123270.12543  22741648.656                    22741655.102
        39.600          23.000
 112556944.719 8  87706691.18845  21418874.375                    21418877.621
        48.900          30.900
 115246655.665 8  89802566.93145  21930708.500                    21930711.125
        49.700          31.900
 18  3 15 11 22 52.0000000  0 14G20R09R01G24R16R17R18G08G11G30G28G10
                                G15G13
 125482265.102 5                  23878476.344
        33.900
                  80816220.352 6  19458363.484                    19458363.023
                        41.200
                  87914100.097 5  21145048.891                    21145051.063
                        33.100
 122544418.727 6                  23319432.984
        38.500
                  88355129.087 5  21266051.055                    21266055.414
                        31.900
                  86364694.439 6  20750537.609                    20750540.832
                        38.000
                  88100291.328 5  21219627.313                    21219628.215
                        35.600
 121110297.897 6                  23046524.102
        38.200
 123233140.174 5                  23450480.867
        35.600
 125295238.237 6                  23842891.141
        37.300
 112735439.628 8  87845809.16245  21452841.680                    21452844.094
        51.200          35.500
 119506638.379 6  93122070.87043  22741356.766                    22741362.336
        41.500          23.300
 112558384.555 8  87707813.13745  21419148.688                    21419151.656
        50.200          31.900
 115249635.339 8  89804888.77345  21931275.547                    21931278.316
        49.000          31.700
 18  3 15 11 22 53.0000000  0 14G20R09R01G24R16R17R18G08G11G30G28G10
                                G15G13
 125486034.938 5                  23879193.891
        34.100
                  80815950.361 6  19458297.859                    19458297.727
                        41.100
                  87912125.498 5  21144574.086                    21144576.086
                        33.800
 122541272.103 5                  23318834.688
        35.500
                  88358227.678 5  21266797.438                    21266800.945
                        31.700
                  86365969.501 6  20750845.344                    20750847.238
                        38.500
                  88098376.646 5  21219165.445                    21219167.367
                        35.300
 121112885.713 6                  23047016.867
        37.900
 123230930.435 5                  23450059.898
        35.900
 125299210.047 6                  23843645.492
        36.300
 112736051.661 8  87846286.07046  21452958.203                    21452960.754
        50.800          36.000
 119505099.959 7  93120872.11543  22741064.953                    22741069.340
        43.300          23.500
 112559825.091 8  87708935.62445  21419422.906                    21419425.934
        50.000          32.200
 115252615.569 8  89807211.05745  21931841.617                    21931845.840
        48.100          31.400
 18  3 15 11 22 54.0000000  0 14G20R09R01G24R16R17R18G08G11G30G28G10
                                G15G13
 125489805.101 5                  23879911.313
        34.200
                  80815681.039 6  19458233.578                    19458232.766
                        41.400
                  87910151.488 5  21144098.633                    21144101.125
                        33.300
 122538125.757 5                  23318234.742
        33.600
                  88361326.573 5  21267543.930                    21267546.852
                        30.900
                  86367245.279 6  20751152.695                    20751153.629
                        37.900
                  88096462.547 5  21218704.531                    21218706.094
                        35.700
 121115474.074 6                  23047508.383
        38.400
 123228721.187 5                  23449639.563
        35.300
 125303182.064 6                  23844401.633
        37.900
 112736664.304 8  87846763.45745  21453074.586                    21453077.137
        50.900          35.300
 119503562.170 7  93119673.83444  22740772.813                    22740776.918
        44.200          25.000
 112561266.321 8  87710058.65545  21419696.898                    21419700.066
        50.600          32.300
 115255596.313 7  89809533.72045  21932408.664                    21932412.660
        47.900          30.200
 18  3 15 11 22 55.0000000  0 14G20R09R01G24R16R17R18G08G11G30G28G10
                                G15G13
 125493575.565 5                  23880628.672
        34.300
                  80815412.405 6  19458168.648                    19458168.656
                        41.200
                  87908178.022 5  21143624.578                    21143626.660
                        33.200
 122534979.689 5                  23317635.133
        33.300
                  88364425.910 5  21268290.453                    21268293.059
                        31.400
                  86368521.816 6  20751459.172                    20751460.637
                        38.000
                  88094549.065 5  21218243.461                    21218245.387
                        35.800
 121118063.012 6                  23048000.797
        38.000
 123226512.555 5                  23449219.203
        35.600
 125307154.374 6                  23845158.180
        37.300
 112737277.586 8  87847241.34145  21453191.609                    21453193.992
        51.100          35.500
 119502025.016 7  93118476.04244  22740480.281                    22740484.762
        44.000          24.500
 112562708.280 8  87711182.25245  21419971.336                    21419974.586
        50.300          33.100
 115258577.629 7  89811856.81045  21932976.680                    21932979.980
        47.900          30.600
 18  3 15 11 22 56.0000000  0 14G20R09R01G24R16R17R18G08G11G30G28G10
                                G15G13
 125497346.350 5                  23881346.070
        33.000
                  80815144.448 6  19458104.375                    19458103.617
                        41.200
                  87906205.131 5  21143150.500                    21143152.305
                        33.500
 122531833.870 6                  23317037.289
        38.400
                  88367525.575 5  21269036.766                    21269039.164
                        32.000
                  86369799.063 6  20751765.773                    20751767.297
                        38.300
                  88092636.144 5  21217782.664                    21217784.789
                        35.900
 121120652.512 6                  23048494.422
        37.400
 123224304.429 5                  23448799.148
        35.000
 125311126.902 6                  23845914.477
        36.500
 112737891.466 8  87847719.69545  21453308.180                    21453310.676
        51.200          35.400
 119500488.466 7  93117278.70344  22740186.711                    22740192.563
        43.400          24.200
 112564150.896 8  87712306.37045  21420245.750                    21420249.129
        50.500          33.300
 115261559.443 7  89814180.29145  21933544.594                    21933547.305
        47.800          31.000
 18  3 15 11 22 57.0000000  0 14G20R09R01G24R16R17R18G08G11G30G28G10
                                G15G13
 125501117.403 5                  23882064.133
        33.700
                  80814877.168 6  19458039.641                    19458039.813
                        41.100
                  87904232.707 5  21142674.938                    21142677.730
                        33.400
 122528688.495 6                  23316438.906
        40.300
                  88370625.664 5  21269782.500                    21269784.988
                        31.700
                  86371077.067 6  20752071.742                    20752074.039
                        38.400
                  88090723.816 6  21217322.445                    21217324.023
                        36.200
 121123242.616 6                  23048987.688
        36.900
 123222096.891 5                  23448378.313
        35.200
 125315099.670 6                  23846670.250
        36.800
 112738505.950 8  87848198.52045  21453425.078                    21453427.539
        51.100          35.800
 119498952.502 6  93116081.82544  22739893.672                    22739900.129
        41.900          24.600
 112565594.240 8  87713431.06245  21420520.578                    21420523.406
        51.400          34.700
 115264541.810 8  89816504.19045  21934112.180                    21934114.727
        48.300          31.100
 18  3 15 11 22 58.0000000  0 14G20R09R01G24R16R17R18G08G11G30G28G10
                                G15G13
 125504888.849 5                  23882781.664
        33.400
                  80814610.552 6  19457975.648                    19457975.340
                        41.000
                  87902260.866 5  21142201.281                    21142203.746
                        33.500
 122525543.361 6                  23315840.695
        40.200
                  88373726.134 5  21270529.797                    21270531.270
                        32.600
                  86372355.796 6  20752378.383                    20752381.289
                        38.600
                  88088812.063 5  21216862.586                    21216863.766
                        35.600
 121125833.298 6                  23049480.266
        37.800
 123219889.911 5                  23447958.406
        35.700
 125319072.709 6                  23847426.305
        36.900
 112739121.052 8  87848677.82045  21453542.438                    21453544.719
        51.200          35.100
 119497417.127 6  93114885.43744  22739600.828                    22739607.719
        40.500          25.200
 112567038.242 8  87714556.25445  21420795.242                    21420798.406
        51.200          34.600
 115267524.705 7  89818828.52145  21934679.875                    21934682.832
        47.900          30.600
 18  3 15 11 22 59.0000000  0 14G20R09R01G24R16R17R18G08G11G30G28G10
                                G15G13
 125508660.559 5                  23883499.297
        32.900
                  80814344.599 6  19457911.148                    19457911.160
                        41.100
                  87900289.554 5  21141728.391                    21141729.363
                        33.400
 122522398.563 6                  23315241.898
        36.500
                  88376826.981 5  21271275.016                    21271278.254
                        32.200
                  86373635.239 6  20752685.969                    20752689.391
                        38.300
                  88086900.929 5  21216401.898                    21216403.875
                        35.900
 121128424.479 6                  23049973.805
        37.700
 123217683.470 5                  23447539.813
        35.600
 125323045.952 6                  23848181.094
        37.700
 112739736.734 8  87849157.57545  21453659.359                    21453661.699
        51.000          35.400
 119495882.380 6  93113689.56744  22739309.938                    22739315.672
        40.900          24.400
 112568482.906 8  87715681.97445  21421069.969                    21421073.293
        50.700          33.700
 115270508.101 7  89821153.24445  21935247.477                    21935250.180
        47.800          30.700
 18  3 15 11 23  0.0000000  0 14G20R09R01G24R16R17R18G08G11G30G28G10
                                G15G13
 125512432.587 5                  23884217.727
        34.800
                  80814079.331 6  19457847.945                    19457847.887
                        41.200
                  87898318.747 5  21141251.719                    21141254.613
                        33.000
 122519254.148 5                  23314643.445
        34.100
                  88379928.174 5  21272020.672                    21272024.137
                        31.900
                  86374915.397 6  20752994.180                    20752996.180
                        38.300
                  88084990.405 6  21215941.297                    21215942.754
                        36.300
 121131016.266 6                  23050467.102
        36.900
 123215477.615 5                  23447120.172
        35.700
 125327019.456 6                  23848937.656
        36.700
 112740353.060 8  87849637.82345  21453776.563                    21453779.266
        50.800          35.300
 119494348.244 6  93112494.17744  22739018.578                    22739023.918
        41.700          24.400
 112569928.286 8  87716808.24645  21421345.477                    21421348.602
        50.700          32.600
 115273492.068 8  89823478.43045  21935815.039                    21935817.410
        48.500          30.800
 18  3 15 11 23  1.0000000  0 14G20R09R01G24R16R17R18G08G11G30G28G10
                                G15G13
 125516204.877 5                  23884935.188
        33.700
                  80813814.718 6  19457784.414                    19457783.402
                        40.800
                  87896348.544 5  21140779.203                    21140780.758
                        33.500
 122516110.069 5                  23314045.289
        34.400
                  88383029.760 5  21272767.336                    21272770.848
                        31.400
                  86376196.264 6  20753302.563                    20753303.965
                        38.300
                  88083080.403 6  21215482.164                    21215483.410
                        36.000
 121133608.532 6                  23050960.484
        37.400
 123213272.299 5                  23446699.938
        35.200
 125330993.151 6                  23849693.211
        37.400
 112740969.963 8  87850118.52345  21453894.039                    21453896.813
        50.800          35.400
 119492814.714 6  93111299.22743  22738727.406                    22738731.746
        41.800          22.900
 112571374.327 8  87717935.03145  21421620.367                    21421623.523
        51.400          33.600
 115276476.521 8  89825803.99245  21936383.016                    21936385.789
        48.100          30.400
 18  3 15 11 23  2.0000000  0 14G20R09R01G24R16R17R18G08G11G30G28G10
                                G15G13
 125519977.530 5                  23885652.977
        31.500
                  80813550.756 6  19457719.969                    19457720.094
                        40.700
                  87894378.834 5  21140304.828                    21140307.809
                        33.700
 122512966.258 5                  23313447.156
        34.400
                  88386131.742 5  21273514.078                    21273517.387
                        31.600
                  86377477.854 6  20753610.211                    20753612.219
                        38.500
                  88081171.033 5  21215022.156                    21215023.336
                        35.800
 121136201.479 6                  23051453.180
        37.900
 123211067.477 6                  23446279.461
        36.300
 125334967.140 6                  23850449.781
        36.900
 112741587.478 8  87850599.70245  21454011.727                    21454014.066
        51.000          35.100
 119491281.810 7  93110104.74543  22738435.297                    22738440.316
        42.300          22.600
 112572821.033 8  87719062.32445  21421895.836                    21421898.629
        51.900          33.900
 115279461.540 8  89828129.97845  21936950.922                    21936954.098
        48.000          30.600
 18  3 15 11 23  3.0000000  0 15G20R09R10R01G24R16R17R18G08G11G30G28
                                G10G15G13
 125523750.486 5                  23886369.570
        35.400
                  80813287.446 6  19457657.102                    19457656.492
                        41.100
                                  22163027.055

                  87892409.689 5  21139830.328                    21139833.789
                        33.400
 122509822.688 5                  23312849.508
        33.700
                  88389234.075 5  21274261.328                    21274264.219
                        31.900
                  86378760.157 6  20753918.453                    20753920.152
                        38.400
                  88079262.210 6  21214561.477                    21214563.313
                        36.300
 121138794.906 6                  23051947.352
        38.300
 123208863.267 5                  23445860.281
        35.300
 125338941.337 6                  23851206.258
        36.900
 112742205.567 8  87851081.33445  21454129.070                    21454131.875
        50.800          35.200
 119489749.486 7  93108910.71144  22738143.258                    22738148.293
        42.400          24.800
 112574268.438 8  87720190.16745  21422170.391                    21422174.164
        50.800          33.200
 115282447.021 7  89830456.33845  21937518.867                    21937522.172
        47.800          30.200
 18  3 15 11 23  4.0000000  0 15G20R09R10R01G24R16R17R18G08G11G30G28
                                G10G15G13
 125527523.697 5                  23887087.758
        35.200
                  80813024.816 6  19457593.398                    19457593.328
                        40.900
                                  22162306.508

                  87890441.141 5  21139359.195                    21139360.613
                        33.500
 122506679.444 5                  23312251.734
        32.400
                  88392336.831 5  21275008.977                    21275011.168
                        32.100
                  86380043.229 6  20754225.586                    20754228.602
                        38.500
                  88077354.018 6  21214102.016                    21214103.484
                        36.700
 121141388.942 6                  23052441.211
        37.100
 123206659.587 6                  23445441.555
        36.500
 125342915.795 6                  23851962.422
        36.200
 112742824.298 8  87851563.45945  21454246.961                    21454249.645
        51.100          34.600
 119488217.765 7  93107717.11743  22737851.852                    22737856.875
        42.600          22.500
 112575716.523 8  87721318.53345  21422446.258                    21422449.477
        50.700          32.600
 115285433.067 7  89832783.13545  21938087.023                    21938090.313
        47.500          30.400
 18  3 15 11 23  5.0000000  0 15G20R09R10R01G24R16R17R18G08G11G30G28
                                G10G15G13
 125531297.294 5                  23887806.516
        33.300
                  80812762.864 6  19457530.938                    19457530.348
                        41.500
                                  22161589.805

                  87888473.085 5  21138883.727                    21138887.387
                        33.700
 122503536.592 5                  23311653.063
        33.700
                  88395440.004 5  21275755.383                    21275757.945
                        31.900
                  86381327.054 6  20754534.406                    20754537.422
                        38.200
                  88075446.430 5  21213641.773                    21213644.293
                        35.800
 121143983.542 6                  23052934.484
        37.600
 123204456.486 5                  23445022.109
        35.700
 125346890.466 6                  23852719.609
        36.400
 112743443.632 8  87852046.04645  21454365.023                    21454367.414
        50.800          34.800
 119486686.690 7  93106524.04643  22737560.141                    22737565.711
        42.500          22.900
 112577165.308 8  87722447.46545  21422722.711                    21422725.664
        50.500          31.000
 115288419.690 7  89835110.37545  21938655.273                    21938658.809
        46.900          30.200
 18  3 15 11 23  6.0000000  0 15G20R09R10R01G24R16R17R18G08G11G30G28
                                G10G15G13
 125535071.086 5                  23888524.516
        32.400
                  80812501.554 6  19457467.430                    19457467.574
                        40.700
                                  22160871.000

                  87886505.571 5  21138410.977                    21138413.641
                        33.700
 122500393.940 5                  23311054.695
        35.000
                  88398543.431 5  21276503.375                    21276505.133
                        31.900
                  86382611.556 6  20754842.438                    20754845.492
                        38.100
                  88073539.399 6  21213183.164                    21213185.039
                        36.700
 121146578.682 6                  23053428.422
        37.800
 123202253.906 6                  23444602.711
        36.300
 125350865.359 6                  23853475.719
        36.900
 112744063.568 8  87852529.11545  21454483.016                    21454485.336
        50.900          34.900
 119485156.173 7  93105331.43144  22737269.320                    22737274.547
        42.600          24.700
 112578614.748 8  87723576.91145  21422998.625                    21423001.293
        51.200          33.500
 115291406.803 7  89837437.99144  21939223.727                    21939227.297
        47.000          29.800
 18  3 15 11 23  7.0000000  0 15G20R09R10R01G24R16R17R18G08G11G30G28
                                G10G15G13
 125538845.177 5                  23889243.359
        34.000
                  80812240.911 6  19457404.805                    19457404.980
                        40.800
                  91875863.35514  22160153.406                    22160158.047
                        25.700
                  87884538.616 5  21137939.359                    21137940.383
                        34.100
 122497251.667 5                  23310456.875
        33.200
                  88401647.313 5  21277249.664                    21277251.473
                        32.600
                  86383896.766 6  20755151.805                    20755154.117
                        38.200
                  88071632.922 6  21212724.508                    21212726.301
                        36.000
 121149174.353 6                  23053922.445
        37.900
 123200051.861 5                  23444184.469
        35.700
 125354840.508 6                  23854232.547
        37.400
 112744684.072 8  87853012.62545  21454600.898                    21454603.301
        50.900          35.600
 119483626.259 6  93104139.30443  22736977.695                    22736983.273
        41.900          23.600
 112580064.873 8  87724706.87745  21423273.836                    21423277.098
        51.200          34.100
 115294394.406 7  89839765.97445  21939793.078                    21939795.656
        47.400          30.400
 18  3 15 11 23  8.0000000  0 15G20R09R10R01G24R16R17R18G08G11G30G28
                                G10G15G13
 125542619.661 5                  23889961.367
        34.600
                  80811980.958 6  19457342.273                    19457341.672
                        41.100
                  91872886.95514  22159436.875                    22159440.973
                        24.800
                  87882572.169 5  21137465.578                    21137467.996
                        34.500
 122494109.682 5                  23309858.867
        33.400
                  88404751.556 5  21277997.250                    21277999.250
                        32.200
                  86385182.743 6  20755460.977                    20755463.301
                        38.000
                  88069727.063 6  21212265.102                    21212266.781
                        36.200
 121151770.638 6                  23054416.055
        38.100
 123197850.362 6                  23443764.719
        36.000
 125358815.877 6                  23854989.703
        36.200
 112745305.209 8  87853496.62045  21454719.008                    21454721.387
        50.900          35.000
 119482096.963 6  93102947.64844  22736686.984                    22736692.445
        41.500          24.600
 112581515.706 8  87725837.38945  21423549.969                    21423553.422
        50.400          33.600
 115297382.563 8  89842094.40445  21940361.969                    21940364.566
        48.400          30.700
 18  3 15 11 23  9.0000000  0 15G20R09R10R01G24R16R17R18G08G11G30G28
                                G10G15G13
 125546394.402 5                  23890679.563
        34.100
                  80811721.692 6  19457279.695                    19457279.895
                        40.700
                  91869910.30614  22158719.305                    22158723.059
                        25.700
                  87880606.258 5  21136991.844                    21136995.391
                        35.000
 122490968.016 5                  23309260.594
        34.800
                  88407856.139 5  21278743.766                    21278746.191
                        31.800
                  86386469.443 6  20755771.109                    20755773.047
                        38.500
                  88067821.784 6  21211805.813                    21211807.883
                        36.000
 121154367.481 6                  23054910.219
        37.300
 123195649.481 5                  23443346.422
        35.600
 125362791.562 5                  23855744.547
        35.900
 112745926.957 8  87853981.10045  21454837.570                    21454839.930
        50.700          34.400
 119480568.281 7  93101756.48543  22736394.828                    22736401.547
        42.100          23.500
 112582967.201 8  87726968.42045  21423826.922                    21423829.676
        50.700          33.600
 115300371.234 8  89844423.24544  21940930.422                    21940933.113
        48.000          29.100
 18  3 15 11 23 10.0000000  0 15G20R09R10R01G24R16R17R18G08G11G30G28
                                G10G15G13
 125550169.468 5                  23891397.445
        33.400
                  80811463.063 6  19457217.680                    19457217.770
                        40.900
                  91866934.389 3  22157999.656                    22158005.277
                        23.900
                  87878640.943 5  21136519.672                    21136522.578
                        35.200
 122487826.676 5                  23308662.758
        32.400
                  88410961.108 5  21279490.414                    21279493.156
                        31.900
                  86387756.874 6  20756080.094                    20756081.754
                        38.300
                  88065917.117 6  21211347.930                    21211349.086
                        36.000
 121156964.865 6                  23055404.391
        37.300
 123193449.179 6                  23442927.031
        36.100
 125366767.398 6                  23856500.922
        37.000
 112746549.285 8  87854466.02445  21454955.695                    21454958.359
        51.000          34.900
 119479040.237 7  93100565.81943  22736105.195                    22736110.508
        42.400          22.900
 112584419.399 8  87728099.99845  21424103.227                    21424105.980
        50.900          33.500
 115303360.438 8  89846752.50945  21941498.805                    21941501.883
        49.100          30.400
 18  3 15 11 23 11.0000000  0 15G20R09R10R01G24R16R17R18G08G11G30G28
                                G10G15G13
 125553944.851 5                  23892115.797
        33.700
                  80811205.112 6  19457155.563                    19457154.957
                        40.800
                  91863958.772 3  22157281.391                    22157287.426
                        22.500
                  87876676.150 5  21136047.883                    21136049.449
                        34.600
 122484685.700 5                  23308065.273
        33.000
                  88414066.463 5  21280237.383                    21280241.699
                        32.800
                  86389045.020 6  20756389.859                    20756391.398
                        38.400
                  88064013.030 6  21210890.086                    21210890.629
                        36.200
 121159562.854 6                  23055898.867
        37.900
 123191249.374 5                  23442509.703
        34.800
 125370743.518 6                  23857259.156
        37.100
 112747172.271 8  87854951.46545  21455074.633                    21455076.750
        50.900          35.000
 119477512.831 7  93099375.63744  22735815.344                    22735819.672
        43.000          24.400
 112585872.282 8  87729232.11845  21424379.664                    21424382.664
        51.200          33.400
 115306350.203 8  89849082.22045  21942067.203                    21942070.934
        48.600          30.600
 18  3 15 11 23 12.0000000  0 15G20R09R10R01G24R16R17R18G08G11G30G28
                                G10G15G13
 125557720.598 5                  23892835.375
        35.400
                  80810947.841 6  19457093.781                    19457093.367
                        41.100
                  91860983.426 3  22156564.484                    22156569.875
                        23.000
                  87874711.887 5  21135574.430                    21135577.195
                        34.300
 122481545.009 5                  23307467.352
        32.900
                  88417172.254 5  21280984.211                    21280988.504
                        31.700
                  86390333.865 6  20756699.281                    20756701.344
                        38.100
                  88062109.555 5  21210431.016                    21210432.262
                        35.800
 121162161.370 6                  23056393.383
        37.700
 123189050.150 5                  23442091.258
        35.500
 125374719.895 6                  23858014.703
        36.000
 112747795.872 8  87855437.38145  21455193.109                    21455195.574
        50.700          34.400
 119475986.049 7  93098185.94144  22735524.609                    22735529.453
        43.500          25.300
 112587325.885 8  87730364.79645  21424655.781                    21424659.266
        51.000          33.400
 115309340.512 7  89851412.33445  21942636.680                    21942640.301
        47.800          30.400
 18  3 15 11 23 13.0000000  0 15G20R09R10R01G24R16R17R18G08G11G30G28
                                G10G15G13
 125561496.632 5                  23893553.563
        33.600
                  80810691.267 6  19457031.195                    19457031.422
                        41.200
                  91858008.401 3  22155846.617                    22155851.855
                        23.900
                  87872748.239 5  21135103.172                    21135104.617
                        34.400
 122478404.668 5                  23306869.719
        34.800
                  88420278.385 5  21281732.063                    21281736.074
                        31.900
                  86391623.509 6  20757008.586                    20757011.102
                        38.000
                  88060206.661 6  21209972.039                    21209973.781
                        36.000
 121164760.501 6                  23056887.070
        36.800
 123186851.518 5                  23441672.523
        35.000
 125378696.555 6                  23858771.516
        36.800
 112748420.101 8  87855923.79745  21455311.875                    21455314.430
        50.800          34.400
 119474459.915 7  93096996.72844  22735233.750                    22735238.977
        43.300          25.000
 112588780.162 8  87731497.99845  21424932.523                    21424935.875
        50.500          32.100
 115312331.395 7  89853742.88844  21943205.445                    21943209.148
        47.300          29.900
 18  3 15 11 23 14.0000000  0 15G20R09R10R01G24R16R17R18G08G11G30G28
                                G10G15G13
 125565272.948 5                  23894271.922
        31.800
                  80810435.356 6  19456970.508                    19456970.305
                        40.800
                  91855033.705 4  22155130.773                    22155134.680
                        26.600
                  87870785.063 5  21134628.250                    21134632.840
                        33.400
 122475264.660 5                  23306272.797
        34.400
                  88423384.957 5  21282480.656                    21282483.824
                        30.600
                  86392913.882 6  20757318.352                    20757320.891
                        38.100
                  88058304.415 5  21209514.305                    21209515.828
                        35.300
 121167360.211 6                  23057382.898
        37.000
 123184653.438 5                  23441254.227
        35.400
 125382673.423 5                  23859528.516
        35.800
 112749044.947 8  87856410.68945  21455430.953                    21455433.262
        50.600          34.700
 119472934.356 7  93095807.97244  22734943.445                    22734949.207
        42.500          26.000
 112590235.166 8  87732631.77245  21425209.469                    21425212.566
        51.500          33.600
 115315322.814 7  89856073.84344  21943775.047                    21943778.430
        47.300          29.400
 18  3 15 11 23 15.0000000  0 15G20R09R10R01G24R16R17R18G08G11G30G28
                                G10G15G13
 125569049.582 5                  23894990.633
        35.900
                  80810180.111 6  19456908.367                    19456908.574
                        40.800
                  91852059.113 3  22154412.922                    22154417.277
                        22.700
                  87868822.505 5  21134158.602                    21134160.367
                        32.900
 122472124.898 5                  23305674.859
        31.500
                  88426491.856 5  21283228.570                    21283231.762
                        30.500
                  86394204.971 6  20757628.445                    20757630.949
                        37.900
                  88056402.750 6  21209055.141                    21209057.246
                        36.000
 121169960.451 6                  23057877.258
        37.400
 123182455.950 6                  23440836.164
        36.300
 125386650.563 6                  23860285.633
        36.600
 112749670.421 8  87856898.07345  21455549.906                    21455552.422
        51.200          35.900
 119471409.395 6  93094619.67244  22734652.055                    22734658.570
        39.700          24.700
 112591690.879 8  87733766.09045  21425486.648                    21425490.039
        50.800          33.000
 115318314.754 8  89858405.19945  21944345.047                    21944347.988
        48.000          30.700
 18  3 15 11 23 16.0000000  0 15G20R09R10R01G24R16R17R18G08G11G30G28
                                G10G15G13
 125572826.713 5                  23895709.969
        34.000
                  80809925.594 6  19456847.250                    19456847.164
                        41.700
                  91849084.819 3  22153695.492                    22153700.023
                        22.100
                  87866860.505 5  21133687.461                    21133688.902
                        33.600
 122468985.577 5                  23305077.906
        33.600
                  88429599.239 5  21283975.813                    21283979.500
                        31.400
                  86395496.819 6  20757938.508                    20757941.195
                        37.300
                  88054501.726 6  21208598.516                    21208599.422
                        36.700
 121172561.307 6                  23058372.078
        37.200
 123180258.979 5                  23440417.766
        35.600
 125390627.972 6                  23861042.594
        37.900
 112750296.527 8  87857385.93646  21455668.859                    21455671.535
        51.600          36.300
 119469885.054 6  93093431.91344  22734362.500                    22734368.523
        40.600          24.700
 112593147.323 8  87734900.99745  21425763.656                    21425767.344
        49.300          31.900
 115321307.268 8  89860737.00545  21944914.188                    21944917.410
        48.100          31.100
 18  3 15 11 23 17.0000000  0 15G20R09R10R01G24R16R17R18G08G11G30G28
                                G10G15G13
 125576603.950 5                  23896429.383
        34.300
                  80809671.695 6  19456786.219                    19456786.000
                        41.500
                  91846110.931 3  22152977.977                    22152983.402
                        20.300
                  87864898.945 5  21133213.008                    21133217.430
                        33.400
 122465846.540 6                  23304480.602
        36.100
                  88432706.882 5  21284724.289                    21284727.117
                        31.500
                  86396789.368 6  20758249.852                    20758251.668
                        37.900
                  88052601.193 6  21208140.031                    21208141.953
                        36.800
 121175162.665 6                  23058867.086
        37.300
 123178062.636 5                  23439999.984
        35.200
 125394605.559 6                  23861799.508
        37.200
 112750923.207 8  87857874.25245  21455787.789                    21455790.340
        51.700          35.900
 119468361.363 7  93092244.65444  22734072.867                    22734078.438
        42.100          25.800
 112594604.332 8  87736036.33645  21426040.977                    21426044.355
        50.000          31.500
 115324300.281 8  89863069.21245  21945483.453                    21945486.730
        48.300          31.300
 18  3 15 11 23 18.0000000  0 15G20R09R10R01G24R16R17R18G08G11G30G28
                                G10G15G13
 125580381.507 5                  23897147.734
        32.000
                  80809418.462 6  19456725.406                    19456725.047
                        40.900
                                  22152261.273

                  87862937.996 6  21132743.344                    21132745.043
                        36.000
 122462707.771 5                  23303883.594
        33.200
                  88435814.922 5  21285472.805                    21285475.430
                        31.000
                  86398082.625 6  20758560.859                    20758563.039
                        38.000
                  88050701.234 5  21207682.953                    21207684.332
                        35.500
 121177764.661 6                  23059362.563
        38.000
 123175866.784 6                  23439583.016
        36.400
 125398583.411 5                  23862556.195
        35.200
 112751550.460 8  87858363.02145  21455907.531                    21455910.277
        51.000          34.900
 119466838.255 7  93091057.84344  22733783.563                    22733788.672
        43.000          24.400
 112596062.028 8  87737172.20445  21426318.594                    21426321.730
        51.500          33.600
 115327293.779 7  89865401.81444  21946053.320                    21946056.293
        47.300          29.800
 18  3 15 11 23 19.0000000  0 15G20R09R10R01G24R16R17R18G08G11G30G28
                                G10G15G13
 125584159.412 4                  23897867.523
        29.100
                  80809165.919 6  19456664.828                    19456664.410
                        40.900
                                  22151543.070

                  87860977.584 5  21132271.805                    21132273.859
                        34.300
 122459569.274 5                  23303284.391
        31.600
                  88438923.384 5  21286221.352                    21286223.605
                        31.800
                  86399376.619 6  20758871.891                    20758872.652
                        38.300
                  88048801.924 5  21207224.531                    21207227.004
                        35.000
 121180367.230 6                  23059858.156
        38.100
 123173671.443 5                  23439164.414
        35.800
 125402561.505 5                  23863312.531
        35.700
 112752178.361 8  87858852.30545  21456027.109                    21456029.473
        51.200          35.200
 119465315.801 7  93089871.53243  22733493.852                    22733499.242
        43.000          23.600
 112597520.453 8  87738308.63045  21426595.813                    21426599.020
        51.400          33.500
 115330287.857 7  89867734.88545  21946622.852                    21946626.074
        47.800          31.000
 18  3 15 11 23 20.0000000  0 15G20R09R10R01G24R16R17R18G08G11G30G28
                                G10G15G13
 125587937.539 5                  23898586.195
        32.800
                  80808914.033 6  19456603.727                    19456603.672
                        40.800
                                  22150825.258

                  87859017.686 5  21131800.258                    21131802.984
                        34.600
 122456431.112 5                  23302687.422
        33.600
                  88442032.226 5  21286968.727                    21286971.836
                        31.500
                  86400671.321 6  20759182.586                    20759184.699
                        37.900
                  88046903.209 6  21206767.828                    21206769.441
                        36.000
 121182970.284 6                  23060352.930
        37.900
 123171476.729 6                  23438746.430
        36.200
 125406539.833 6                  23864069.859
        36.500
 112752806.859 8  87859342.04445  21456146.438                    21456149.168
        50.900          35.300
 119463793.901 6  93088685.63244  22733203.141                    22733209.305
        41.900          24.400
 112598979.549 8  87739445.57945  21426873.828                    21426876.559
        50.600          31.900
 115333282.429 7  89870068.32945  21947192.758                    21947195.840
        47.800          31.300
 18  3 15 11 23 21.0000000  0 15G20R09R10R01G24R16R17R18G08G11G30G28
                                G10G15G13
 125591716.059 5                  23899304.453
        32.600
                  80808662.832 6  19456544.016                    19456543.543
                        40.900
                                  22150109.000

                  87857058.354 5  21131328.258                    21131331.414
                        34.900
 122453293.331 5                  23302090.656
        34.600
                  88445141.413 5  21287716.914                    21287720.066
                        31.600
                  86401966.806 6  20759493.938                    20759495.734
                        38.100
                  88045005.098 5  21206310.578                    21206312.410
                        35.600
 121185573.978 6                  23060848.727
        38.700
 123169282.568 6                  23438328.539
        36.700
 125410518.375 5                  23864827.563
        35.900
 112753435.990 8  87859832.28245  21456266.352                    21456268.977
        51.100          35.000
 119462272.692 6  93087500.26544  22732913.227                    22732919.855
        40.700          24.400
 112600439.354 8  87740583.08745  21427151.336                    21427154.559
        50.900          32.500
 115336277.580 8  89872402.22145  21947762.883                    21947765.848
        48.100          31.000
 18  3 15 11 23 22.0000000  0 15G20R09R10R01G24R16R17R18G08G11G30G28
                                G10G15G13
 125595494.887 5                  23900023.844
        34.700
                  80808412.265 6  19456483.156                    19456483.039
                        41.100
                                  22149392.383

                  87855099.609 5  21130857.891                    21130859.754
                        34.300
 122450155.813 5                  23301494.352
        35.100
                  88448251.032 5  21288466.945                    21288468.789
                        31.200
                  86403262.982 6  20759805.289                    20759807.551
                        37.900
                  88043107.555 5  21205854.195                    21205855.586
                        35.500
 121188178.157 6                  23061344.859
        39.000
 123167088.911 5                  23437910.789
        35.900
 125414497.169 6                  23865584.500
        36.600
 112754065.695 8  87860322.96045  21456386.320                    21456389.234
        51.000          35.400
 119460751.994 6  93086315.31543  22732624.469                    22732630.406
        41.700          23.900
 112601899.843 8  87741721.13845  21427429.055                    21427432.539
        50.200          32.100
 115339273.209 8  89874736.47745  21948332.820                    21948336.129
        48.200          30.700
 18  3 15 11 23 23.0000000  0 15G20R09R10R01G24R16R17R18G08G11G30G28
                                G10G15G13
 125599273.946 5                  23900743.102
        31.900
                  80808162.358 6  19456423.016                    19456422.918
                        40.900
                  91828275.07814  22148676.281                    22148679.941
                        28.300
                  87853141.410 5  21130386.695                    21130389.691
                        34.300
 122447018.670 5                  23300897.570
        35.600
                  88451360.983 5  21289214.617                    21289217.422
                        31.400
                  86404559.875 6  20760117.133                    20760118.980
                        38.200
                  88041210.563 5  21205396.367                    21205398.348
                        35.700
 121190782.916 6                  23061840.320
        38.300
 123164895.847 6                  23437494.289
        36.200
 125418476.235 5                  23866341.406
        35.400
 112754695.989 8  87860814.10145  21456506.242                    21456509.148
        51.100          35.100
 119459231.955 7  93085130.89644  22732336.109                    22732341.234
        43.000          25.000
 112603360.972 8  87742859.68145  21427707.086                    21427710.375
        51.400          33.700
 115342269.382 8  89877071.15945  21948902.539                    21948906.168
        48.300          30.700
 18  3 15 11 23 24.0000000  0 15G20R09R10R01G24R16R17R18G08G11G30G28
                                G10G15G13
 125603053.299 5                  23901462.133
        31.200
                  80807913.147 6  19456362.320                    19456362.750
                        41.000
                  91825302.95214  22147957.211                    22147963.555
                        27.300
                  87851183.770 5  21129915.258                    21129918.168
                        33.500
 122443881.837 5                  23300299.703
        34.300
                  88454471.289 5  21289963.875                    21289965.703
                        31.500
                  86405857.498 6  20760428.719                    20760430.891
                        38.100
                  88039314.207 5  21204940.086                    21204941.582
                        35.400
 121193388.311 6                  23062336.242
        38.900
 123162703.374 6                  23437076.813
        36.800
 125422455.463 5                  23867098.508
        34.900
 112755326.915 8  87861305.73045  21456626.141                    21456628.848
        51.100          35.000
 119457712.541 7  93083946.94444  22732047.063                    22732051.965
        43.400          24.400
 112604822.817 8  87743998.78145  21427985.406                    21427988.469
        52.200          33.900
 115345266.104 8  89879406.25645  21949473.266                    21949476.402
        48.000          31.600
 18  3 15 11 23 25.0000000  0 15G20R09R10R01G24R16R17R18G08G11G30G28
                                G10G15G13
 125606833.015 5                  23902181.477
        31.900
                  80807664.614 6  19456303.211                    19456303.063
                        40.900
                  91822330.59114  22147239.992                    22147246.055
                        28.900
                  87849226.702 5  21129444.711                    21129447.832
                        34.100
 122440745.189 5                  23299702.664
        31.500
                  88457581.986 5  21290712.844                    21290715.094
                        31.900
                  86407155.836 6  20760741.383                    20760742.699
                        38.400
                  88037418.459 6  21204484.070                    21204485.359
                        36.100
 121195994.268 6                  23062832.594
        38.900
 123160511.400 6                  23436659.469
        36.300
 125426434.968 6                  23867856.195
        36.200
 112755958.438 8  87861797.82345  21456746.352                    21456749.020
        51.600          35.500
 119456193.780 7  93082763.49244  22731757.875                    22731763.453
        42.200          25.600
 112606285.370 8  87745138.42745  21428263.758                    21428266.762
        51.900          33.300
 115348263.344 7  89881741.75745  21950043.242                    21950046.461
        47.800          31.200
 18  3 15 11 23 26.0000000  0 15G20R09R10R01G24R16R17R18G08G11G30G28
                                G10G15G13
 125610613.156 5                  23902900.219
        33.100
                  80807416.794 6  19456243.648                    19456242.898
                        40.600
                  91819359.100 5  22146523.656                    22146529.973
                        30.600
                  87847270.179 5  21128973.391                    21128977.348
                        32.400
 122437609.190 5                  23299106.773
        34.600
                  88460693.073 5  21291462.625                    21291463.430
                        31.200
                  86408454.956 6  20761053.039                    20761054.578
                        36.800
                  88035523.320 5  21204026.703                    21204028.422
                        35.300
 121198600.824 6                  23063327.797
        38.000
 123158320.071 6                  23436242.281
        36.100
 125430414.795 6                  23868613.898
        37.200
 112756590.661 8  87862290.46245  21456866.930                    21456869.445
        51.400          35.700
 119454675.653 6  93081580.50044  22731468.344                    22731474.406
        40.100          25.000
 112607748.653 8  87746278.63945  21428542.242                    21428545.297
        52.100          34.800
 115351261.186 7  89884077.72745  21950614.258                    21950616.922
        47.900          30.200
 18  3 15 11 23 27.0000000  0 15G20R09R10R01G24R16R17R18G08G11G30G28
                                G10G15G13
 125614393.502 6                  23903620.016
        36.900
                  80807169.632 6  19456184.266                    19456183.785
                        40.600
                  91816387.772 3  22145808.164                    22145812.797
                        22.700
                  87845314.237 5  21128504.648                    21128506.094
                        34.000
 122434473.187 5                  23298510.508
        31.600
                  88463804.532 5  21292210.461                    21292212.484
                        31.900
                  86409754.800 6  20761366.031                    20761367.250
                        37.500
                  88033628.742 5  21203571.375                    21203572.281
                        35.900
 121201207.888 6                  23063824.672
        38.500
 123156129.287 6                  23435826.586
        36.600
 125434394.803 6                  23869371.070
        36.000
 112757223.481 8  87862783.56245  21456987.031                    21456989.656
        51.200          35.700
 119453158.107 6  93080397.96244  22731178.484                    22731185.488
        38.800          24.300
 112609212.615 8  87747419.39545  21428821.320                    21428823.672
        51.600          33.200
 115354259.523 8  89886414.09045  21951185.367                    21951187.504
        48.500          31.400
 18  3 15 11 23 28.0000000  0 15G20R09R10R01G24R16R17R18G08G11G30G28
                                G10G15G13
 125618174.225 5                  23904340.125
        34.300
                  80806923.140 6  19456124.477                    19456124.223
                        40.600
                                  22145093.000

                  87843358.816 5  21128033.844                    21128036.789
                        34.600
 122431337.749 5                  23297913.883
        33.800
                  88466916.431 5  21292959.570                    21292960.957
                        31.300
                  86411055.351 6  20761678.281                    20761679.422
                        37.200
                  88031734.810 5  21203114.266                    21203115.797
                        35.800
 121203815.551 6                  23064320.586
        39.300
 123153939.091 6                  23435409.375
        36.000
 125438375.095 5                  23870128.313
        35.000
 112757856.902 8  87863277.14345  21457107.578                    21457110.492
        51.000          35.500
 119451641.058 6  93079215.83443  22730890.477                    22730897.125
        39.800          22.600
 112610677.252 8  87748560.67145  21429099.742                    21429102.848
        52.500          34.900
 115357258.416 8  89888750.89545  21951755.461                    21951758.457
        48.400          31.400
 18  3 15 11 23 29.0000000  0 15G20R09R10R01G24R16R17R18G08G11G30G28
                                G10G15G13
 125621955.229 5                  23905058.367
        34.600
                  80806677.326 6  19456065.766                    19456065.734
                        40.500
                                  22144376.844

                  87841403.909 5  21127562.320                    21127566.098
                        33.800
 122428202.454 5                  23297316.750
        34.600
                  88470028.694 5  21293708.461                    21293710.504
                        30.700
                  86412356.676 6  20761989.906                    20761992.469
                        37.000
                  88029841.461 5  21202658.695                    21202659.969
                        35.600
 121206423.849 6                  23064816.625
        38.100
 123151749.415 6                  23434992.656
        37.200
 125442355.636 5                  23870886.234
        35.900
 112758490.931 8  87863771.19045  21457228.094                    21457231.180
        51.300          35.300
 119450124.771 6  93078034.34244  22730602.883                    22730608.266
        39.600          24.700
 112612142.578 8  87749702.48445  21429378.641                    21429381.414
        52.500          33.600
 115360257.823 8  89891088.09645  21952326.672                    21952329.133
        48.600          31.500
 18  3 15 11 23 30.0000000  0 15G20R09R10R01G24R16R17R18G08G11G30G28
                                G10G15G13
 125625736.524 5                  23905777.797
        33.600
                  80806432.166 6  19456006.734                    19456006.164
                        40.500
                                  22143659.375

                  87839449.614 5  21127094.328                    21127096.016
                        34.000
 122425067.519 5                  23296721.188
        35.200
                  88473141.330 5  21294456.281                    21294459.664
                        31.900
                  86413658.680 6  20762302.219                    20762305.156
                        37.700
                  88027948.707 5  21202202.547                    21202203.910
                        35.800
 121209032.651 6                  23065312.758
        37.700
 123149560.329 6                  23434576.242
        37.400
 125446336.354 5                  23871643.758
        35.000
 112759125.567 8  87864265.71945  21457348.930                    21457351.676
        51.400          35.200
 119448609.075 6  93076853.27444  22730314.852                    22730319.363
        41.100          24.100
 112613608.596 8  87750844.84245  21429657.352                    21429660.473
        52.600          34.600
 115363257.766 8  89893425.73445  21952896.891                    21952899.738
        48.000          31.600
 18  3 15 11 23 31.0000000  0 15G20R09R10R01G24R16R17R18G08G11G30G28
                                G10G15G13
 125629518.194 5                  23906497.617
        32.300
                  80806187.717 6  19455947.297                    19455947.594
                        40.800
                                  22142942.289

                  87837495.803 5  21126623.133                    21126626.266
                        34.000
 122421932.978 5                  23296125.523
        35.400
                  88476254.373 5  21295207.297                    21295209.395
                        31.800
                  86414961.466 6  20762615.461                    20762617.820
                        37.600
                  88026056.540 5  21201747.617                    21201748.063
                        35.000
 121211642.073 6                  23065808.867
        37.500
 123147371.828 6                  23434159.531
        37.700
 125450317.356 5                  23872401.172
        34.800
 112759760.844 8  87864760.74045  21457469.820                    21457472.676
        51.300          35.800
 119447094.032 6  93075672.71143  22730025.984                    22730031.250
        41.300          23.000
 112615075.328 8  87751987.75145  21429936.320                    21429939.672
        51.500          34.200
 115366258.267 7  89895763.78945  21953467.742                    21953471.160
        47.800          30.600
 18  3 15 11 23 32.0000000  0 15G20R09R10R01G24R16R17R18G08G11G30G28
                                G10G15G13
 125633300.044 5                  23907216.914
        34.700
                  80805943.950 6  19455888.625                    19455889.023
                        40.700
                                  22142224.180

                  87835542.595 5  21126154.117                    21126156.434
                        34.000
 122418798.758 5                  23295529.133
        35.000
                  88479367.757 5  21295955.203                    21295958.473
                        32.500
                  86416264.981 6  20762928.148                    20762930.773
                        37.700
                  88024164.958 5  21201291.977                    21201292.387
                        35.600
 121214252.035 6                  23066305.930
        36.900
 123145183.875 6                  23433743.563
        37.800
 125454298.646 5                  23873158.555
        35.600
 112760396.703 8  87865256.22445  21457590.742                    21457593.461
        51.300          35.200
 119445579.591 6  93074492.60643  22729738.219                    22729743.441
        41.400          23.000
 112616542.731 8  87753131.18145  21430216.008                    21430218.934
        51.600          33.800
 115369259.297 7  89898102.24844  21954038.727                    21954042.480
        47.700          29.600
 18  3 15 11 23 33.0000000  0 15G20R09R10R01G24R16R17R18G08G11G30G28
                                G10G15G13
 125637082.235 6                  23907936.461
        36.100
                  80805700.818 6  19455830.617                    19455829.902
                        40.800
                  91798570.11714  22141509.180                    22141514.727
                        24.400
                  87833589.879 5  21125683.055                    21125686.672
                        33.800
 122415664.842 5                  23294931.766
        33.100
                  88482481.532 5  21296705.375                    21296708.047
                        31.900
                  86417569.198 6  20763242.367                    20763244.438
                        37.700
                  88022273.991 5  21200836.625                    21200837.473
                        35.300
 121216862.510 6                  23066802.602
        36.500
 123142996.445 6                  23433326.609
        37.200
 125458280.142 5                  23873916.031
        35.700
 112761033.166 8  87865752.16946  21457711.883                    21457714.422
        51.200          36.000
 119444065.735 6  93073312.97543  22729449.602                    22729455.180
        40.800          23.500
 112618010.835 8  87754275.15645  21430495.219                    21430498.672
        51.500          33.300
 115372260.848 8  89900441.10845  21954610.727                    21954613.039
        48.000          31.000
 18  3 15 11 23 34.0000000  0 15G20R09R10R01G24R16R17R18G08G11G30G28
                                G10G15G13
 125640864.775 5                  23908656.008
        35.800
                  80805458.328 6  19455771.563                    19455772.059
                        40.700
                  91795600.71814  22140793.836                    22140798.500
                        24.600
                  87831637.707 5  21125214.539                    21125216.598
                        33.800
 122412531.195 5                  23294335.352
        32.300
                  88485595.652 5  21297454.180                    21297456.820
                        31.900
                  86418874.085 6  20763556.281                    20763557.676
                        37.800
                  88020383.575 5  21200379.969                    21200382.078
                        35.700
 121219473.518 6                  23067299.656
        36.000
 123140809.543 6                  23432910.266
        37.500
 125462261.849 6                  23874674.203
        36.300
 112761670.217 8  87866248.57545  21457832.875                    21457835.500
        51.100          35.700
 119442552.488 6  93072133.82443  22729161.328                    22729166.727
        40.800          23.900
 112619479.579 8  87755419.63745  21430774.992                    21430777.914
        51.800          33.600
 115375262.898 8  89902780.36245  21955181.797                    21955184.500
        48.300          30.600
 18  3 15 11 23 35.0000000  0 15G20R09R10R01G24R16R17R18G08G11G30G28
                                G10G15G13
 125644647.577 5                  23909376.227
        35.700
                  80805216.515 6  19455714.078                    19455713.844
                        40.900
                  91792631.06413  22140078.313                    22140082.707
                        23.800
                  87829686.108 5  21124745.375                    21124747.777
                        33.900
 122409397.870 4                  23293737.234
        28.600
                  88488710.185 5  21298204.164                    21298206.715
                        31.800
                  86420179.702 6  20763871.008                    20763872.016
                        37.700
                  88018493.735 5  21199925.078                    21199926.273
                        35.200
 121222085.142 6                  23067795.719
        36.100
 123138623.198 6                  23432494.695
        37.600
 125466243.810 6                  23875431.859
        36.400
 112762307.879 8  87866745.45245  21457954.508                    21457957.340
        50.900          35.300
 119441039.819 6  93070955.13144  22728874.227                    22728879.742
        41.000          24.300
 112620949.002 8  87756564.64645  21431054.109                    21431057.594
        51.600          33.800
 115378265.466 8  89905120.03045  21955752.898                    21955755.887
        48.900          31.100
 18  3 15 11 23 36.0000000  0 15G20R09R10R01G24R16R17R18G08G11G30G28
                                G10G15G13
 125648430.659 6                  23910096.367
        36.200
                  80804975.356 6  19455655.344                    19455655.418
                        40.900
                  91789662.167 3  22139363.031                    22139366.336
                        22.100
                  87827734.994 5  21124275.656                    21124278.242
                        33.300
 122406265.32814                  23293140.883
        27.300
                  88491825.057 5  21298955.586                    21298956.945
                        31.500
                  86421486.042 6  20764184.727                    20764185.684
                        37.900
                  88016604.491 5  21199470.234                    21199471.613
                        35.100
 121224697.273 5                  23068292.484
        35.900
 123136437.461 6                  23432078.727
        36.900
 125470225.968 6                  23876190.234
        36.400
 112762946.107 8  87867242.77045  21458076.008                    21458078.695
        50.500          35.500
 119439527.787 6  93069776.93743  22728586.086                    22728591.594
        40.900          23.600
 112622419.087 8  87757710.17045  21431334.039                    21431337.500
        51.300          33.400
 115381268.544 8  89907460.09045  21956324.195                    21956327.820
        49.200          30.500
 18  3 15 11 23 37.0000000  0 15G20R09R10R01G24R16R17R18G08G11G30G28
                                G10G15G13
 125652214.096 5                  23910816.438
        35.300
                  80804734.875 6  19455597.953                    19455597.074
                        40.800
                  91786693.531 3  22138645.828                    22138650.301
                        22.100
                  87825784.513 5  21123806.445                    21123808.906
                        34.100
 122403132.104 5                  23292545.906
        32.500
                  88494940.308 5  21299705.266                    21299705.855
                        31.700
                  86422793.135 6  20764498.781                    20764499.734
                        37.900
                  88014715.901 5  21199014.727                    21199016.918
                        35.200
 121227309.987 6                  23068790.133
        36.000
 123134252.238 6                  23431662.133
        37.300
 125474208.324 6                  23876946.625
        36.400
 112763584.977 8  87867740.59145  21458197.805                    21458200.031
        50.900          35.400
 119438016.357 6  93068599.19244  22728298.563                    22728304.152
        40.600          24.300
 112623889.865 8  87758856.23145  21431614.156                    21431616.715
        52.100          33.800
 115384272.160 8  89909800.58345  21956895.969                    21956899.191
        49.000          30.900
 18  3 15 11 23 38.0000000  0 15G20R09R10R01G24R16R17R18G08G11G30G28
                                G10G15G13
 125655997.823 5                  23911536.375
        35.100
                  80804495.032 6  19455540.367                    19455539.926
                        40.800
                  91783725.106 3  22137930.367                    22137933.898
                        22.800
                  87823834.509 5  21123337.586                    21123340.570
                        34.000
 122399999.681 5                  23291950.141
        34.600
                  88498055.887 5  21300454.016                    21300456.301
                        30.600
                  86424100.920 6  20764812.047                    20764813.871
                        37.800
                  88012827.857 5  21198560.250                    21198562.441
                        35.100
 121229923.169 6                  23069287.430
        36.400
 123132067.524 6                  23431247.086
        37.300
 125478190.947 5                  23877705.094
        35.800
 112764224.420 8  87868238.86145  21458319.070                    21458321.984
        51.000          35.900
 119436505.520 6  93067421.90944  22728010.172                    22728016.906
        40.900          24.300
 112625361.314 8  87760002.81345  21431893.656                    21431897.152
        52.200          34.900
 115387276.281 8  89912141.45545  21957467.313                    21957470.813
        48.300          30.000
 18  3 15 11 23 39.0000000  0 15G20R09R10R01G24R16R17R18G08G11G30G28
                                G10G15G13
 125659781.777 6                  23912256.813
        36.100
                  80804255.868 6  19455482.695                    19455482.594
                        40.700
                  91780756.876 3  22137213.039                    22137218.473
                        22.500
                  87821885.063 5  21122868.328                    21122870.953
                        34.200
 122396867.593 5                  23291354.328
        32.600
                  88501171.838 5  21301204.125                    21301206.043
                        31.200
                  86425409.436 6  20765125.984                    20765128.121
                        37.900
                  88010940.393 5  21198105.672                    21198108.074
                        35.500
 121232537.069 5                  23069785.172
        35.800
 123129883.394 6                  23430831.180
        37.000
 125482173.818 5                  23878463.391
        35.400
 112764864.495 8  87868737.61545  21458441.047                    21458443.781
        51.000          35.400
 119434995.293 6  93066245.10443  22727722.992                    22727729.230
        41.200          23.400
 112626833.456 8  87761149.93245  21432174.125                    21432177.172
        51.400          34.600
 115390280.948 8  89914482.74545  21958039.023                    21958042.387
        48.000          30.200
 18  3 15 11 23 40.0000000  0 15G20R09R10R01G24R16R17R18G08G11G30G28
                                G10G15G13
 125663566.130 5                  23912977.125
        35.200
                  80804017.388 6  19455425.250                    19455425.445
                        40.600
                  91777789.024 3  22136497.133                    22136502.508
                        21.900
                  87819936.155 5  21122399.844                    21122402.508
                        34.600
 122393735.830 5                  23290758.555
        34.800
                  88504288.250 5  21301954.289                    21301955.859
                        30.900
                  86426718.703 6  20765440.680                    20765443.027
                        37.800
                  88009053.539 5  21197651.922                    21197652.949
                        35.200
 121235151.502 5                  23070283.547
        35.400
 123127699.865 6                  23430416.117
        36.500
 125486156.907 6                  23879221.172
        36.100
 112765505.167 8  87869236.83845  21458562.984                    21458565.477
        51.100          35.400
 119433485.704 6  93065068.80544  22727436.477                    22727441.895
        41.900          24.400
 112628306.283 8  87762297.58645  21432454.203                    21432457.449
        51.400          34.500
 115393286.164 7  89916824.46745  21958611.031                    21958614.316
        47.800          30.600
 18  3 15 11 23 41.0000000  0 15G20R09R10R01G24R16R17R18G08G11G30G28
                                G10G15G13
 125667350.784 5                  23913696.727
        34.400
                  80803779.598 6  19455368.102                    19455367.707
                        40.900
                  91774821.492 4  22135780.953                    22135786.750
                        24.400
                  87817987.850 5  21121931.453                    21121933.895
                        34.100
 122390604.372 5                  23290162.227
        32.800
                  88507405.034 5  21302704.758                    21302706.336
                        31.900
                  86428028.701 6  20765756.414                    20765757.270
                        37.900
                  88007167.274 5  21197196.641                    21197199.023
                        35.600
 121237766.445 5                  23070780.719
        35.400
 123125516.862 5                  23430001.336
        35.500
 125490140.287 5                  23879979.406
        33.600
 112766146.473 8  87869736.56245  21458684.797                    21458687.539
        51.000          35.500
 119431976.733 7  93063892.97943  22727149.461                    22727154.551
        42.300          22.900
 112629779.797 8  87763445.77745  21432734.469                    21432738.070
        51.900          34.600
 115396291.919 8  89919166.60545  21959183.250                    21959186.117
        48.500          31.200
 18  3 15 11 23 42.0000000  0 15G20R09R10R01G24R16R17R18G08G11G30G28
                                G10G15G13
 125671135.654 5                  23914417.266
        34.300
                  80803542.462 6  19455311.219                    19455310.250
                        40.800
                  91771854.164 4  22135066.039                    22135071.332
                        25.800
                  87816040.044 5  21121462.383                    21121466.043
                        34.600
 122387473.271 5                  23289566.164
        31.900
                  88510522.157 5  21303454.531                    21303457.004
                        32.200
                  86429339.400 6  20766070.266                    20766072.141
                        38.000
                  88005281.606 6  21196742.641                    21196744.125
                        36.400
 121240381.928 6                  23071278.078
        36.200
 123123334.438 6                  23429585.031
        36.400
 125494123.824 5                  23880736.828
        35.800
 112766788.382 8  87870236.74645  21458807.023                    21458809.715
        50.900          35.900
 119430468.347 6  93062717.60444  22726861.781                    22726868.066
        41.300          24.900
 112631253.994 8  87764594.50545  21433014.914                    21433018.617
        52.300          34.900
 115399298.158 8  89921509.12545  21959755.133                    21959758.410
        48.800          30.300
 18  3 15 11 23 43.0000000  0 15G20R09R10R01G24R16R17R18G08G11G30G28
                                G10G15G13
 125674920.929 5                  23915136.969
        34.000
                  80803305.993 6  19455253.945                    19455254.277
                        40.800
                  91768887.147 4  22134351.086                    22134356.035
                        24.500
                  87814092.811 5  21120994.117                    21120997.535
                        34.700
 122384342.331 5                  23288970.094
        32.500
                  88513639.622 5  21304203.641                    21304207.586
                        31.600
                  86430650.821 6  20766385.563                    20766387.797
                        38.100
                  88003396.519 6  21196288.273                    21196290.336
                        36.700
 121242998.058 5                  23071776.336
        35.000
 123121152.559 6                  23429170.672
        36.000
 125498107.637 5                  23881495.031
        32.600
 112767430.871 8  87870737.38545  21458929.500                    21458932.246
        51.300          35.500
 119428960.601 6  93061542.72843  22726574.742                    22726581.039
        40.700          22.500
 112632728.870 8  87765743.76245  21433295.727                    21433298.977
        52.100          34.800
 115402304.945 8  89923852.06745  21960327.414                    21960330.379
        48.900          31.500
 18  3 15 11 23 44.0000000  0 15G20R09R10R01G24R16R17R18G08G11G30G28
                                G10G15G13
 125678706.463 5                  23915857.234
        34.300
                  80803070.175 6  19455196.484                    19455197.348
                        40.800
                  91765920.355 4  22133635.273                    22133640.293
                        26.000
                  87812146.131 5  21120527.219                    21120529.141
                        35.100
 122381211.891 5                  23288375.375
        33.300
                  88516757.487 5  21304953.648                    21304957.762
                        30.100
                  86431962.943 6  20766701.203                    20766702.309
                        37.400
                  88001512.021 5  21195834.586                    21195836.387
                        35.800
 121245614.628 6                  23072273.641
        37.100
 123118971.229 6                  23428754.586
        36.500
 125502091.710 5                  23882252.750
        35.500
 112768073.980 8  87871238.50945  21459051.891                    21459054.816
        51.100          35.900
 119427453.403 6  93060368.29944  22726288.344                    22726294.238
        40.900          24.200
 112634204.433 8  87766893.54845  21433576.469                    21433579.676
        51.800          34.300
 115405312.227 8  89926195.41345  21960899.555                    21960902.563
        48.600          31.900
 18  3 15 11 23 45.0000000  0 15G20R09R10R01G24R16R17R18G08G11G30G28
                                G10G15G13
 125682492.326 5                  23916577.555
        34.300
                  80802835.052 6  19455140.148                    19455139.906
                        40.800
                  91762953.870 4  22132920.219                    22132924.961
                        24.300
                  87810199.979 5  21120057.227                    21120061.410
                        35.200
 122378081.737 5                  23287779.711
        31.300
                  88519875.749 5  21305704.508                    21305707.969
                        30.900
                  86433275.810 6  20767016.406                    20767017.988
                        37.700
                  87999628.111 6  21195380.563                    21195382.711
                        36.500
 121248231.847 6                  23072772.664
        37.100
 123116790.496 6                  23428340.203
        36.900
 125506075.980 5                  23883011.055
        35.000
 112768717.699 8  87871740.10846  21459174.305                    21459177.293
        50.900          36.100
 119425946.874 6  93059194.41643  22726001.945                    22726007.215
        41.700          23.400
 112635680.694 8  87768043.87745  21433857.688                    21433860.535
        52.100          34.900
 115408320.090 8  89928539.21445  21961471.789                    21961475.125
        48.100          31.100
 18  3 15 11 23 46.0000000  0 15G20R09R10R01G24R16R17R18G08G11G30G28
                                G10G15G13
 125686278.486 5                  23917298.602
        33.800
                  80802600.601 6  19455083.875                    19455083.703
                        40.900
                  91759987.620 3  22132203.914                    22132209.227
                        23.200
                  87808254.467 5  21119590.867                    21119593.270
                        34.700
 122374951.883 5                  23287183.875
        31.000
                  88522994.366 4  21306456.445                    21306458.734
                        29.600
                  86434589.414 6  20767331.938                    20767333.539
                        37.800
                  87997744.819 5  21194927.969                    21194929.199
                        35.500
 121250849.635 6                  23073270.406
        37.000
 123114610.296 5                  23427925.500
        35.500
 125510060.520 5                  23883769.617
        34.900
 112769362.060 8  87872242.20846  21459296.805                    21459299.910
        51.200          36.500
 119424441.019 7  93058021.02743  22725716.266                    22725720.645
        42.900          22.900
 112637157.635 8  87769194.73545  21434138.781                    21434141.859
        52.200          34.700
 115411328.443 8  89930883.38645  21962044.570                    21962047.473
        48.700          31.900
 18  3 15 11 23 47.0000000  0 15G20R09R10R01G24R16R17R18G08G11G30G28
                                G10G15G13
 125690064.955 5                  23918018.781
        34.800
                  80802366.849 6  19455027.383                    19455027.402
                        40.700
                  91757021.617 3  22131487.266                    22131493.523
                        22.500
                  87806309.439 5  21119122.078                    21119125.801
                        34.700
 122371822.320 4                  23286588.211
        29.900
                  88526113.366 5  21307207.742                    21307209.801
                        30.600
                  86435903.771 6  20767647.688                    20767649.527
                        37.400
                  87995862.115 5  21194474.188                    21194475.527
                        35.800
 121253468.028 6                  23073768.484
        36.900
 123112430.726 5                  23427510.500
        35.200
 125514045.325 5                  23884527.625
        34.900
 112770007.030 8  87872744.77646  21459419.586                    21459422.594
        50.900          36.600
 119422935.768 7  93056848.09943  22725429.836                    22725434.438
        43.100          22.500
 112638635.304 8  87770346.16645  21434419.906                    21434422.902
        52.400          34.400
 115414337.387 7  89933228.02145  21962616.867                    21962620.176
        47.800          32.100
 18  3 15 11 23 48.0000000  0 15G20R09R10R01G24R16R17R18G08G11G30G28
                                G10G15G13
 125693851.800 5                  23918739.531
        34.100
                  80802133.738 6  19454971.406                    19454971.164
                        40.900
                  91754055.874 3  22130772.438                    22130778.281
                        22.300
                  87804364.950 5  21118654.414                    21118657.496
                        34.200
 122368693.056 5                  23285992.680
        31.000
                  88529232.764 5  21307958.023                    21307959.859
                        30.600
                  86437218.850 6  20767963.797                    20767965.047
                        37.200
                  87993980.023 5  21194020.453                    21194022.832
                        35.600
 121256086.939 6                  23074267.188
        36.300
 123110251.665 5                  23427095.703
        35.300
 125518030.350 5                  23885286.086
        35.500
 112770652.584 8  87873247.80246  21459542.484                    21459545.004
        50.900          36.200
 119421431.134 7  93055675.63744  22725142.867                    22725147.945
        42.600          24.000
 112640113.630 8  87771498.10545  21434701.039                    21434704.328
        52.600          35.000
 115417346.813 7  89935573.02145  21963189.969                    21963192.445
        47.900          32.200
 18  3 15 11 23 49.0000000  0 15G20R09R10R01G24R16R17R18G08G11G30G28
                                G10G15G13
 125697638.776 5                  23919461.445
        35.000
                  80801901.246 6  19454915.453                    19454914.859
                        40.900
                  91751090.366 4  22130058.016                    22130062.934
                        26.400
                  87802421.025 5  21118188.570                    21118190.129
                        34.100
 122365564.163 5                  23285397.555
        32.800
                  88532352.511 4  21308709.109                    21308711.504
                        29.100
                  86438534.585 6  20768279.992                    20768281.574
                        37.200
                  87992098.454 5  21193566.836                    21193569.395
                        34.900
 121258706.359 6                  23074765.906
        37.600
 123108073.091 5                  23426680.031
        35.500
 125522015.544 5                  23886044.273
        35.100
 112771298.680 8  87873751.25546  21459665.188                    21459668.211
        50.500          36.300
 119419927.026 6  93054503.57943  22724855.859                    22724862.117
        41.200          22.900
 112641592.567 8  87772650.52945  21434982.406                    21434985.754
        52.300          34.500
 115420356.719 7  89937918.39545  21963762.609                    21963765.930
        47.900          32.400
 18  3 15 11 23 50.0000000  0 15G20R09R10R01G24R16R17R18G08G11G30G28
                                G10G15G13
 125701426.071 5                  23920181.023
        34.500
                  80801669.381 6  19454860.266                    19454860.098
                        40.800
                  91748125.104 4  22129343.742                    22129347.961
                        25.800
                  87800477.533 5  21117718.992                    21117722.953
                        34.500
 122362435.558 5                  23284802.578
        32.900
                  88535472.617 4  21309459.742                    21309462.383
                        28.300
                  86439850.990 6  20768596.344                    20768597.676
                        37.500
                  87990217.441 5  21193112.977                    21193115.773
                        34.900
 121261326.265 6                  23075264.523
        37.400
 123105895.064 5                  23426267.180
        35.600
 125526000.950 5                  23886802.828
        34.900
 112771945.356 8  87874255.16446  21459788.352                    21459791.305
        50.500          36.300
 119418423.502 6  93053331.98643  22724568.406                    22724575.941
        39.200          23.200
 112643072.159 8  87773803.45245  21435264.305                    21435267.105
        52.100          34.400
 115423367.113 8  89940264.14745  21964335.281                    21964338.281
        48.300          31.400
 18  3 15 11 23 51.0000000  0 15G20R09R10R01G24R16R17R18G08G11G30G28
                                G10G15G13
 125705213.612 5                  23920900.977
        34.400
                  80801438.189 6  19454803.852                    19454803.641
                        41.200
                  91745160.118 4  22128627.297                    22128632.566
                        26.500
                  87798534.645 5  21117252.609                    21117255.242
                        34.700
 122359307.136 5                  23284206.961
        32.600
                  88538593.041 4  21310209.906                    21310212.824
                        29.300
                  86441168.142 6  20768912.648                    20768913.809
                        38.000
                  87988336.996 5  21192660.656                    21192663.648
                        35.000
 121263946.761 6                  23075763.039
        37.700
 123103717.562 5                  23425852.641
        35.200
 125529986.569 5                  23887560.766
        34.800
 112772592.622 8  87874759.52946  21459911.609                    21459914.578
        50.500          36.500
 119416920.470 6  93052160.80344  22724282.211                    22724289.305
        39.100          24.000
 112644552.438 8  87774956.91145  21435545.734                    21435548.957
        52.100          34.800
 115426378.037 8  89942610.32345  21964908.445                    21964911.469
        48.700          31.400
 18  3 15 11 23 52.0000000  0 15G20R09R10R01G24R16R17R18G08G11G30G28
                                G10G15G13
 125709001.509 5                  23921621.703
        34.400
                  80801207.701 6  19454748.063                    19454747.863
                        40.900
                  91742195.424 4  22127911.867                    22127917.262
                        25.700
                  87796592.292 5  21116786.109                    21116788.055
                        33.900
 122356179.058 5                  23283611.289
        31.600
                  88541713.849 4  21310961.945                    21310964.531
                        29.100
                  86442486.022 6  20769229.695                    20769230.891
                        37.500
                  87986457.177 5  21192207.477                    21192210.211
                        35.400
 121266567.868 6                  23076261.570
        37.100
 123101540.660 5                  23425438.250
        35.300
 125533972.446 5                  23888319.617
        34.900
 112773240.521 8  87875264.39346  21460034.953                    21460037.582
        50.300          36.200
 119415418.180 6  93050990.23844  22723998.352                    22724003.602
        40.600          24.400
 112646033.394 8  87776110.89945  21435827.680                    21435830.863
        52.100          34.500
 115429389.477 8  89944956.90245  21965481.656                    21965484.887
        48.500          30.700
 18  3 15 11 23 53.0000000  0 15G20R09R10R01G24R16R17R18G08G11G30G28
                                G10G15G13
 125712789.759 5                  23922342.648
        34.300
                  80800977.876 6  19454692.922                    19454692.906
                        41.100
                  91739231.022 4  22127197.938                    22127202.195
                        25.700
                  87794650.483 5  21116318.031                    21116321.121
                        34.600
 122353051.418 5                  23283016.859
        31.600
                  88544835.008 5  21311713.750                    21311715.801
                        30.200
                  86443804.618 6  20769547.313                    20769547.840
                        37.500
                  87984577.997 5  21191755.172                    21191758.168
                        35.000
 121269189.464 6                  23076760.180
        36.700
 123099364.333 5                  23425023.984
        35.000
 125537958.567 5                  23889077.648
        34.600
 112773889.031 8  87875769.72646  21460158.492                    21460160.949
        50.700          36.000
 119413916.523 7  93049820.14743  22723713.578                    22723718.164
        42.800          23.000
 112647515.072 8  87777265.45445  21436109.633                    21436113.020
        52.500          34.300
 115432401.467 8  89947303.90745  21966054.672                    21966057.703
        49.000          30.200
 18  3 15 11 23 54.0000000  0 15G20R09R10R01G24R16R17R18G08G11G30G28
                                G10G15G13
 125716578.205 5                  23923064.586
        34.300
                  80800748.683 6  19454637.922                    19454637.859
                        41.000
                  91736266.804 4  22126483.125                    22126488.176
                        25.700
                  87792709.183 5  21115851.375                    21115854.742
                        34.100
 122349924.011 5                  23282420.859
        31.000
                  88547956.532 4  21312465.734                    21312466.938
                        28.700
                  86445123.915 6  20769864.336                    20769865.094
                        38.100
                  87982699.413 5  21191303.016                    21191305.934
                        35.000
 121271811.639 6                  23077259.953
        36.500
 123097188.501 5                  23424609.852
        35.900
 125541944.897 5                  23889836.461
        34.500
 112774538.108 8  87876275.49946  21460281.711                    21460284.613
        51.000          36.200
 119412415.458 7  93048650.49444  22723428.063                    22723432.652
        43.600          24.600
 112648997.376 8  87778420.49945  21436391.875                    21436394.887
        52.600          34.500
 115435413.963 8  89949651.31245  21966627.969                    21966631.145
        48.600          30.600
 18  3 15 11 23 55.0000000  0 15G20R09R10R01G24R16R17R18G08G11G30G28
                                G10G15G13
 125720367.058 5                  23923785.297
        33.900
                  80800520.259 6  19454582.867                    19454582.715
                        41.300
                  91733302.961 4  22125767.289                    22125772.484
                        25.300
                  87790768.543 5  21115383.789                    21115387.027
                        34.400
 122346796.936 5                  23281825.180
        30.800
                  88551078.548 4  21313216.758                    21313218.711
                        29.600
                  86446444.016 6  20770181.695                    20770182.410
                        38.100
                  87980821.472 5  21190850.766                    21190853.285
                        35.200
 121274434.454 6                  23077758.070
        36.900
 123095013.333 6                  23424195.945
        36.000
 125545931.508 5                  23890595.211
        33.900
 112775187.885 8  87876781.81445  21460405.484                    21460407.992
        51.100          35.900
 119410915.088 7  93047481.35544  22723141.734                    22723147.113
        43.200          24.300
 112650480.485 8  87779576.17045  21436674.016                    21436677.016
        52.300          34.700
 115438427.063 8  89951999.18345  21967201.242                    21967204.656
        48.800          30.600
 18  3 15 11 23 56.0000000  0 15G20R09R10R01G24R16R17R18G08G11G30G28
                                G10G15G13
 125724156.294 5                  23924506.914
        34.400
                  80800292.507 6  19454527.734                    19454528.332
                        40.900
                  91730339.377 3  22125053.219                    22125057.441
                        22.300
                  87788828.485 5  21114918.523                    21114921.102
                        33.700
 122343670.389 5                  23281230.391
        30.500
                  88554200.938 5  21313968.523                    21313969.559
                        30.000
                  86447764.885 6  20770497.492                    20770499.434
                        37.700
                  87978944.117 5  21190398.680                    21190401.207
                        35.700
 121277057.866 6                  23078257.484
        36.200
 123092838.752 5                  23423782.281
        35.800
 125549918.476 5                  23891353.922
        35.100
 112775838.316 8  87877288.64546  21460529.008                    21460531.867
        51.000          36.300
 119409415.389 7  93046312.71543  22722855.828                    22722861.250
        42.300          23.400
 112651964.294 8  87780732.38545  21436956.211                    21436959.691
        53.000          35.100
 115441440.724 8  89954347.49045  21967774.656                    21967778.203
        49.200          31.200
 18  3 15 11 23 57.0000000  0 15G20R09R10R01G24R16R17R18G08G11G30G28
                                G10G15G13
 125727945.766 5                  23925226.969
        34.100
                  80800065.430 6  19454473.539                    19454473.340
                        41.100
                  91727376.052 3  22124338.227                    22124342.852
                        22.100
                  87786888.987 5  21114452.063                    21114454.977
                        34.700
 122340544.024 5                  23280635.984
        31.600
                  88557323.728 4  21314718.945                    21314721.426
                        28.300
                  86449086.469 6  20770815.258                    20770817.148
                        37.500
                  87977067.391 5  21189947.727                    21189949.668
                        35.300
 121279681.857 6                  23078757.086
        36.200
 123090664.766 5                  23423368.398
        35.200
 125553905.641 5                  23892112.875
        34.300
 112776489.330 8  87877795.92346  21460653.164                    21460655.840
        51.200          36.700
 119407916.245 6  93045144.52944  22722569.922                    22722576.449
        41.700          24.500
 112653448.768 8  87781889.12445  21437238.609                    21437242.145
        52.600          34.700
 115444454.925 8  89956696.21445  21968348.070                    21968351.160
        49.100          31.800
 18  3 15 11 23 58.0000000  0 15G20R09R10R01G24R16R17R18G08G11G30G28
                                G10G15G13
 125731735.594 5                  23925948.250
        34.000
                  80799839.002 6  19454418.797                    19454419.141
                        41.100
                  91724413.016 4  22123622.461                    22123628.441
                        24.500
                  87784950.018 5  21113986.070                    21113988.203
                        34.100
 122337418.074 5                  23280040.406
        33.900
                  88560446.838 5  21315472.109                    21315473.781
                        31.400
                  86450408.774 6  20771131.945                    20771134.203
                        37.900
                  87975191.207 6  21189494.688                    21189497.289
                        36.900
 121282306.386 6                  23079256.570
        36.900
 123088491.284 6                  23422954.672
        36.300
 125557893.033 6                  23892870.961
        36.900
 112777140.953 8  87878303.68446  21460777.125                    21460779.828
        51.000          36.100
 119406417.759 6  93043976.87644  22722284.008                    22722291.246
        40.700          25.800
 112654933.939 8  87783046.40345  21437521.133                    21437524.750
        52.400          34.400
 115447469.626 8  89959045.31944  21968921.805                    21968925.145
        48.000          29.100
 18  3 15 11 23 59.0000000  0 15G20R09R10R01G24R16R17R18G08G11G30G28
                                G10G15G13
 125735525.624 5                  23926670.422
        33.500
                  80799613.229 6  19454364.508                    19454364.352
                        41.000
                  91721450.244 4  22122908.109                    22122913.559
                        25.600
                  87783011.532 5  21113517.695                    21113521.605
                        35.300
 122334292.269 5                  23279446.398
        34.600
                  88563570.359 5  21316221.898                    21316224.926
                        30.700
                  86451731.781 6  20771449.789                    20771452.121
                        37.800
                  87973315.664 5  21189042.773                    21189045.211
                        35.400
 121284931.446 5                  23079756.289
        35.700
 123086318.366 5                  23422540.172
        35.900
 125561880.627 6                  23893630.602
        36.000
 112777793.159 8  87878811.90046  21460901.633                    21460904.113
        50.800          36.000
 119404919.779 6  93042809.64643  22721999.227                    22722006.480
        40.700          23.900
 112656419.753 8  87784204.18445  21437804.344                    21437807.359
        52.300          34.300
 115450484.837 8  89961394.84444  21969495.602                    21969498.707
        48.200          29.800
 18  3 15 11 24  0.0000000  0 15G20R09R10R01G24R16R17R18G08G11G30G28
                                G10G15G13
 125739316.060 5                  23927390.961
        33.900
                  80799388.151 6  19454310.453                    19454310.184
                        40.800
                  91718487.796 4  22122193.953                    22122199.176
                        25.700
                  87781073.688 5  21113053.602                    21113055.344
                        34.400
 122331166.908 5                  23278851.086
        32.900
                  88566694.269 5  21316974.766                    21316976.922
                        31.400
                  86453055.511 6  20771768.656                    20771770.164
                        37.700
                  87971440.717 5  21188591.148                    21188593.941
                        35.500
 121287557.128 6                  23080255.734
        36.300
 123084146.028 6                  23422127.375
        36.500
 125565868.477 5                  23894389.031
        35.700
 112778445.990 8  87879320.60145  21461025.570                    21461028.301
        50.800          35.400
 119403422.479 6  93041642.95344  22721715.398                    22721721.785
        41.600          24.400
 112657906.290 8  87785362.52345  21438086.945                    21438089.934
        52.100          34.000
 115453500.604 8  89963744.79745  21970069.469                    21970072.777
        48.500          30.900
 18  3 15 11 24  1.0000000  0 15G20R09R10R01G24R16R17R18G08G11G30G28
                                G10G15G13
 125743106.791 5                  23928112.484
        33.800
                  80799163.736 6  19454256.023                    19454256.035
                        41.000
                  91715525.589 4  22121479.000                    22121485.098
                        26.400
                  87779136.319 5  21112586.375                    21112589.945
                        34.600
 122328041.771 5                  23278256.641
        31.600
                  88569818.548 5  21317727.195                    21317728.879
                        30.800
                  86454379.956 6  20772088.164                    20772088.430
                        37.900
                  87969566.357 5  21188140.266                    21188142.238
                        35.600
 121290183.317 6                  23080755.117
        36.100
 123081974.247 6                  23421714.727
        36.900
 125569856.495 5                  23895147.891
        34.300
 112779099.435 8  87879829.77945  21461149.891                    21461152.773
        50.700          35.300
 119401925.792 7  93040476.73244  22721430.203                    22721436.457
        42.200          24.900
 112659393.497 8  87786521.38345  21438369.813                    21438373.191
        52.500          35.000
 115456516.877 7  89966095.13945  21970643.445                    21970646.324
        47.800          30.300
 18  3 15 11 24  2.0000000  0 15G20R09R10R01G24R16R17R18G08G11G30G28
                                G10G15G13
 125746897.692 5                  23928834.242
        33.300
                  80798939.982 6  19454202.453                    19454202.285
                        40.900
                  91712563.596 3  22120765.547                    22120770.238
                        23.800
                  87777199.458 5  21112120.742                    21112123.617
                        34.800
 122324916.946 5                  23277661.695
        32.300
                  88572943.100 4  21318478.805                    21318480.922
                        29.400
                  86455705.101 6  20772407.117                    20772407.051
                        37.600
                  87967692.499 5  21187688.359                    21187690.762
                        35.600
 121292809.994 6                  23081255.469
        37.100
 123079802.941 6                  23421300.844
        36.300
 125573844.812 5                  23895906.609
        35.200
 112779753.428 8  87880339.38145  21461274.336                    21461277.117
        50.800          35.900
 119400429.712 7  93039310.95844  22721146.359                    22721151.988
        42.300          24.500
 112660881.329 8  87787680.72945  21438652.992                    21438656.555
        52.400          34.300
 115459533.646 8  89968445.86245  21971218.195                    21971220.465
        48.600          30.800
 18  3 15 11 24  3.0000000  0 15G20R09R10R01G24R16R17R18G08G11G30G28
                                G10G15G13
 125750688.914 5                  23929555.641
        32.400
                  80798716.853 6  19454148.617                    19454148.621
                        40.800
                  91709601.839 3  22120052.414                    22120055.750
                        22.300
                  87775263.164 5  21111656.203                    21111658.410
                        34.800
 122321792.445 5                  23277067.250
        31.500
                  88576067.982 5  21319231.500                    21319232.992
                        31.300
                  86457030.954 6  20772724.992                    20772725.676
                        38.000
                  87965819.190 6  21187237.719                    21187239.977
                        36.000
 121295437.275 5                  23081754.563
        35.100
 123077632.194 6                  23420887.797
        36.900
 125577833.284 6                  23896665.648
        36.700
 112780407.987 8  87880849.42345  21461398.836                    21461401.883
        50.700          35.400
 119398934.189 7  93038145.61444  22720861.859                    22720867.078
        43.300          24.700
 112662369.840 8  87788840.60345  21438936.570                    21438939.766
        52.600          34.600
 115462550.895 8  89970796.95744  21971792.016                    21971794.355
        48.100          29.800
 18  3 15 11 24  4.0000000  0 15G20R09R10R01G24R16R17R18G08G11G30G28
                                G10G15G13
 125754480.397 5                  23930277.172
        33.100
                  80798494.428 6  19454095.516                    19454095.152
                        41.000
                  91706640.338 3  22119338.031                    22119341.504
                        21.900
                  87773327.345 5  21111189.336                    21111192.867
                        34.600
 122318668.281 5                  23276472.508
        30.800
                  88579193.294 5  21319983.609                    21319985.574
                        32.000
                  86458357.574 6  20773044.125                    20773044.578
                        37.700
                  87963946.575 6  21186785.914                    21186788.668
                        36.400
 121298065.069 6                  23082254.953
        36.600
 123075462.007 6                  23420474.883
        37.000
 125581821.996 5                  23897424.961
        35.600
 112781063.209 8  87881359.98545  21461523.820                    21461526.336
        50.500          34.900
 119397439.311 7  93036980.75443  22720576.969                    22720582.785
        42.200          22.800
 112663859.044 8  87790001.02645  21439219.820                    21439222.902
        52.300          35.000
 115465568.688 8  89973148.49744  21972366.586                    21972368.867
        48.500          29.300
 18  3 15 11 24  5.0000000  0 15G20R09R10R01G24R16R17R18G08G11G30G28
                                G10G15G13
 125758272.238 5                  23930998.125
        30.500
                  80798272.687 6  19454041.641                    19454041.383
                        41.200
                                  22118623.578

                  87771392.213 5  21110725.344                    21110727.730
                        33.600
 122315544.552 5                  23275879.586
        33.700
                  88582319.077 5  21320735.281                    21320737.324
                        32.400
                  86459684.955 6  20773361.672                    20773363.453
                        38.300
                  87962074.602 6  21186335.844                    21186338.090
                        36.300
 121300693.560 6                  23082755.969
        37.500
 123073292.471 5                  23420062.375
        35.900
 125585811.049 6                  23898183.703
        36.800
 112781719.073 8  87881871.04846  21461648.398                    21461651.180
        50.900          36.000
 119395945.077 6  93035816.41844  22720292.359                    22720298.641
        39.900          24.800
 112665349.000 8  87791162.04145  21439503.219                    21439506.625
        51.100          32.300
 115468587.069 7  89975500.49444  21972940.945                    21972943.441
        47.900          29.700
 18  3 15 11 24  6.0000000  0 14R09R10R01G24R16R17R18G08G11G30G28G10
                                G15G13
                  80798051.644 6  19453988.523                    19453988.676
                        41.300
                                  22117909.430

                  87769457.572 5  21110257.922                    21110262.102
                        33.200
 122312420.926 5                  23275285.289
        32.000
                  88585445.258 4  21321487.625                    21321490.352
                        29.100
                  86461013.072 6  20773681.320                    20773682.496
                        37.300
                  87960203.192 5  21185885.195                    21185887.324
                        35.100
 121303322.634 6                  23083255.805
        36.800
 123071123.564 6                  23419649.477
        37.300
 125589800.382 5                  23898944.250
        35.900
 112782375.615 8  87882382.64046  21461773.195                    21461775.977
        50.900          36.600
 119394451.522 6  93034652.59344  22720007.148                    22720014.293
        39.700          25.100
 112666839.672 8  87792323.62045  21439786.742                    21439790.316
        50.800          31.900
 115471606.033 8  89977852.94245  21973514.469                    21973517.840
        48.500          30.500
 18  3 15 11 24  7.0000000  0 13R09R01G24R16R17R18G08G11G30G28G10G15
                                G13
                  80797831.244 6  19453936.086                    19453935.473
                        41.500
                  87767523.558 5  21109792.773                    21109796.730
                        34.100
 122309297.747 5                  23274690.484
        30.500
                  88588571.731 5  21322240.313                    21322242.078
                        30.600
                  86462341.921 6  20774000.063                    20774001.953
                        38.000
                  87958332.426 6  21185433.961                    21185436.391
                        36.200
 121305952.171 6                  23083756.648
        38.100
 123068955.181 6                  23419236.578
        36.600
 125593789.846 6                  23899703.164
        37.300
 112783032.702 8  87882894.65645  21461898.203                    21461900.738
        50.500          35.200
 119392958.554 6  93033489.23744  22719723.328                    22719729.984
        39.700          24.400
 112668331.006 8  87793485.70045  21440070.617                    21440073.941
        49.500          31.000
 115474625.506 7  89980205.76245  21974088.781                    21974092.469
        47.200          31.200
 18  3 15 11 24  8.0000000  0 13R09R01G24R16R17R18G08G11G30G28G10G15
                                G13
                  80797611.531 6  19453882.875                    19453882.727
                        41.300
                  87765590.123 5  21109329.539                    21109331.570
                        33.000
 122306174.967 5                  23274095.094
        32.800
                  88591698.604 4  21322992.094                    21322995.301
                        28.900
                  86463671.462 6  20774318.914                    20774321.434
                        38.000
                  87956462.210 5  21184982.867                    21184985.945
                        35.000
 121308582.333 6                  23084256.781
        37.700
 123066787.310 6                  23418824.445
        37.000
 125597779.570 6                  23900462.656
        36.100
 112783690.429 8  87883407.17146  21462023.328                    21462025.742
        51.000          36.400
 119391466.160 6  93032326.35344  22719439.578                    22719445.578
        41.100          26.700
 112669822.996 8  87794648.29444  21440355.125                    21440357.645
        49.600          29.900
 115477645.488 7  89982558.98445  21974663.375                    21974667.305
        46.900          30.200
 18  3 15 11 24  9.0000000  0 13R09R01G24R16R17R18G08G11G30G28G10G15
                                G13
                  80797392.506 6  19453830.000                    19453829.531
                        41.400
                  87763657.196 5  21108864.344                    21108867.367
                        33.900
 122303052.317 4                  23273501.188
        27.600
                  88594825.813 4  21323745.641                    21323748.004
                        29.300
                  86465001.740 6  20774639.852                    20774640.734
                        38.100
                  87954592.576 5  21184533.352                    21184535.590
                        34.700
 121311212.999 6                  23084757.109
        38.000
 123064620.035 6                  23418412.602
        36.800
 125601769.544 5                  23901221.008
        35.400
 112784348.751 8  87883920.14246  21462148.617                    21462151.430
        50.800          36.200
 119389974.400 6  93031163.96444  22719156.383                    22719162.281
        40.900          24.100
 112671315.693 8  87795811.43845  21440638.430                    21440641.707
        49.500          31.300
 115480666.010 7  89984912.63545  21975238.445                    21975242.195
        46.600          30.900
 18  3 15 11 24 10.0000000  0 13R09R01G24R16R17R18G08G11G30G28G10G15
                                G13
                  80797174.156 6  19453778.047                    19453777.434
                        41.500
                  87761724.843 5  21108398.344                    21108402.348
                        34.500
 122299930.183 5                  23272905.805
        31.600
                  88597953.447 4  21324497.938                    21324500.445
                        29.900
                  86466332.778 6  20774958.930                    20774960.453
                        37.700
                  87952723.603 5  21184084.328                    21184085.594
                        35.500
 121313844.236 6                  23085258.180
        39.000
 123062453.293 6                  23418000.047
        37.000
 125605759.756 5                  23901981.188
        35.200
 112785007.677 8  87884433.58745  21462274.195                    21462276.734
        50.800          35.900
 119388483.316 7  93030002.08644  22718873.500                    22718878.676
        43.000          25.800
 112672809.092 8  87796975.11945  21440922.922                    21440926.113
        49.100          31.200
 115483687.075 8  89987266.68745  21975814.156                    21975816.871
        48.000          31.300
 18  3 15 11 24 11.0000000  0 14R09R10R01G24R16R17R18G08G11G30G28G10
                                G15G13
                  80796956.469 6  19453725.336                    19453724.918
                        41.400
                                  22114345.586

                  87759793.056 5  21107934.531                    21107937.410
                        33.800
 122296808.295 5                  23272312.031
        31.800
                  88601081.438 4  21325251.289                    21325252.879
                        29.500
                  86467664.518 6  20775278.813                    20775280.773
                        37.500
                  87950855.198 6  21183633.031                    21183635.313
                        36.000
 121316476.076 6                  23085758.820
        39.100
 123060287.166 5                  23417588.078
        35.300
 125609750.264 5                  23902740.148
        35.700
 112785667.242 8  87884947.53245  21462399.516                    21462402.027
        50.900          35.900
 119386992.849 7  93028840.68144  22718589.883                    22718595.102
        43.200          26.000
 112674303.162 8  87798139.32245  21441207.086                    21441210.059
        48.700          31.400
 115486708.646 7  89989621.14945  21976389.422                    21976391.895
        47.900          30.300
 18  3 15 11 24 12.0000000  0 14R09R10R01G24R16R17R18G08G11G30G28G10
                                G15G13
                  80796739.465 6  19453673.055                    19453673.164
                        41.100
                                  22113630.539

                  87757861.856 5  21107470.203                    21107473.164
                        33.700
 122293686.808 5                  23271719.133
        31.200
                  88604209.883 4  21326004.578                    21326005.961
                        29.100
                  86468997.002 6  20775599.383                    20775600.762
                        38.000
                  87948987.447 5  21183184.055                    21183185.793
                        35.900
 121319108.496 6                  23086259.180
        38.300
 123058121.638 6                  23417175.047
        36.500
 125613740.964 6                  23903499.188
        37.100
 112786327.436 8  87885461.97045  21462525.586                    21462528.145
        50.800          35.900
 119385503.011 7  93027679.74544  22718305.789                    22718311.531
        42.300          27.100
 112675797.961 8  87799304.09845  21441491.828                    21441494.578
        49.100          31.800
 115489730.774 8  89991976.07245  21976964.320                    21976967.039
        48.600          30.400
 18  3 15 11 24 13.0000000  0 14R09R10R01G24R16R17R18G08G11G30G28G10
                                G15G13
                  80796523.162 6  19453620.648                    19453620.742
                        41.100
                                  22112914.883

                  87755931.193 5  21107005.297                    21107009.035
                        33.300
 122290565.592 5                  23271125.734
        31.900
                  88607338.660 4  21326755.805                    21326759.352
                        28.900
                  86470330.201 6  20775919.234                    20775920.883
                        38.100
                  87947120.264 6  21182733.211                    21182736.426
                        36.100
 121321741.492 6                  23086760.586
        38.000
 123055956.665 6                  23416762.922
        36.400
 125617731.929 6                  23904259.305
        37.800
 112786988.217 8  87885976.87045  21462651.234                    21462653.734
        51.100          35.900
 119384013.800 6  93026519.30344  22718021.500                    22718028.047
        40.900          26.300
 112677293.430 8  87800469.38945  21441776.453                    21441779.395
        49.500          30.500
 115492753.435 8  89994331.39845  21977539.602                    21977542.480
        49.100          30.400
 18  3 15 11 24 14.0000000  0 14R09R10R01G24R16R17R18G08G11G30G28G10
                                G15G13
                  80796307.493 6  19453568.695                    19453568.684
                        41.000
                                  22112198.297

                  87754001.054 5  21106542.109                    21106544.750
                        34.000
 122287444.719 5                  23270530.727
        31.300
                  88610467.783 4  21327508.625                    21327511.973
                        29.100
                  86471664.123 6  20776239.398                    20776241.488
                        38.300
                  87945253.641 5  21182283.188                    21182286.082
                        35.600
 121324375.008 6                  23087262.180
        38.200
 123053792.203 5                  23416351.273
        35.900
 125621723.116 6                  23905017.906
        37.300
 112787649.616 8  87886492.24545  21462777.023                    21462779.578
        51.300          35.800
 119382525.095 6  93025359.26844  22717737.477                    22717745.051
        40.000          26.800
 112678789.540 8  87801635.18545  21442061.305                    21442063.883
        49.900          31.900
 115495776.579 8  89996687.10645  21978114.492                    21978117.742
        48.900          30.900
 18  3 15 11 24 15.0000000  0 14R09R10R01G24R16R17R18G08G11G30G28G10
                                G15G13
                  80796092.493 6  19453516.539                    19453517.352
                        41.100
                                  22111483.883

                  87752071.427 5  21106076.555                    21106080.301
                        33.300
 122284324.077 5                  23269937.313
        31.800
                  88613597.264 4  21328263.492                    21328265.090
                        28.200
                  86472998.768 6  20776560.273                    20776562.699
                        38.200
                  87943387.589 5  21181834.398                    21181837.313
                        35.500
 121327009.095 6                  23087763.797
        37.500
 123051628.324 6                  23415939.188
        36.400
 125625714.487 6                  23905777.945
        36.900
 112788311.582 8  87887008.06345  21462902.969                    21462905.387
        51.200          35.800
 119381037.033 7  93024199.77044  22717455.508                    22717461.590
        42.100          26.700
 112680286.343 8  87802801.53245  21442345.789                    21442349.301
        49.800          31.000
 115498800.266 8  89999043.23645  21978689.570                    21978693.176
        48.500          31.400
 18  3 15 11 24 16.0000000  0 14R09R10R01G24R16R17R18G08G11G30G28G10
                                G15G13
                  80795878.195 6  19453465.281                    19453465.281
                        41.300
                                  22110771.328

                  87750142.426 5  21105613.922                    21105616.051
                        34.100
 122281203.844 5                  23269343.102
        32.300
                  88616727.132 4  21329017.219                    21329019.039
                        28.300
                  86474334.180 6  20776880.336                    20776883.918
                        38.100
                  87941522.209 5  21181385.047                    21181387.664
                        35.600
 121329643.797 6                  23088264.680
        37.000
 123049465.035 6                  23415527.227
        36.100
 125629706.187 6                  23906537.516
        37.100
 112788974.226 8  87887524.40645  21463029.086                    21463031.637
        51.300          35.900
 119379549.691 7  93023040.82044  22717173.734                    22717178.582
        43.900          27.200
 112681783.898 8  87803968.46245  21442630.406                    21442634.020
        49.900          31.700
 115501824.507 8  90001399.78645  21979264.750                    21979268.539
        48.000          31.200
 18  3 15 11 24 17.0000000  0 14R09R10R01G24R16R17R18G08G11G30G28G10
                                G15G13
                  80795664.591 6  19453413.852                    19453414.363
                        41.200
                                  22110059.344

                  87748214.021 5  21105150.484                    21105152.605
                        34.100
 122278083.961 5                  23268750.430
        33.100
                  88619857.464 4  21329769.375                    21329772.191
                        28.400
                  86475670.322 6  20777202.133                    20777203.879
                        38.300
                  87939657.445 5  21180935.766                    21180938.613
                        35.400
 121332279.034 6                  23088765.539
        37.300
 123047302.327 6                  23415117.133
        36.200
 125633698.098 6                  23907296.820
        37.400
 112789637.488 8  87888041.23646  21463155.242                    21463157.832
        51.200          36.100
 119378062.991 7  93021882.35144  22716890.430                    22716895.988
        43.700          27.100
 112683282.153 8  87805135.94145  21442915.977                    21442919.316
        49.800          32.400
 115504849.339 7  90003756.79545  21979840.453                    21979844.004
        47.500          30.900
 18  3 15 11 24 18.0000000  0 14R09R10R01G24R16R17R18G08G11G30G28G10
                                G15G13
                  80795451.700 6  19453362.789                    19453363.066
                        41.200
                                  22109346.531

                  87746286.086 5  21104684.516                    21104689.102
                        33.900
 122274964.430 5                  23268156.742
        33.700
                  88622988.166 4  21330525.172                    21330525.555
                        28.400
                  86477007.231 6  20777523.438                    20777525.805
                        38.600
                  87937793.339 5  21180487.641                    21180489.656
                        35.800
 121334914.857 6                  23089267.602
        37.200
 123045140.245 6                  23414705.945
        36.100
 125637690.329 6                  23908056.992
        37.400
 112790301.429 8  87888558.58746  21463281.406                    21463284.035
        51.200          36.100
 119376576.976 7  93020724.39344  22716607.586                    22716613.023
        42.700          27.100
 112684781.126 8  87806303.97645  21443200.352                    21443204.434
        49.600          31.300
 115507874.740 7  90006114.23745  21980416.453                    21980419.648
        47.800          30.400
 18  3 15 11 24 19.0000000  0 14R09R10R01G24R16R17R18G08G11G30G28G10
                                G15G13
                  80795239.451 6  19453311.438                    19453311.801
                        41.200
                                  22108631.680

                  87744358.836 5  21104222.172                    21104224.980
                        33.700
 122271845.299 5                  23267563.172
        34.200
                  88626119.243 4  21331277.945                    21331279.914
                        28.700
                  86478344.819 6  20777845.453                    20777846.695
                        38.200
                  87935929.785 5  21180038.727                    21180041.059
                        35.800
 121337551.231 6                  23089769.289
        37.600
 123042978.686 5                  23414294.141
        35.800
 125641682.766 6                  23908817.117
        37.300
 112790965.920 8  87889076.37745  21463407.977                    21463410.555
        51.400          35.600
 119375091.492 6  93019566.84144  22716323.820                    22716330.398
        41.100          26.400
 112686280.769 8  87807472.52845  21443486.000                    21443489.914
        49.600          31.600
 115510900.617 8  90008472.03845  21980992.938                    21980995.598
        48.900          30.800
 18  3 15 11 24 20.0000000  0 14R09R10R01G24R16R17R18G08G11G30G28G10
                                G15G13
                  80795027.849 6  19453260.414                    19453260.066
                        41.200
                                  22107917.250

                  87742432.063 5  21103758.852                    21103762.219
                        33.600
 122268726.399 5                  23266969.766
        34.300
                  88629250.688 4  21332031.672                    21332033.105
                        28.000
                  86479683.114 6  20778167.391                    20778168.789
                        37.700
                  87934066.772 5  21179588.945                    21179591.594
                        35.500
 121340188.216 6                  23090271.289
        37.300
 123040817.646 5                  23413882.641
        35.700
 125645675.396 6                  23909576.141
        37.100
 112791630.999 8  87889594.62146  21463534.633                    21463536.840
        51.300          36.000
 119373606.582 6  93018409.75744  22716039.797                    22716048.258
        39.400          26.200
 112687781.043 8  87808641.56545  21443771.727                    21443775.395
        49.800          30.800
 115513926.965 8  90010830.21845  21981569.164                    21981571.301
        49.800          31.200
 18  3 15 11 24 21.0000000  0 14R09R10R01G24R16R17R18G08G11G30G28G10
                                G15G13
                  80794816.896 6  19453209.992                    19453210.086
                        41.300
                                  22107202.484

                  87740505.819 5  21103294.734                    21103298.418
                        33.600
 122265607.718 5                  23266375.883
        31.500
                  88632382.438 4  21332784.453                    21332786.777
                        28.500
                  86481022.117 6  20778488.992                    20778490.184
                        37.300
                  87932204.366 5  21179139.930                    21179142.832
                        35.000
 121342825.707 6                  23090773.109
        36.700
 123038657.183 6                  23413471.289
        36.700
 125649668.201 6                  23910335.703
        36.800
 112792296.661 8  87890113.32145  21463661.508                    21463663.523
        51.400          35.900
 119372122.253 6  93017253.16544  22715758.391                    22715765.375
        40.500          26.200
 112689281.982 8  87809811.12845  21444057.766                    21444060.715
        50.000          30.100
 115516953.807 8  90013188.80245  21982144.945                    21982147.527
        49.800          30.000
 18  3 15 11 24 22.0000000  0 14R09R10R01G24R16R17R18G08G11G30G28G10
                                G15G13
                  80794606.577 6  19453159.344                    19453159.461
                        41.100
                                  22106491.078

                  87738580.148 5  21102832.906                    21102835.414
                        33.700
 122262489.366 5                  23265781.750
        30.300
                  88635514.548 4  21333539.625                    21333541.387
                        28.400
                  86482361.799 6  20778809.984                    20778812.676
                        37.300
                  87930342.547 6  21178691.922                    21178694.699
                        36.100
 121345463.692 6                  23091275.227
        36.400
 123036497.242 5                  23413060.688
        35.200
 125653661.256 6                  23911096.031
        37.100
 112792962.889 8  87890632.46045  21463788.266                    21463790.383
        51.300          35.900
 119370638.548 7  93016097.07944  22715477.641                    22715482.926
        42.500          27.400
 112690783.569 8  87810981.20045  21444343.359                    21444346.504
        50.200          30.800
 115519981.143 8  90015547.78445  21982721.063                    21982723.469
        50.200          31.600
 18  3 15 11 24 23.0000000  0 14R09R10R01G24R16R17R18G08G11G30G28G10
                                G15G13
                  80794396.936 6  19453108.703                    19453108.559
                        41.300
                                  22105777.469

                  87736654.970 5  21102369.750                    21102372.664
                        34.100
 122259371.193 5                  23265187.992
        30.500
                  88638646.974 4  21334293.672                    21334295.184
                        29.400
                  86483702.181 6  20779132.227                    20779134.488
                        37.200
                  87928481.308 5  21178243.844                    21178246.426
                        35.900
 121348102.231 6                  23091776.773
        37.100
 123034337.881 5                  23412649.906
        35.000
 125657654.519 6                  23911856.211
        36.800
 112793629.721 8  87891152.07545  21463915.000                    21463917.664
        50.800          35.800
 119369155.461 7  93014941.45244  22715195.633                    22715200.738
        43.700          27.200
 112692285.832 8  87812151.79445  21444628.977                    21444632.414
        50.000          30.900
 115523009.003 8  90017907.17945  21983296.555                    21983300.203
        49.400          31.400
 18  3 15 11 24 24.0000000  0 14R09R10R01G24R16R17R18G08G11G30G28G10
                                G15G13
                  80794187.979 6  19453059.375                    19453058.055
                        41.400
                                  22105066.203

                  87734730.350 5  21101906.242                    21101908.965
                        33.500
 122256253.551 5                  23264596.258
        32.400
                  88641779.785 4  21335047.461                    21335048.848
                        29.100
                  86485043.322 6  20779454.078                    20779456.684
                        37.100
                  87926620.683 5  21177795.938                    21177798.543
                        35.600
 121350741.424 6                  23092279.914
        37.100
 123032179.015 5                  23412238.938
        35.900
 125661648.092 6                  23912616.656
        36.200
 112794297.169 8  87891672.16846  21464042.125                    21464044.520
        50.900          36.200
 119367673.029 7  93013786.31144  22714913.961                    22714918.801
        43.900          25.700
 112693788.783 8  87813322.92645  21444915.469                    21444918.445
        49.500          30.700
 115526037.416 8  90020266.99345  21983872.266                    21983876.051
        48.000          30.600
 18  3 15 11 24 25.0000000  0 14R09R10R01G24R16R17R18G08G11G30G28G10
                                G15G13
                  80793979.635 6  19453008.281                    19453008.305
                        41.400
                                  22104353.172

                  87732806.244 5  21101442.977                    21101446.656
                        34.200
 122253136.212 5                  23264004.398
        34.800
                  88644913.029 5  21335801.719                    21335803.309
                        30.500
                  86486385.156 6  20779776.742                    20779778.344
                        37.300
                  87924760.657 5  21177349.141                    21177350.359
                        35.500
 121353381.062 6                  23092782.109
        37.000
 123030020.699 6                  23411827.938
        36.200
 125665641.697 5                  23913376.016
        35.800
 112794965.156 8  87892192.67845  21464168.930                    21464171.473
        51.100          35.800
 119366191.154 7  93012631.57144  22714630.117                    22714637.313
        42.300          24.800
 112695292.353 8  87814494.53645  21445201.219                    21445204.297
        49.200          30.800
 115529066.339 7  90022627.19745  21984448.828                    21984452.484
        47.800          31.500
 18  3 15 11 24 26.0000000  0 14R09R10R01G24R16R17R18G08G11G30G28G10
                                G15G13
                  80793772.005 6  19452958.125                    19452958.324
                        41.200
                                  22103640.063

                  87730882.727 5  21100980.750                    21100984.203
                        34.400
 122250019.246 5                  23263412.469
        33.200
                  88648046.641 5  21336556.430                    21336557.410
                        30.100
                  86487727.751 6  20780099.391                    20780101.113
                        37.700
                  87922901.200 5  21176901.469                    21176902.922
                        35.700
 121356021.362 6                  23093283.797
        37.100
 123027863.047 6                  23411418.008
        36.100
 125669635.675 6                  23914135.734
        36.900
 112795633.812 8  87892713.70846  21464296.375                    21464298.516
        50.800          36.100
 119364709.888 6  93011477.31144  22714347.422                    22714355.051
        40.000          24.700
 112696796.694 8  87815666.74745  21445486.688                    21445490.883
        48.700          31.500
 115532095.786 7  90024987.79145  21985025.727                    21985029.039
        47.200          31.500
 18  3 15 11 24 27.0000000  0 14R09R10R01G24R16R17R18G08G11G30G28G10
                                G15G13
                  80793565.068 6  19452908.172                    19452908.422
                        41.100
                                  22102926.773

                  87728959.739 5  21100517.266                    21100521.434
                        34.500
 122246902.576 5                  23262818.188
        30.500
                  88651180.635 5  21337310.594                    21337311.668
                        31.200
                  86489071.061 6  20780423.063                    20780423.734
                        37.400
                  87921042.378 5  21176453.719                    21176454.137
                        35.100
 121358662.172 6                  23093787.031
        38.500
 123025705.942 5                  23411007.789
        35.400
 125673629.882 6                  23914896.258
        36.400
 112796303.087 8  87893235.22645  21464423.859                    21464426.129
        50.700          35.900
 119363229.241 6  93010323.56644  22714065.375                    22714073.188
        39.400          25.300
 112698301.715 8  87816839.48645  21445773.555                    21445777.465
        48.800          31.400
 115535125.792 8  90027348.80445  21985603.094                    21985605.387
        48.600          30.600
 18  3 15 11 24 28.0000000  0 14R09R10R01G24R16R17R18G08G11G30G28G10
                                G15G13
                  80793358.808 6  19452857.938                    19452859.090
                        41.000
                                  22102212.617

                  87727037.339 5  21100056.227                    21100059.129
                        34.500
 122243786.091 4                  23262223.875
        28.000
                  88654314.959 5  21338065.055                    21338065.863
                        30.800
                  86490415.115 6  20780746.367                    20780747.285
                        37.100
                  87919184.164 5  21176005.359                    21176007.023
                        35.100
 121361303.586 6                  23094289.531
        38.400
 123023549.345 5                  23410596.320
        35.500
 125677624.360 6                  23915656.336
        36.500
 112796972.973 8  87893757.22545  21464551.344                    21464553.402
        50.500          35.200
 119361749.217 6  93009170.33444  22713784.547                    22713791.348
        40.000          25.700
 112699807.394 8  87818012.74345  21446060.516                    21446063.645
        49.300          31.900
 115538156.298 8  90029710.23245  21986180.164                    21986182.117
        48.600          30.700
 18  3 15 11 24 29.0000000  0 14R09R10R01G24R16R17R18G08G11G30G28G10
                                G15G13
                  80793153.242 6  19452809.328                    19452809.363
                        41.400
                                  22101499.320

                  87725115.461 5  21099592.813                    21099597.348
                        34.300
 122240670.040 5                  23261629.977
        31.300
                  88657449.671 5  21338819.688                    21338820.273
                        31.600
                  86491759.922 6  20781068.477                    20781069.730
                        37.300
                  87917326.540 5  21175558.688                    21175559.652
                        35.700
 121363945.575 6                  23094792.945
        38.300
 123021393.377 5                  23410186.539
        35.000
 125681619.046 6                  23916416.367
        36.400
 112797643.499 8  87894279.71545  21464678.742                    21464681.305
        50.700          35.200
 119360269.890 7  93008017.65844  22713503.602                    22713509.977
        42.000          25.500
 112701313.807 8  87819186.57145  21446346.984                    21446350.387
        49.100          32.300
 115541187.358 8  90032072.11245  21986756.836                    21986759.363
        49.300          30.600
 18  3 15 11 24 30.0000000  0 14R09R10R01G24R16R17R18G08G11G30G28G10
                                G15G13
                  80792948.332 6  19452760.055                    19452759.992
                        41.200
                                  22100788.578

                  87723194.164 5  21099131.141                    21099134.559
                        34.100
 122237554.469 6                  23261037.492
        36.000
                  88660584.786 5  21339572.625                    21339575.410
                        31.800
                  86493105.400 6  20781391.313                    20781393.227
                        37.200
                  87915469.497 5  21175111.398                    21175112.098
                        35.600
 121366588.095 6                  23095295.219
        38.600
 123019237.978 5                  23409776.773
        34.600
 125685614.012 6                  23917176.086
        36.900
 112798314.607 8  87894802.66345  21464806.266                    21464808.828
        51.200          35.900
 119358791.153 7  93006865.39344  22713222.063                    22713228.785
        42.600          24.300
 112702820.855 8  87820360.89945  21446633.414                    21446637.285
        49.600          33.000
 115544218.899 8  90034434.36844  21987333.133                    21987336.223
        48.700          29.800
 18  3 15 11 24 31.0000000  0 14R09R10R01G24R16R17R18G08G11G30G28G10
                                G15G13
                  80792744.085 6  19452710.758                    19452710.672
                        41.300
                                  22100076.391

                  87721273.427 5  21098669.797                    21098673.137
                        34.400
 122234439.156 5                  23260445.086
        34.600
                  88663720.241 5  21340327.078                    21340330.078
                        31.200
                  86494451.593 6  20781714.500                    20781716.633
                        37.400
                  87913613.027 6  21174663.578                    21174665.348
                        36.000
 121369231.136 6                  23095797.734
        38.100
 123017083.090 5                  23409366.141
        34.700
 125689609.179 6                  23917936.313
        37.700
 112798986.325 8  87895326.07745  21464934.102                    21464936.734
        51.500          35.400
 119357313.051 7  93005713.60444  22712941.406                    22712947.195
        42.900          24.200
 112704328.633 8  87821535.78645  21446920.695                    21446923.824
        50.500          33.800
 115547250.993 7  90036797.07244  21987909.953                    21987912.859
        47.300          29.100
 18  3 15 11 24 32.0000000  0 14R09R10R01G24R16R17R18G08G11G30G28G10
                                G15G13
                  80792540.522 6  19452662.180                    19452662.227
                        41.000
                                  22099363.680

                  87719353.188 5  21098206.633                    21098211.328
                        33.700
 122231324.087 5                  23259852.922
        35.400
                  88666856.050 5  21341081.805                    21341084.449
                        31.000
                  86495798.531 6  20782037.836                    20782040.602
                        37.500
                  87911757.176 5  21174216.047                    21174218.289
                        35.800
 121371874.801 6                  23096301.055
        39.100
 123014928.844 5                  23408955.813
        35.700
 125693604.580 6                  23918696.719
        38.300
 112799658.647 8  87895849.96345  21465062.281                    21465064.508
        51.100          35.400
 119355835.544 6  93004562.26444  22712659.047                    22712666.371
        41.000          24.100
 112705837.052 8  87822711.17245  21447208.195                    21447211.242
        51.000          33.400
 115550283.650 7  90039160.19445  21988486.461                    21988489.832
        46.200          30.200
 18  3 15 11 24 33.0000000  0 14R09R10R01G24R16R17R18G08G11G30G28G10
                                G15G13
                  80792337.615 6  19452612.648                    19452613.180
                        41.100
                                  22098651.008

                  87717433.574 5  21097746.344                    21097749.414
                        34.100
 122228209.309 5                  23259260.719
        32.800
                  88669992.294 5  21341837.172                    21341839.340
                        31.700
                  86497146.229 6  20782361.414                    20782364.578
                        37.900
                  87909901.972 6  21173769.234                    21173771.746
                        36.800
 121374519.004 6                  23096804.102
        38.000
 123012775.180 6                  23408546.172
        37.100
 125697600.225 5                  23919456.773
        35.500
 112800331.588 8  87896374.32346  21465189.922                    21465192.719
        51.200          36.200
 119354358.646 6  93003411.41044  22712378.141                    22712385.180
        40.200          24.700
 112707346.192 8  87823887.12445  21447495.281                    21447498.211
        50.200          31.800
 115553316.829 7  90041523.70045  21989063.266                    21989067.148
        47.000          31.100
 18  3 15 11 24 34.0000000  0 14R09R10R01G24R16R17R18G08G11G30G28G10
                                G15G13
                  80792135.402 6  19452563.961                    19452564.234
                        41.300
                                  22097937.914

                  87715514.483 5  21097284.078                    21097287.387
                        33.600
 122225094.844 4                  23258669.164
        29.900
                  88673128.914 5  21342591.852                    21342594.504
                        31.200
                  86498494.628 6  20782685.094                    20782688.184
                        37.500
                  87908047.366 6  21173322.695                    21173324.426
                        36.000
 121377163.756 6                  23097307.414
        37.800
 123010621.994 5                  23408136.984
        35.800
 125701596.155 5                  23920217.984
        35.800
 112801005.132 8  87896899.15546  21465318.023                    21465320.641
        51.300          36.000
 119352882.416 6  93002261.09443  22712096.836                    22712104.078
        39.700          22.900
 112708855.989 8  87825063.59845  21447781.602                    21447785.605
        49.700          30.900
 115556350.521 7  90043887.59345  21989641.422                    21989644.281
        47.500          30.600
 18  3 15 11 24 35.0000000  0 14R09R10R01G24R16R17R18G08G11G30G28G10
                                G15G13
                  80791933.853 6  19452515.094                    19452515.555
                        41.200
                                  22097224.617

                  87713595.958 5  21096822.844                    21096826.906
                        33.100
 122221981.32214                  23258076.188
        28.900
                  88676265.890 5  21343346.813                    21343349.359
                        31.200
                  86499843.727 6  20783010.047                    20783012.457
                        37.900
                  87906193.332 6  21172876.477                    21172878.578
                        36.600
 121379809.127 6                  23097811.016
        37.800
 123008469.395 6                  23407727.313
        36.300
 125705592.261 6                  23920978.094
        36.900
 112801679.294 8  87897424.47846  21465446.625                    21465449.086
        51.100          36.100
 119351406.688 6  93001111.20944  22711816.820                    22711823.129
        40.400          24.800
 112710366.509 8  87826240.62945  21448069.922                    21448072.973
        49.900          32.300
 115559384.721 8  90046251.87545  21990218.922                    21990221.754
        48.000          30.400
 18  3 15 11 24 36.0000000  0 14R09R10R01G24R16R17R18G08G11G30G28G10
                                G15G13
                  80791732.956 6  19452467.500                    19452467.441
                        41.300
                                  22096511.328

                  87711677.953 5  21096361.172                    21096365.250
                        33.900
 122218867.57515                  23257482.273
        30.300
                  88679403.202 5  21344103.938                    21344104.418
                        30.700
                  86501193.563 6  20783335.313                    20783336.563
                        37.700
                  87904339.874 6  21172429.500                    21172432.027
                        36.000
 121382454.989 6                  23098314.203
        38.300
 123006317.389 6                  23407317.727
        36.800
 125709588.562 6                  23921738.547
        36.000
 112802354.046 8  87897950.26345  21465574.766                    21465577.551
        50.800          35.500
 119349931.662 6  92999961.87144  22711536.148                    22711542.352
        40.800          24.100
 112711877.663 8  87827418.14645  21448357.586                    21448360.617
        50.000          32.700
 115562419.452 8  90048616.58944  21990796.180                    21990799.492
        48.100          29.400
 18  3 15 11 24 37.0000000  0 14R09R10R01G24R16R17R18G08G11G30G28G10
                                G15G13
                  80791532.741 6  19452419.492                    19452419.137
                        41.100
                                  22095801.008

                  87709760.538 5  21095900.469                    21095904.242
                        33.800
 122215753.620 5                  23256889.586
        31.200
                  88682540.880 5  21344857.305                    21344860.094
                        31.300
                  86502544.137 6  20783660.547                    20783661.582
                        37.700
                  87902487.054 5  21171983.797                    21171985.383
                        35.800
 121385101.426 6                  23098817.688
        38.000
 123004165.925 6                  23406908.383
        36.600
 125713585.185 6                  23922499.758
        36.600
 112803029.415 8  87898476.52345  21465703.516                    21465706.105
        51.000          35.800
 119348457.274 7  92998813.01644  22711256.891                    22711261.719
        42.200          25.800
 112713389.537 8  87828596.22945  21448644.945                    21448648.352
        49.800          32.400
 115565454.703 8  90050981.72945  21991373.953                    21991376.871
        48.300          30.700
 18  3 15 11 24 38.0000000  0 14R09R10R01G24R16R17R18G08G11G30G28G10
                                G15G13
                  80791333.203 6  19452370.797                    19452371.527
                        41.500
                                  22095089.742

                  87707843.630 5  21095439.227                    21095442.703
                        33.800
 122212641.04914                  23256297.453
        28.600
                  88685678.952 5  21345611.727                    21345615.266
                        31.000
                  86503895.396 6  20783984.727                    20783985.977
                        37.600
                  87900634.808 6  21171538.609                    21171540.004
                        36.000
 121387748.429 6                  23099321.313
        36.900
 123002015.049 5                  23406498.734
        35.900
 125717581.975 6                  23923260.711
        36.200
 112803705.373 8  87899003.24145  21465832.211                    21465834.715
        50.600          35.800
 119346983.461 7  92997664.57644  22710976.430                    22710981.406
        43.100          26.200
 112714902.069 8  87829774.82645  21448932.672                    21448936.500
        49.400          32.600
 115568490.477 7  90053347.28645  21991951.211                    21991954.816
        47.300          30.200
 18  3 15 11 24 39.0000000  0 14R09R10R01G24R16R17R18G08G11G30G28G10
                                G15G13
                  80791134.326 6  19452322.711                    19452323.230
                        41.400
                                  22094379.000

                  87705927.311 5  21094978.367                    21094981.746
                        34.400
 122209527.764 4                  23255704.102
        29.600
                  88688817.354 4  21346367.039                    21346369.832
                        29.800
                  86505247.363 6  20784309.039                    20784310.574
                        37.100
                  87898783.145 6  21171091.250                    21171093.668
                        36.000
 121390395.986 6                  23099825.461
        37.900
 122999864.721 5                  23406089.250
        35.300
 125721578.981 6                  23924021.414
        36.700
 112804381.949 8  87899530.44845  21465960.828                    21465963.383
        50.300          35.700
 119345510.301 7  92996516.62144  22710695.500                    22710701.445
        42.300          24.700
 112716415.279 8  87830953.95345  21449221.133                    21449224.203
        50.200          32.800
 115571526.762 7  90055713.22944  21992528.859                    21992532.469
        46.600          29.800
 18  3 15 11 24 40.0000000  0 14R09R10R01G24R16R17R18G08G11G30G28G10
                                G15G13
                  80790936.129 6  19452275.141                    19452275.289
                        41.700
                                  22093668.445

                  87704011.579 5  21094518.867                    21094521.406
                        34.600
 122206415.240 5                  23255112.250
        31.500
                  88691956.186 5  21347123.594                    21347125.531
                        30.900
                  86506600.083 6  20784633.047                    20784635.766
                        36.800
                  87896932.121 6  21170645.563                    21170647.082
                        36.400
 121393044.076 6                  23100329.414
        36.700
 122997714.974 5                  23405681.031
        35.000
 125725576.246 6                  23924780.266
        37.300
 112805059.129 8  87900058.12545  21466089.500                    21466092.473
        50.600          35.300
 119344037.724 7  92995369.12444  22710415.344                    22710420.922
        42.800          24.600
 112717929.167 8  87832133.59445  21449509.422                    21449512.363
        50.700          31.900
 115574563.583 7  90058079.57445  21993107.648                    21993110.297
        47.600          30.400
 18  3 15 11 24 41.0000000  0 14R09R10R01G24R16R17R18G08G11G30G28G10
                                G15G13
                  80790738.587 6  19452227.820                    19452227.762
                        41.400
                                  22092957.094

                  87702096.354 5  21094056.633                    21094060.832
                        34.100
 122203303.107 4                  23254520.445
        29.900
                  88695095.395 5  21347879.164                    21347881.363
                        30.200
                  86507953.556 6  20784958.195                    20784960.324
                        37.800
                  87895081.724 5  21170199.875                    21170201.473
                        35.600
 121395692.793 6                  23100833.523
        36.800
 122995565.773 5                  23405271.328
        35.300
 125729573.779 6                  23925541.031
        37.100
 112805736.942 8  87900586.28646  21466219.234                    21466221.156
        50.900          36.200
 119342565.825 6  92994222.16044  22710134.086                    22710140.609
        41.100          25.300
 112719443.784 8  87833313.82145  21449797.180                    21449800.766
        50.700          32.700
 115577600.949 7  90060446.33845  21993685.961                    21993688.352
        47.800          30.200
 18  3 15 11 24 42.0000000  0 13R09R01G24R16R17R18G08G11G30G28G10G15
                                G13
                  80790541.752 6  19452180.938                    19452180.480
                        41.400
                  87700181.733 5  21093597.570                    21093600.105
                        35.300
 122200191.267 5                  23253928.742
        30.700
                  88698234.922 4  21348634.336                    21348636.867
                        29.400
                  86509307.750 6  20785283.984                    20785286.434
                        37.600
                  87893231.878 6  21169754.047                    21169756.473
                        36.600
 121398342.018 6                  23101336.758
        37.000
 122993417.163 6                  23404862.891
        36.300
 125733571.535 6                  23926302.445
        37.900
 112806415.374 8  87901114.93345  21466347.844                    21466350.316
        50.600          35.700
 119341094.426 6  92993075.59943  22709852.250                    22709860.867
        38.000          22.900
 112720959.064 8  87834494.56445  21450085.297                    21450089.078
        49.600          32.600
 115580638.803 8  90062813.48945  21994263.719                    21994266.457
        48.700          31.000
 18  3 15 11 24 43.0000000  0 13R09R01G24R16R17R18G08G11G30G28G10G15
                                G13
                  80790345.581 6  19452133.531                    19452133.766
                        41.400
                  87698267.634 5  21093136.313                    21093139.996
                        34.800
 122197079.779 5                  23253337.875
        30.700
                  88701374.811 4  21349390.625                    21349392.652
                        29.300
                  86510662.675 6  20785609.313                    20785611.441
                        37.800
                  87891382.606 6  21169308.906                    21169310.703
                        36.700
 121400991.785 6                  23101842.406
        37.500
 122991269.111 6                  23404454.008
        36.600
 125737569.526 6                  23927063.383
        37.900
 112807094.387 8  87901644.03246  21466476.961                    21466479.938
        50.900          36.000
 119339623.701 6  92991929.61143  22709572.836                    22709580.531
        38.800          22.600
 112722475.046 8  87835675.85145  21450374.250                    21450377.359
        49.800          32.900
 115583677.188 8  90065181.06945  21994841.828                    21994844.500
        48.900          31.400
 18  3 15 11 24 44.0000000  0 13R09R01G24R16R17R18G08G11G30G28G10G15
                                G13
                  80790150.090 6  19452086.211                    19452086.664
                        41.400
                  87696354.077 5  21092675.930                    21092679.453
                        35.000
 122193968.571 5                  23252745.070
        31.800
                  88704515.124 4  21350146.898                    21350148.574
                        29.600
                  86512018.309 6  20785936.258                    20785937.359
                        37.900
                  87889533.960 6  21168862.727                    21168865.813
                        36.600
 121403642.162 6                  23102345.867
        37.900
 122989121.640 6                  23404045.344
        36.100
 125741567.732 6                  23927823.656
        37.800
 112807774.019 8  87902173.61745  21466606.805                    21466608.914
        50.600          35.700
 119338153.618 6  92990784.12743  22709295.047                    22709301.520
        40.900          22.900
 112723991.704 8  87836857.65845  21450662.734                    21450666.004
        50.100          32.800
 115586716.119 8  90067549.07745  21995419.477                    21995422.777
        48.600          30.800
 18  3 15 11 24 45.0000000  0 13R09R01G24R16R17R18G08G11G30G28G10G15
                                G13
                  80789955.259 6  19452038.867                    19452038.984
                        41.400
                  87694441.141 5  21092216.781                    21092219.395
                        34.800
 122190857.666 5                  23252153.156
        31.200
                  88707655.773 4  21350902.070                    21350904.211
                        28.600
                  86513374.649 6  20786262.164                    20786263.211
                        38.000
                  87887685.961 6  21168418.766                    21168420.961
                        36.200
 121406293.117 6                  23102851.055
        37.800
 122986974.702 5                  23403636.328
        35.900
 125745566.182 6                  23928585.313
        37.700
 112808454.268 8  87902703.67946  21466735.914                    21466738.664
        50.300          36.100
 119336684.168 7  92989639.12843  22709017.219                    22709021.258
        42.400          22.000
 112725509.041 8  87838040.00445  21450951.234                    21450954.723
        49.700          32.800
 115589755.589 7  90069917.50345  21995997.492                    21996001.457
        47.600          31.000
 18  3 15 11 24 46.0000000  0 13R09R01G24R16R17R18G08G11G30G28G10G15
                                G13
                  80789761.113 6  19451992.164                    19451992.109
                        41.200
                  87692528.747 5  21091755.313                    21091760.047
                        34.800
 122187747.248 5                  23251560.594
        30.500
                  88710796.870 4  21351658.375                    21351660.645
                        29.200
                  86514731.765 6  20786588.070                    20786589.402
                        38.100
                  87885838.551 6  21167973.789                    21167975.965
                        36.500
 121408944.623 6                  23103354.789
        37.800
 122984828.435 5                  23403228.164
        35.700
 125749564.922 6                  23929345.453
        37.700
 112809135.150 8  87903234.23945  21466865.375                    21466868.148
        50.500          35.900
 119335215.389 7  92988494.62844  22708737.250                    22708742.180
        42.600          24.000
 112727027.094 8  87839222.90045  21451240.086                    21451243.711
        50.000          32.300
 115592795.607 7  90072286.35145  21996576.070                    21996579.762
        47.200          30.400
 18  3 15 11 24 47.0000000  0 14R09R10R01G24R16R17R18G08G11G30G28G10
                                G15G13
                  80789567.641 6  19451945.781                    19451945.672
                        41.400
                                  22088689.359

                  87690616.876 5  21091295.836                    21091299.590
                        34.900
 122184636.906 5                  23250969.563
        30.700
                  88713938.306 4  21352414.320                    21352416.305
                        27.700
                  86516089.559 6  20786914.594                    20786915.441
                        37.400
                  87883991.768 6  21167528.969                    21167530.961
                        36.400
 121411596.668 6                  23103859.367
        37.800
 122982682.625 5                  23402819.828
        35.000
 125753563.842 6                  23930106.734
        36.900
 112809816.599 8  87903765.23945  21466995.320                    21466997.578
        50.400          35.400
 119333747.255 7  92987350.59744  22708457.336                    22708463.008
        42.600          24.800
 112728545.779 8  87840406.28745  21451529.828                    21451532.461
        51.200          32.600
 115595836.117 7  90074655.56545  21997155.188                    21997158.441
        47.500          31.300
 18  3 15 11 24 48.0000000  0 14R09R10R01G24R16R17R18G08G11G30G28G10
                                G15G13
                  80789374.858 6  19451898.609                    19451899.781
                        41.700
                                  22087979.750

                  87688705.592 5  21090836.938                    21090840.094
                        35.800
 122181527.055 5                  23250377.055
        32.200
                  88717080.125 4  21353171.664                    21353173.246
                        28.400
                  86517448.119 6  20787240.070                    20787242.016
                        37.700
                  87882145.580 6  21167084.523                    21167086.426
                        36.800
 121414249.278 6                  23104364.945
        38.500
 122980537.448 5                  23402411.695
        33.400
 125757563.019 6                  23930868.086
        36.800
 112810498.682 8  87904296.73046  21467124.891                    21467127.492
        50.900          36.200
 119332279.734 6  92986207.04344  22708177.117                    22708183.645
        41.800          24.100
 112730065.202 8  87841590.25745  21451818.070                    21451821.652
        50.200          32.200
 115598877.173 8  90077025.21245  21997733.969                    21997737.180
        48.800          31.900
 18  3 15 11 24 49.0000000  0 14R09R10R01G24R16R17R18G08G11G30G28G10
                                G15G13
                  80789182.680 6  19451853.125                    19451853.629
                        41.600
                                  22087265.094

                  87686794.778 5  21090376.438                    21090380.609
                        34.700
 122178417.393 5                  23249784.367
        34.900
                  88720222.221 4  21353928.891                    21353929.422
                        28.000
                  86518807.351 6  20787566.688                    20787568.355
                        37.700
                  87880299.950 6  21166639.734                    21166641.258
                        36.800
 121416902.455 6                  23104869.430
        38.000
 122978392.741 5                  23402003.383
        34.100
 125761562.376 6                  23931628.234
        36.900
 112811181.309 8  87904828.64745  21467255.039                    21467257.535
        50.900          35.600
 119330812.721 6  92985063.87943  22707896.648                    22707904.590
        39.300          23.600
 112731585.237 8  87842774.69545  21452107.297                    21452110.762
        50.800          32.600
 115601918.705 8  90079395.22445  21998313.555                    21998316.109
        49.000          31.200
 18  3 15 11 24 50.0000000  0 14R09R10R01G24R16R17R18G08G11G30G28G10
                                G15G13
                  80788991.138 6  19451807.539                    19451807.195
                        41.400
                                  22086551.258

                  87684884.522 5  21089918.008                    21089921.191
                        35.400
 122175308.146 5                  23249192.789
        33.600
                  88723364.715 4  21354685.375                    21354685.809
                        28.600
                  86520167.290 6  20787893.078                    20787895.324
                        38.000
                  87878454.852 6  21166195.703                    21166197.070
                        37.100
 121419556.063 6                  23105374.625
        38.600
 122976248.567 5                  23401595.688
        33.700
 125765561.891 6                  23932390.570
        37.400
 112811864.516 8  87905361.02045  21467384.844                    21467387.402
        51.100          35.600
 119329346.193 6  92983921.14043  22707616.820                    22707625.574
        37.100          22.500
 112733105.891 8  87843959.61845  21452397.078                    21452400.246
        50.700          33.500
 115604960.697 8  90081765.60745  21998892.289                    21998894.633
        49.300          30.900
 18  3 15 11 24 51.0000000  0 14R09R10R01G24R16R17R18G08G11G30G28G10
                                G15G13
                  80788800.296 6  19451761.242                    19451761.145
                        41.400
                                  22085839.359

                  87682974.834 5  21089458.570                    21089462.121
                        35.600
 122172199.229 6                  23248601.898
        36.200
                  88726507.521 4  21355440.313                    21355442.094
                        28.600
                  86521527.944 6  20788220.797                    20788222.480
                        37.400
                  87876610.377 6  21165751.000                    21165753.320
                        36.700
 121422210.277 6                  23105878.992
        37.500
 122974105.053 5                  23401187.500
        33.800
 125769561.644 6                  23933151.133
        37.300
 112812548.327 8  87905893.85946  21467514.813                    21467517.371
        50.900          36.000
 119327880.364 6  92982778.97243  22707339.133                    22707346.137
        39.300          22.500
 112734627.228 8  87845145.06945  21452687.000                    21452689.539
        51.100          33.600
 115608003.221 8  90084136.41745  21999470.711                    21999473.617
        49.100          30.000
 18  3 15 11 24 52.0000000  0 14R09R10R01G24R16R17R18G08G11G30G28G10
                                G15G13
                  80788610.113 6  19451715.125                    19451714.941
                        41.500
                                  22085128.883

                  87681065.675 5  21088998.438                    21089002.125
                        35.300
 122169090.652 6                  23248011.063
        36.000
                  88729650.718 4  21356196.727                    21356198.441
                        28.800
                  86522889.314 6  20788547.234                    20788549.430
                        37.700
                  87874766.507 6  21165307.594                    21165308.805
                        36.400
 121424865.060 6                  23106384.922
        37.400
 122971962.055 5                  23400779.195
        34.000
 125773561.688 6                  23933912.406
        36.900
 112813232.771 8  87906427.19245  21467645.211                    21467647.953
        51.000          35.500
 119326415.187 6  92981637.31343  22707061.461                    22707067.305
        40.500          22.600
 112736149.280 8  87846331.07945  21452976.445                    21452979.586
        51.000          34.400
 115611046.286 8  90086507.65045  22000049.359                    22000052.746
        48.800          30.400
 18  3 15 11 24 53.0000000  0 14R09R10R01G24R16R17R18G08G11G30G28G10
                                G15G13
                  80788420.646 6  19451669.703                    19451669.977
                        41.400
                                  22084419.805

                  87679157.178 5  21088540.773                    21088543.477
                        35.100
 122165982.333 5                  23247419.047
        33.000
                  88732794.369 4  21356954.508                    21356955.012
                        29.200
                  86524251.437 6  20788874.328                    20788876.551
                        37.400
                  87872923.283 6  21164863.391                    21164864.887
                        36.400
 121427520.398 6                  23106889.461
        38.000
 122969819.603 5                  23400370.977
        33.700
 125777561.980 6                  23934674.203
        37.500
 112813917.841 8  87906961.01646  21467775.734                    21467778.207
        50.900          36.200
 119324950.698 6  92980496.14643  22706783.273                    22706788.656
        41.500          22.900
 112737672.071 8  87847517.67845  21453265.344                    21453269.695
        50.200          34.100
 115614089.919 8  90088879.32344  22000628.250                    22000631.770
        48.000          29.600
 18  3 15 11 24 54.0000000  0 14R09R10R01G24R16R17R18G08G11G30G28G10
                                G15G13
                  80788231.884 6  19451624.414                    19451624.469
                        41.100
                                  22083707.250

                  87677249.239 5  21088081.547                    21088085.629
                        34.300
 122162874.91014                  23246825.836
        28.600
                  88735938.349 4  21357709.992                    21357711.879
                        29.600
                  86525614.289 6  20789202.258                    20789204.547
                        37.600
                  87871080.664 6  21164419.703                    21164421.211
                        36.500
 121430176.351 6                  23107395.727
        38.700
 122967677.789 5                  23399962.953
        33.300
 125781562.504 6                  23935434.898
        37.000
 112814603.567 8  87907495.34846  21467906.211                    21467908.340
        51.000          36.300
 119323486.834 6  92979355.46844  22706504.125                    22706510.188
        41.100          24.500
 112739195.540 8  87848704.79245  21453555.938                    21453559.465
        50.000          34.400
 115617134.109 7  90091251.41945  22001207.625                    22001211.133
        47.500          30.700
 18  3 15 11 24 55.0000000  0 14R09R10R01G24R16R17R18G08G11G30G28G10
                                G15G13
                  80788043.789 6  19451579.000                    19451579.320
                        41.200
                                  22082996.773

                  87675341.808 5  21087621.625                    21087625.199
                        34.300
 122159766.668 5                  23246233.664
        31.800
                  88739082.733 4  21358467.086                    21358468.641
                        28.900
                  86526977.864 6  20789530.164                    20789532.129
                        37.700
                  87869238.643 6  21163976.063                    21163977.902
                        36.300
 121432832.828 6                  23107901.133
        38.500
 122965536.567 5                  23399556.594
        33.300
 125785563.309 6                  23936195.859
        36.600
 112815289.880 8  87908030.13846  21468036.352                    21468039.172
        51.000          36.100
 119322023.563 6  92978215.21543  22706224.750                    22706231.676
        40.200          22.300
 112740719.716 8  87849892.46245  21453845.836                    21453849.164
        50.700          33.200
 115620178.808 7  90093623.89845  22001787.523                    22001790.363
        47.600          30.100
 18  3 15 11 24 56.0000000  0 14R09R10R01G24R16R17R18G08G11G30G28G10
                                G15G13
                  80787856.394 6  19451533.195                    19451534.047
                        41.400
                                  22082284.016

                  87673435.025 5  21087164.906                    21087167.660
                        35.000
 122156659.510 5                  23245642.828
        34.300
                  88742227.510 4  21359224.805                    21359225.375
                        28.900
                  86528342.215 6  20789857.539                    20789859.648
                        37.500
                  87867397.289 6  21163532.875                    21163534.379
                        36.300
 121435489.917 6                  23108406.383
        38.600
 122963395.906 5                  23399148.406
        33.700
 125789564.324 6                  23936957.070
        37.300
 112815976.851 8  87908565.44546  21468167.672                    21468169.805
        51.200          36.300
 119320560.938 6  92977075.48544  22705946.953                    22705953.191
        40.500          24.200
 112742244.585 8  87851080.67145  21454136.523                    21454139.375
        50.500          33.200
 115623224.073 7  90095996.81645  22002367.266                    22002369.930
        47.800          30.400
 18  3 15 11 24 57.0000000  0 14R09R10R01G24R16R17R18G08G11G30G28G10
                                G15G13
                  80787669.639 6  19451488.578                    19451488.984
                        41.400
                  91550088.23113  22081573.656                    22081582.180
                        22.300
                  87671528.733 5  21086704.961                    21086708.996
                        35.400
 122153552.500 5                  23245052.844
        35.200
                  88745372.629 5  21359980.578                    21359982.578
                        30.000
                  86529707.265 6  20790185.805                    20790187.793
                        37.900
                  87865556.526 6  21163088.875                    21163090.699
                        36.400
 121438147.565 6                  23108912.625
        38.800
 122961255.913 5                  23398741.766
        34.600
 125793565.626 6                  23937718.219
        37.100
 112816664.416 8  87909101.21346  21468298.547                    21468300.637
        51.400          36.300
 119319098.963 6  92975936.27244  22705668.930                    22705675.191
        41.200          24.200
 112743770.148 8  87852269.41645  21454426.102                    21454429.621
        50.400          33.600
 115626269.865 8  90098370.15645  22002947.172                    22002949.832
        48.100          30.700
 18  3 15 11 24 58.0000000  0 14R09R10R01G24R16R17R18G08G11G30G28G10
                                G15G13
                  80787483.548 6  19451443.539                    19451443.906
                        41.300
                  91547141.60513  22080861.328                    22080871.402
                        23.200
                  87669622.993 5  21086246.344                    21086250.492
                        34.600
 122150445.969 5                  23244462.398
        35.000
                  88748518.102 5  21360738.195                    21360739.719
                        30.100
                  86531073.001 6  20790513.398                    20790515.863
                        37.300
                  87863716.351 5  21162645.563                    21162647.188
                        35.900
 121440805.781 6                  23109418.563
        38.300
 122959116.326 5                  23398335.852
        33.700
 125797567.129 6                  23938480.281
        37.700
 112817352.571 8  87909637.43746  21468429.094                    21468431.328
        51.700          36.300
 119317637.594 6  92974797.55243  22705391.430                    22705397.273
        41.100          22.900
 112745296.366 8  87853458.68345  21454716.852                    21454720.531
        51.100          34.200
 115629316.151 8  90100743.88645  22003527.063                    22003529.344
        48.300          31.000
 18  3 15 11 24 59.0000000  0 14R09R10R01G24R16R17R18G08G11G30G28G10
                                G15G13
                  80787298.137 6  19451399.172                    19451399.648
                        41.400
                  91544194.71013  22080150.875                    22080160.914
                        22.500
                  87667717.842 5  21085789.305                    21085792.117
                        34.800
 122147339.703 5                  23243871.461
        34.400
                  88751664.034 4  21361495.055                    21361497.000
                        28.700
                  86532439.481 6  20790841.586                    20790843.469
                        37.900
                  87861876.786 6  21162201.883                    21162204.270
                        36.000
 121443464.549 6                  23109924.008
        38.600
 122956977.377 5                  23397928.539
        33.600
 125801568.846 6                  23939242.398
        36.600
 112818041.352 8  87910174.14546  21468560.211                    21468563.082
        51.200          36.400
 119316176.871 6  92973659.33044  22705113.133                    22705119.395
        40.300          24.500
 112746823.286 8  87854648.49245  21455007.391                    21455010.695
        50.900          34.000
 115632362.956 8  90103118.02545  22004106.813                    22004109.316
        48.800          30.400
 18  3 15 11 25  0.0000000  0 14R09R10R01G24R16R17R18G08G11G30G28G10
                                G15G13
                  80787113.425 6  19451355.508                    19451355.293
                        41.200
                  91541248.613 3  22079439.719                    22079449.656
                        21.600
                  87665813.264 5  21085330.492                    21085333.961
                        34.600
 122144233.787 5                  23243280.898
        33.500
                  88754810.285 4  21362252.852                    21362253.734
                        29.500
                  86533806.708 6  20791171.359                    20791172.008
                        38.000
                  87860037.804 6  21161759.344                    21161761.477
                        36.200
 121446123.859 6                  23110429.484
        38.500
 122954838.972 5                  23397521.117
        33.900
 125805570.878 6                  23940003.445
        37.100
 112818730.750 8  87910711.34345  21468691.445                    21468693.867
        50.800          35.900
 119314716.744 6  92972521.57544  22704834.602                    22704841.309
        39.200          24.100
 112748350.882 8  87855838.82545  21455297.773                    21455301.418
        50.700          33.400
 115635410.300 8  90105492.59045  22004686.016                    22004688.641
        48.400          30.700
 18  3 15 11 25  1.0000000  0 14R09R10R01G24R16R17R18G08G11G30G28G10
                                G15G13
                  80786929.390 6  19451310.547                    19451310.938
                        41.400
                  91538302.779 3  22078729.055                    22078738.793
                        21.400
                  87663909.275 5  21084873.703                    21084876.590
                        34.400
 122141128.151 5                  23242689.344
        32.400
                  88757956.920 4  21363009.453                    21363011.023
                        28.900
                  86535174.664 6  20791500.055                    20791500.512
                        37.600
                  87858199.445 6  21161316.664                    21161319.137
                        36.300
 121448783.741 6                  23110935.641
        38.300
 122952701.218 5                  23397113.633
        33.800
 125809573.040 6                  23940765.023
        37.000
 112819420.761 8  87911249.01945  21468822.898                    21468825.215
        51.000          35.800
 119313257.244 6  92971384.29143  22704557.141                    22704563.375
        39.300          21.700
 112749879.200 8  87857029.72945  21455588.695                    21455592.516
        50.300          33.500
 115638458.193 8  90107867.57645  22005265.766                    22005268.926
        48.000          30.600
 18  3 15 11 25  2.0000000  0 14R09R10R01G24R16R17R18G08G11G30G28G10
                                G15G13
                  80786745.997 6  19451265.719                    19451266.098
                        41.100
                                  22078020.719

                  87662005.837 5  21084415.063                    21084418.914
                        35.200
 122138022.804 5                  23242096.766
        31.900
                  88761103.923 4  21363766.664                    21363768.781
                        29.500
                  86536543.306 6  20791829.281                    20791829.629
                        37.600
                  87856361.686 6  21160874.508                    21160875.680
                        36.100
 121451444.213 6                  23111441.680
        38.200
 122950564.032 5                  23396707.906
        33.600
 125813575.510 6                  23941526.969
        36.800
 112820111.366 8  87911787.14846  21468954.281                    21468956.859
        51.000          36.200
 119311798.381 6  92970247.50344  22704278.773                    22704285.918
        39.900          24.500
 112751408.184 8  87858221.14245  21455879.297                    21455883.059
        50.000          33.300
 115641506.588 8  90110242.94645  22005845.719                    22005849.234
        48.000          30.700
 18  3 15 11 25  3.0000000  0 14R09R10R01G24R16R17R18G08G11G30G28G10
                                G15G13
                  80786563.306 6  19451222.219                    19451222.805
                        41.400
                                  22077310.055

                  87660102.950 5  21083955.617                    21083960.590
                        34.800
 122134917.864 5                  23241505.250
        32.300
                  88764251.257 4  21364525.016                    21364526.563
                        27.900
                  86537912.685 6  20792158.305                    20792159.098
                        37.900
                  87854524.527 6  21160432.141                    21160433.609
                        36.300
 121454105.183 6                  23111948.945
        37.700
 122948427.309 5                  23396300.375
        33.700
 125817578.193 6                  23942288.219
        37.600
 112820802.582 8  87912325.75646  21469085.945                    21469088.359
        50.800          36.900
 119310340.134 6  92969111.20444  22704002.578                    22704008.508
        40.700          25.400
 112752937.828 8  87859413.06845  21456171.016                    21456174.230
        50.200          33.500
 115644555.527 7  90112618.74145  22006425.711                    22006429.035
        47.800          30.800
 18  3 15 11 25  4.0000000  0 14R09R10R01G24R16R17R18G08G11G30G28G10
                                G15G13
                  80786381.284 6  19451179.344                    19451178.953
                        41.100
                                  22076599.555

                  87658200.646 5  21083499.703                    21083503.121
                        34.800
 122131813.227 5                  23240915.563
        33.600
                  88767398.991 4  21365282.617                    21365283.750
                        28.700
                  86539282.809 6  20792486.055                    20792488.141
                        37.700
                  87852687.995 6  21159989.672                    21159991.355
                        36.400
 121456766.725 6                  23112455.445
        37.700
 122946291.195 5                  23395894.188
        33.800
 125821581.099 6                  23943050.555
        37.200
 112821494.411 8  87912864.84146  21469217.563                    21469220.027
        50.800          36.100
 119308882.490 6  92967975.36144  22703724.602                    22703731.273
        40.400          26.500
 112754468.174 8  87860605.53945  21456462.461                    21456465.594
        50.300          33.500
 115647604.971 7  90114994.92845  22007006.633                    22007009.871
        47.600          30.900
 18  3 15 11 25  5.0000000  0 14R09R10R01G24R16R17R18G08G11G30G28G10
                                G15G13
                  80786199.901 6  19451135.359                    19451135.715
                        41.200
                                  22075887.992

                  87656298.854 5  21083042.820                    21083046.070
                        34.800
 122128708.875 5                  23240325.789
        35.700
                  88770547.041 4  21366040.078                    21366041.320
                        26.800
                  86540653.597 6  20792814.891                    20792817.590
                        37.900
                  87850852.037 6  21159547.570                    21159548.824
                        36.400
 121459428.875 6                  23112962.008
        37.900
 122944155.643 5                  23395487.633
        34.000
 125825584.146 6                  23943812.305
        36.900
 112822186.797 8  87913404.36446  21469348.984                    21469351.750
        50.800          36.400
 119307425.423 6  92966839.97344  22703447.102                    22703453.699
        39.400          26.200
 112755999.161 8  87861798.51545  21456753.656                    21456756.926
        50.300          32.600
 115650654.913 8  90117371.49645  22007587.414                    22007589.824
        48.200          30.700
 18  3 15 11 25  6.0000000  0 14R09R10R01G24R16R17R18G08G11G30G28G10
                                G15G13
                  80786019.220 6  19451091.508                    19451091.734
                        41.200
                                  22075178.078

                  87654397.592 5  21082584.203                    21082588.531
                        34.800
 122125604.940 6                  23239735.969
        36.100
                  88773695.499 4  21366797.484                    21366799.203
                        28.100
                  86542025.166 6  20793144.203                    20793146.531
                        37.300
                  87849016.690 6  21159105.547                    21159106.742
                        36.400
 121462091.500 6                  23113468.414
        37.500
 122942020.693 5                  23395081.523
        34.000
 125829587.533 6                  23944573.672
        36.800
 112822879.833 8  87913944.39646  21469480.656                    21469483.750
        50.900          36.700
 119305969.026 6  92965705.12144  22703170.305                    22703176.570
        40.700          25.100
 112757530.855 8  87862992.04345  21457044.945                    21457048.547
        50.100          33.300
 115653705.387 8  90119748.47645  22008168.102                    22008170.484
        48.700          30.600
 18  3 15 11 25  7.0000000  0 14R09R10R01G24R16R17R18G08G11G30G28G10
                                G15G13
                  80785839.200 6  19451048.102                    19451048.480
                        41.300
                                  22074468.852

                  87652496.918 5  21082128.336                    21082131.137
                        35.000
 122122501.242 5                  23239144.992
        35.900
                  88776844.344 4  21367555.930                    21367556.980
                        27.000
                  86543397.436 6  20793473.805                    20793476.238
                        37.700
                  87847181.916 5  21158663.820                    21158664.922
                        35.800
 121464754.750 6                  23113975.344
        37.600
 122939886.261 5                  23394674.617
        34.400
 125833591.134 6                  23945336.016
        37.300
 112823573.455 8  87914484.88046  21469613.188                    21469615.902
        50.700          36.000
 119304513.258 7  92964570.77443  22702894.242                    22702899.641
        42.100          23.600
 112759063.233 8  87864186.10045  21457336.594                    21457340.145
        49.900          33.200
 115656756.372 8  90122125.86945  22008749.094                    22008751.363
        48.800          31.400
 18  3 15 11 25  8.0000000  0 14R09R10R01G24R16R17R18G08G11G30G28G10
                                G15G13
                  80785659.854 6  19451004.773                    19451005.121
                        41.300
                                  22073758.992

                  87650596.804 5  21081671.023                    21081674.637
                        35.300
 122119397.885 5                  23238554.289
        32.800
                  88779993.548 4  21368315.367                    21368315.074
                        28.800
                  86544770.437 6  20793804.445                    20793806.543
                        37.800
                  87845347.754 6  21158222.016                    21158223.422
                        36.600
 121467418.581 6                  23114482.477
        37.500
 122937752.476 5                  23394268.727
        34.600
 125837594.925 5                  23946096.719
        35.400
 112824267.683 8  87915025.84146  21469745.336                    21469747.605
        50.800          36.400
 119303058.105 7  92963436.86944  22702617.305                    22702622.902
        43.300          24.400
 112760596.300 8  87865380.70045  21457628.328                    21457631.828
        49.700          34.000
 115659807.895 8  90124503.68945  22009329.023                    22009331.664
        48.900          31.100
 18  3 15 11 25  9.0000000  0 14R09R10R01G24R16R17R18G08G11G30G28G10
                                G15G13
                  80785481.141 6  19450961.883                    19450962.340
                        41.600
                                  22073048.711

                  87648697.210 5  21081214.109                    21081217.734
                        35.200
 122116294.840 5                  23237962.578
        35.200
                  88783143.092 4  21369072.656                    21369073.414
                        28.900
                  86546144.129 6  20794134.219                    20794136.484
                        37.500
                  87843514.136 6  21157780.438                    21157781.488
                        36.300
 121470082.878 6                  23114989.445
        38.300
 122935619.169 5                  23393862.688
        33.800
 125841598.980 5                  23946858.547
        35.700
 112824962.498 8  87915567.25746  21469877.320                    21469879.824
        51.300          36.500
 119301603.577 7  92962303.44544  22702340.695                    22702346.016
        43.400          24.300
 112762130.005 8  87866575.79245  21457920.367                    21457923.617
        50.900          34.900
 115662859.900 8  90126881.89545  22009909.148                    22009912.504
        48.000          31.100
 18  3 15 11 25 10.0000000  0 14R09R10R01G24R16R17R18G08G11G30G28G10
                                G15G13
                  80785303.120 6  19450919.555                    19450919.777
                        41.800
                  91511801.84914  22072339.039                    22072347.676
                        28.800
                  87646798.189 5  21080756.922                    21080760.262
                        34.300
 122113192.115 5                  23237373.266
        33.400
                  88786293.025 4  21369830.047                    21369831.195
                        28.000
                  86547518.537 6  20794465.266                    20794466.375
                        37.600
                  87841681.149 6  21157338.539                    21157340.492
                        36.400
 121472747.742 6                  23115497.047
        37.900
 122933486.432 5                  23393457.516
        33.100
 125845603.230 5                  23947621.039
        35.200
 112825657.932 8  87916109.15046  21470009.602                    21470012.043
        51.200          36.300
 119300149.701 6  92961170.52843  22702063.148                    22702069.738
        41.300          23.300
 112763664.389 8  87867771.42245  21458212.258                    21458215.820
        51.200          35.800
 115665912.459 7  90129260.52745  22010489.531                    22010493.055
        46.800          30.800
