     2.11           OBSERVATION DATA    M (MIXED)           RINEX VERSION / TYPE
teqc  2018Mar15                         20180319 14:17:33UTCPGM / RUN BY / DATE
Linux 2.6.32-573.12.1.x86_64|x86_64|gcc -static|Linux 64|=+ COMMENT
END OF STATIC MODE OBSERVATION                              COMMENT
BIT 2 OF LLI FLAGS DATA COLLECTED UNDER A/S CONDITION       COMMENT
-Unknown-                                                   MARKER NAME
4625                                                        MARKER NUMBER
-Unknown-           -Unknown-                               OBSERVER / AGENCY
5127468778          TRIMBLE             4.63                REC # / TYPE / VERS
47477114                            NONE                    ANT # / TYPE
  5669815.8475        0.0000 -2911475.7793                  APPROX POSITION XYZ
        0.0000        0.0000        0.0000                  ANTENNA: DELTA H/E/N
     1     1                                                WAVELENGTH FACT L1/2
     7    L1    L2    C1    P1    P2    S1    S2            # / TYPES OF OBSERV
    18                                                      LEAP SECONDS
 SNR is mapped to RINEX snr flag value [0-9]                COMMENT
  L1 & L2: min(max(int(snr_dBHz/6), 0), 9)                  COMMENT
  2018     3    13    13    24   36.0000000     GPS         TIME OF FIRST OBS
                                                            END OF HEADER
 18  3 13 13 24 36.0000000  0 19G10R08R07G14G22R09R15R16R17R18R24G19
                                G11G12G28G32G24G17G01
 121723567.831 7  94849690.32044  23163257.664                    23163264.496
        43.800          29.800
                  86328192.425 6  20727236.547                    20727237.363
                        41.800
                  86410134.063 6  20754181.742                    20754183.434
                        41.100
 129453870.014 6 100873075.88443  24634233.078                    24634237.129
        37.800          22.600
 129158796.691 6 100643315.71944  24578124.500                    24578124.949
        39.200          25.300
                  88050654.729 6  21200220.102                    21200220.605
                        41.600
                  94708731.225 5  22787287.875                    22787291.426
                        35.700
                  80032374.637 6  19262866.188                    19262867.461
                        40.600
                  84132742.465 6  20214277.563                    20214279.129
                        41.800
                  94098352.877 6  22664304.031                    22664306.434
                        41.500
                  88111878.647 5  21185185.016                    21185185.891
                        32.200
 116267414.626 7  90597991.07945  22124954.313                    22124955.500
        45.600          34.400
 121176044.205 7  94422897.64544  23059033.195                    23059036.125
        42.000          25.800
 121228627.906 7  94463795.27244  23069020.516                    23069023.730
        45.200          28.900
 125738520.316 6  97978082.54244  23927245.992                    23927249.617
        40.400          25.300
 119961460.913 7  93476483.13145  22827906.813                    22827912.063
        47.400          34.600
 109480000.766 8  85309110.73246  20833351.438                    20833357.477
        49.300          41.200
 114920383.368 8  89548361.32146  21868622.008                    21868625.289
        50.600          40.500
 117064124.336 7  91218855.56545  22276571.836                    22276577.688
        42.200          31.000
 18  3 13 13 24 37.0000000  0 19G10R08R07G14G22R09R15R16R17R18R24G19
                                G11G12G28G32G24G17G01
 121726543.809 7  94852009.28345  23163824.063                    23163830.535
        44.100          30.600
                  86327103.946 6  20726975.820                    20726976.438
                        41.800
                  86412331.820 6  20754709.383                    20754710.766
                        41.500
 129450867.525 6 100870736.27643  24633662.250                    24633665.980
        38.000          22.800
 129156370.513 6 100641425.18244  24577662.430                    24577663.293
        39.900          24.500
                  88048158.604 6  21199618.625                    21199619.070
                        41.500
                  94712454.155 6  22788183.352                    22788187.410
                        36.400
                  80033193.669 6  19263063.703                    19263064.566
                        40.600
                  84131995.553 6  20214098.609                    20214100.246
                        41.700
                  94095247.070 6  22663556.305                    22663558.938
                        41.000
                  88114413.677 5  21185794.250                    21185795.648
                        31.900
 116265199.988 7  90596265.37845  22124531.359                    22124533.758
        44.900          34.800
 121178652.892 6  94424930.37444  23059530.133                    23059532.609
        41.800          27.500
 121225303.038 7  94461204.47444  23068386.992                    23068390.992
        45.200          28.100
 125742177.164 6  97980932.03744  23927940.875                    23927944.887
        40.900          26.700
 119959443.952 7  93474911.45445  22827522.992                    22827528.008
        47.400          34.400
 109480680.771 8  85309640.60846  20833480.922                    20833486.867
        48.800          41.100
 114919809.308 8  89547914.02046  21868512.789                    21868515.965
        50.500          40.400
 117064857.304 7  91219426.70945  22276711.813                    22276716.785
        42.700          31.900
 18  3 13 13 24 38.0000000  0 19G10R08R07G14G22R09R15R16R17R18R24G19
                                G11G12G28G32G24G17G01
 121729520.343 7  94854328.67844  23164390.352                    23164397.195
        43.900          29.400
                  86326016.169 6  20726714.289                    20726715.098
                        41.400
                  86414530.232 6  20755237.453                    20755238.832
                        41.300
 129447865.304 6 100868396.88243  24633091.484                    24633094.859
        37.900          22.300
 129153944.800 6 100639535.02544  24577200.898                    24577201.883
        39.400          25.800
                  88045662.912 6  21199018.164                    21199017.988
                        40.700
                  94716177.268 6  22789078.922                    22789083.379
                        36.000
                  80034013.384 6  19263260.797                    19263261.902
                        39.900
                  84131249.363 6  20213918.711                    20213919.957
                        41.500
                  94092141.531 6  22662807.961                    22662811.184
                        40.500
                  88116949.302 5  21186404.758                    21186404.941
                        32.100
 116262986.002 7  90594540.20745  22124111.336                    22124112.352
        45.400          34.300
 121181262.283 6  94426963.66544  23060027.102                    23060028.586
        41.400          25.700
 121221978.510 7  94458613.95044  23067755.008                    23067758.121
        44.900          26.000
 125745834.204 6  97983781.68844  23928636.672                    23928641.680
        41.000          25.800
 119957427.555 7  93473340.21445  22827138.672                    22827144.527
        47.300          34.700
 109481361.491 8  85310171.04346  20833611.328                    20833616.793
        48.400          40.800
 114919235.931 8  89547467.25846  21868404.031                    21868406.758
        50.900          40.000
 117065591.091 7  91219998.50645  22276851.406                    22276856.426
        42.900          32.100
 18  3 13 13 24 39.0000000  0 19G10R08R07G14G22R09R15R16R17R18R24G19
                                G11G12G28G32G24G17G01
 121732497.376 7  94856648.45344  23164956.852                    23164963.805
        43.300          29.100
                  86324929.063 6  20726453.406                    20726454.551
                        41.300
                  86416729.242 6  20755766.203                    20755767.113
                        41.500
 129444863.336 6 100866057.68743  24632519.602                    24632523.090
        38.500          22.600
 129151519.421 6 100637645.12744  24576739.422                    24576739.813
        39.200          25.200
                  88043167.563 6  21198417.313                    21198417.078
                        40.900
                  94719900.573 5  22789975.031                    22789978.703
                        35.000
                  80034833.795 6  19263459.188                    19263459.328
                        40.300
                  84130503.889 6  20213740.242                    20213741.570
                        41.600
                  94089036.276 6  22662059.820                    22662062.398
                        40.200
                  88119485.553 5  21187014.805                    21187015.148
                        32.400
 116260772.652 7  90592815.52845  22123690.883                    22123691.473
        46.000          34.800
 121183872.321 6  94428997.46344  23060523.414                    23060525.645
        41.100          26.200
 121218654.332 7  94456023.67745  23067122.547                    23067125.691
        47.000          30.200
 125749491.491 6  97986631.52644  23929333.844                    23929337.441
        41.500          25.800
 119955411.674 7  93471769.38245  22826754.672                    22826760.527
        46.800          33.200
 109482042.912 8  85310702.01546  20833739.969                    20833746.129
        48.000          40.700
 114918663.171 8  89547020.96546  21868294.633                    21868298.047
        51.000          39.800
 117066325.646 7  91220570.89345  22276990.781                    22276996.758
        42.900          31.300
 18  3 13 13 24 40.0000000  0 19G10R08R07G14G22R09R15R16R17R18R24G19
                                G11G12G28G32G24G17G01
 121735474.954 7  94858968.64144  23165522.859                    23165530.008
        43.100          28.600
                  86323842.648 6  20726192.984                    20726193.559
                        41.000
                  86418928.892 6  20756294.664                    20756295.641
                        41.300
 129441861.641 6 100863718.70443  24631949.008                    24631951.965
        39.100          22.600
 129149094.422 6 100635755.52044  24576277.719                    24576278.914
        39.900          26.000
                  88040672.616 6  21197816.805                    21197817.035
                        41.300
                  94723624.041 5  22790871.828                    22790874.844
                        34.400
                  80035654.866 6  19263655.875                    19263657.047
                        40.400
                  84129759.123 6  20213561.156                    20213562.672
                        41.600
                  94085931.312 6  22661312.859                    22661314.254
                        40.400
                  88122022.354 5  21187623.656                    21187624.918
                        31.800
 116258559.902 7  90591091.30945  22123269.047                    22123270.648
        45.700          35.000
 121186482.986 6  94431031.74744  23061020.563                    23061022.707
        40.700          26.200
 121215330.464 7  94453433.63945  23066489.656                    23066493.074
        47.200          30.600
 125753149.002 6  97989481.54344  23930029.266                    23930032.961
        41.700          26.000
 119953396.352 7  93470198.98645  22826370.805                    22826377.293
        46.000          34.200
 109482725.047 7  85311233.55246  20833869.820                    20833875.949
        47.700          41.100
 114918091.081 8  89546575.18746  21868185.617                    21868188.871
        50.900          40.000
 117067060.981 7  91221143.89045  22277130.461                    22277136.594
        43.000          32.100
 18  3 13 13 24 41.0000000  0 19G10R08R07G14G22R09R15R16R17R18R24G19
                                G11G12G28G32G24G17G01
 121738453.130 7  94861289.30044  23166089.852                    23166096.961
        43.000          29.100
                  86322757.002 6  20725932.008                    20725932.559
                        41.200
                  86421129.285 6  20756823.000                    20756823.871
                        41.600
 129438860.257 6 100861379.96843  24631378.359                    24631380.953
        38.600          23.900
 129146669.944 6 100633866.32144  24575816.859                    24575817.449
        40.300          25.800
                  88038178.109 6  21197215.164                    21197216.523
                        41.800
                  94727347.818 5  22791766.578                    22791770.254
                        32.900
                  80036476.704 6  19263853.086                    19263854.801
                        41.200
                  84129015.116 6  20213382.375                    20213383.484
                        41.500
                  94082826.672 6  22660565.336                    22660567.305
                        41.400
                  88124559.910 5  21188232.828                    21188234.742
                        31.000
 116256347.818 7  90589367.60345  22122847.258                    22122849.223
        45.400          35.300
 121189094.393 6  94433066.62044  23061517.594                    23061519.496
        41.100          24.400
 121212006.959 7  94450843.89045  23065857.258                    23065860.762
        47.300          30.900
 125756806.918 7  97992331.88844  23930724.844                    23930729.016
        42.000          27.000
 119951381.621 7  93468629.06345  22825987.055                    22825994.227
        45.000          33.400
 109483407.943 8  85311765.68646  20834000.047                    20834005.852
        48.700          40.600
 114917519.734 8  89546129.99546  21868077.148                    21868080.219
        51.200          38.600
 117067797.138 7  91221717.53445  22277270.234                    22277276.758
        43.000          32.800
 18  3 13 13 24 42.0000000  0 19G10R08R07G14G22R09R15R16R17R18R24G19
                                G11G12G28G32G24G17G01
 121741431.807 7  94863610.33944  23166656.609                    23166663.652
        42.900          29.100
                  86321671.981 6  20725671.266                    20725672.332
                        40.500
                  86423330.232 6  20757351.648                    20757352.629
                        41.600
 129435859.064 6 100859041.40843  24630806.977                    24630809.883
        38.800          22.300
 129144245.683 6 100631977.26544  24575355.930                    24575356.277
        40.900          27.800
                  88035683.886 6  21196615.719                    21196615.535
                        41.500
                  94731071.737 5  22792662.508                    22792666.184
                        33.900
                  80037299.187 6  19264051.883                    19264052.258
                        41.100
                  84128271.824 6  20213203.773                    20213205.020
                        41.300
                  94079722.256 6  22659817.523                    22659819.539
                        41.400
                  88127097.935 5  21188845.422                    21188844.754
                        32.500
 116254136.335 7  90587644.35845  22122427.141                    22122428.242
        45.000          35.900
 121191706.364 6  94435101.92544  23062013.891                    23062016.906
        41.900          27.200
 121208683.742 7  94448254.36945  23065224.836                    23065228.293
        46.500          30.600
 125760464.887 6  97995182.26644  23931420.766                    23931425.379
        41.000          25.300
 119949367.392 7  93467059.56345  22825603.914                    22825610.492
        45.100          33.600
 109484091.539 8  85312298.35546  20834130.102                    20834135.824
        48.400          40.500
 114916948.957 8  89545685.23746  21867968.836                    21867971.848
        51.100          38.400
 117068533.987 7  91222291.70945  22277410.055                    22277416.684
        44.100          34.600
 18  3 13 13 24 43.0000000  0 19G10R08R07G14G22R09R15R16R17R18R24G19
                                G11G12G28G32G24G17G01
 121744410.980 7  94865931.77544  23167222.898                    23167230.477
        43.200          28.100
                  86320587.668 6  20725411.305                    20725412.383
                        40.700
                  86425531.863 6  20757879.813                    20757881.504
                        41.200
 129432858.157 6 100856703.04443  24630235.680                    24630238.855
        38.600          21.800
 129141821.905 6 100630088.60144  24574894.688                    24574894.879
        41.000          27.800
                  88033190.079 6  21196015.070                    21196014.844
                        41.200
                  94734795.861 5  22793559.734                    22793563.004
                        33.600
                  80038122.337 6  19264249.367                    19264250.727
                        40.800
                  84127529.264 6  20213024.906                    20213027.223
                        41.200
                  94076618.107 6  22659069.328                    22659071.543
                        41.000
                  88129636.548 5  21189455.930                    21189455.664
                        32.600
 116251925.401 7  90585921.55545  22122006.555                    22122007.918
        45.000          35.800
 121194318.972 7  94437137.72744  23062511.133                    23062513.719
        42.100          26.500
 121205360.845 7  94445665.09844  23064592.789                    23064595.918
        46.400          29.700
 125764123.124 7  97998032.83044  23932117.539                    23932121.961
        42.500          25.900
 119947353.733 7  93465490.51045  22825221.195                    22825227.660
        45.200          33.900
 109484775.851 8  85312831.59246  20834260.617                    20834266.297
        49.100          40.800
 114916378.857 8  89545241.01646  21867859.727                    21867863.066
        51.200          38.600
 117069271.659 7  91222866.52145  22277550.656                    22277557.512
        43.300          33.700
 18  3 13 13 24 44.0000000  0 19G10R08R07G14G22R09R15R16R17R18R24G19
                                G11G12G28G32G24G17G01
 121747390.664 7  94868253.61844  23167790.445                    23167797.414
        43.100          29.000
                  86319503.989 6  20725150.367                    20725151.406
                        40.500
                  86427734.084 6  20758408.438                    20758410.129
                        41.200
 129429857.496 6 100854364.85443  24629664.711                    24629668.078
        38.400          21.500
 129139398.453 6 100628200.19044  24574432.813                    24574433.637
        40.900          27.400
                  88030696.675 6  21195414.859                    21195414.547
                        41.200
                  94738520.120 5  22794456.297                    22794459.266
                        33.500
                  80038946.165 6  19264447.672                    19264449.254
                        40.900
                  84126787.426 6  20212847.211                    20212848.496
                        40.900
                  94073514.193 6  22658320.844                    22658323.945
                        41.100
                  88132175.809 5  21190064.344                    21190066.168
                        32.200
 116249715.122 7  90584199.25546  22121585.797                    22121587.387
        45.100          36.100
 121196932.244 7  94439174.04244  23063008.109                    23063011.215
        42.300          27.200
 121202038.246 7  94443076.06845  23063960.516                    23063963.855
        46.600          30.200
 125767781.613 7  98000883.59344  23932813.609                    23932817.586
        42.300          25.900
 119945340.597 7  93463921.86045  22824838.258                    22824844.492
        46.000          33.900
 109485460.840 8  85313365.35046  20834391.180                    20834396.367
        49.800          40.500
 114915809.391 8  89544797.29346  21867751.688                    21867754.828
        51.300          38.600
 117070010.100 7  91223441.92145  22277691.141                    22277697.840
        43.600          33.800
 18  3 13 13 24 45.0000000  0 19G10R08R07G14G22R09R15R16R17R18R24G19
                                G11G12G28G32G24G17G01
 121750370.918 7  94870575.91544  23168357.992                    23168364.434
        42.800          28.000
                  86318421.002 6  20724890.742                    20724891.863
                        40.900
                  86429936.944 6  20758937.320                    20758939.574
                        41.200
 129426857.126 6 100852026.89643  24629093.711                    24629096.840
        38.300          22.200
 129136975.455 6 100626312.14044  24573972.203                    24573972.852
        41.100          27.000
                  88028203.628 6  21194815.016                    21194814.125
                        41.400
                  94742244.563 5  22795351.844                    22795355.348
                        33.300
                  80039770.658 6  19264646.133                    19264647.473
                        40.900
                  84126046.348 6  20212668.922                    20212670.746
                        41.500
                  94070410.590 6  22657573.883                    22657576.691
                        41.000
                  88134715.645 5  21190675.219                    21190676.262
                        32.500
 116247505.445 7  90582477.43645  22121165.641                    22121166.883
        46.300          35.500
 121199546.153 6  94441210.85244  23063505.641                    23063508.672
        41.600          27.000
 121198715.983 7  94440487.29644  23063328.070                    23063331.824
        46.800          29.400
 125771440.354 7  98003734.54844  23933509.898                    23933514.254
        42.100          25.200
 119943328.045 7  93462353.64645  22824455.602                    22824461.566
        46.500          34.200
 109486146.589 8  85313899.70446  20834521.961                    20834527.156
        50.000          41.300
 114915240.592 8  89544354.09146  21867643.344                    21867646.445
        51.100          38.900
 117070749.298 7  91224017.90745  22277832.031                    22277838.285
        44.000          34.200
 18  3 13 13 24 46.0000000  0 19G10R08R07G14G22R09R15R16R17R18R24G19
                                G11G12G28G32G24G17G01
 121753351.688 7  94872898.61744  23168925.609                    23168931.453
        43.300          28.900
                  86317338.724 6  20724630.438                    20724631.617
                        40.500
                  86432140.446 6  20759466.367                    20759468.406
                        41.200
 129423857.023 6 100849689.16543  24628522.008                    24628526.254
        38.000          21.800
 129134552.786 6 100624424.35044  24573510.914                    24573511.859
        41.300          27.000
                  88025710.976 6  21194213.945                    21194214.719
                        41.200
                  94745969.240 5  22796247.211                    22796251.496
                        31.700
                  80040595.864 6  19264844.352                    19264846.340
                        40.500
                  84125305.984 6  20212492.008                    20212492.914
                        41.400
                  94067307.284 6  22656826.570                    22656829.207
                        41.200
                  88137256.037 5  21191288.500                    21191287.020
                        32.300
 116245296.390 7  90580756.09545  22120745.211                    22120746.691
        46.700          35.900
 121202160.707 6  94443248.15944  23064003.023                    23064006.457
        41.700          27.400
 121195394.055 7  94437898.78544  23062695.953                    23062699.453
        46.800          29.400
 125775099.332 6  98006585.69044  23934205.719                    23934210.262
        41.100          25.300
 119941316.021 7  93460785.83645  22824072.742                    22824077.922
        46.300          34.200
 109486833.046 8  85314434.60246  20834652.273                    20834657.813
        50.200          40.800
 114914672.452 8  89543911.40246  21867535.438                    21867538.375
        51.300          39.000
 117071489.271 7  91224594.50645  22277973.070                    22277979.406
        43.600          33.700
 18  3 13 13 24 47.0000000  0 19G10R08R07G14G22R09R15R16R17R18R24G19
                                G11G12G28G32G24G17G01
 121756332.940 7  94875221.68844  23169492.547                    23169498.992
        43.000          27.400
                  86316257.152 6  20724371.344                    20724372.211
                        40.200
                  86434344.604 6  20759995.492                    20759998.199
                        40.800
 129420857.140 6 100847351.58943  24627951.828                    24627955.496
        38.000          21.500
 129132130.528 6 100622536.87344  24573050.109                    24573051.352
        40.800          27.100
                  88023218.704 6  21193613.648                    21193614.285
                        40.900
                  94749694.146 5  22797143.000                    22797147.391
                        32.200
                  80041421.761 6  19265044.367                    19265044.945
                        40.700
                  84124566.358 6  20212313.234                    20212315.000
                        40.900
                  94064204.259 6  22656078.453                    22656081.711
                        40.900
                  88139797.027 5  21191898.117                    21191898.234
                        32.000
 116243087.938 7  90579035.22445  22120324.750                    22120326.430
        45.500          35.400
 121204775.890 7  94445285.96044  23064501.055                    23064503.930
        42.100          26.900
 121192072.431 7  94435310.52145  23062063.844                    23062067.375
        46.200          30.300
 125778758.556 6  98009437.02544  23934902.086                    23934906.930
        40.600          24.700
 119939304.561 7  93459218.46045  22823690.055                    22823695.465
        46.600          33.600
 109487520.204 8  85314970.04346  20834783.031                    20834788.543
        49.800          40.600
 114914104.968 8  89543469.22346  21867427.352                    21867430.203
        51.200          38.800
 117072230.013 7  91225171.70045  22278114.172                    22278120.414
        44.300          33.800
 18  3 13 13 24 48.0000000  0 19G10R08R07G14G22R09R15R16R17R18R24G19
                                G11G12G28G32G24G17G01
 121759314.744 7  94877545.18944  23170060.164                    23170066.473
        43.300          28.600
                  86315176.259 6  20724110.836                    20724112.578
                        40.600
                  86436549.424 6  20760524.367                    20760527.430
                        41.000
 129417857.529 6 100845014.21343  24627380.375                    24627384.215
        37.700          21.100
 129129708.611 6 100620649.65744  24572589.727                    24572590.059
        40.800          27.100
                  88020726.812 6  21193014.352                    21193014.246
                        41.200
                  94753419.215 5  22798039.852                    22798043.273
                        33.300
                  80042248.319 6  19265242.375                    19265243.430
                        40.400
                  84123827.485 6  20212136.141                    20212137.570
                        41.100
                  94061101.457 6  22655331.250                    22655334.441
                        41.400
                  88142338.635 5  21192508.516                    21192509.445
                        31.400
 116240880.079 7  90577314.81345  22119904.367                    22119906.191
        45.300          35.200
 121207391.739 6  94447324.27844  23064998.422                    23065001.375
        41.800          26.300
 121188751.146 7  94432722.50344  23061431.969                    23061435.352
        46.100          29.900
 125782417.951 6  98012288.49144  23935599.430                    23935603.270
        41.300          26.600
 119937293.646 7  93457651.51345  22823307.063                    22823312.676
        46.700          33.700
 109488208.092 8  85315506.05146  20834914.320                    20834919.508
        49.800          40.600
 114913538.129 8  89543027.54046  21867319.391                    21867322.488
        51.500          38.600
 117072971.528 7  91225749.50745  22278255.313                    22278261.688
        44.000          33.800
 18  3 13 13 24 49.0000000  0 19G10R08R07G14G22R09R15R16R17R18R24G19
                                G11G12G28G32G24G17G01
 121762297.063 7  94879869.07244  23170627.313                    23170633.840
        43.500          28.900
                  86314096.029 6  20723852.266                    20723853.547
                        40.400
                  86438754.877 6  20761054.914                    20761056.984
                        41.200
 129414858.133 6 100842677.02443  24626810.180                    24626813.313
        37.900          21.300
 129127287.087 6 100618762.75444  24572128.523                    24572129.348
        41.100          27.200
                  88018235.292 6  21192414.633                    21192414.531
                        41.300
                  94757144.436 5  22798936.305                    22798940.145
                        33.300
                  80043075.523 6  19265441.633                    19265442.863
                        40.800
                  84123089.313 6  20211958.641                    20211960.348
                        41.300
                  94057998.913 6  22654584.281                    22654587.543
                        40.400
                  88144880.794 5  21193121.508                    21193120.461
                        31.300
 116238672.824 7  90575594.88045  22119484.680                    22119485.672
        45.700          35.100
 121210008.190 6  94449363.06644  23065496.688                    23065499.734
        41.100          25.400
 121185430.156 7  94430134.70644  23060799.906                    23060803.473
        46.400          29.400
 125786077.626 6  98015140.18544  23936296.203                    23936299.477
        41.600          26.500
 119935283.232 7  93456084.95145  22822924.531                    22822930.340
        47.000          34.300
 109488896.672 8  85316042.60446  20835045.195                    20835050.371
        49.500          40.900
 114912971.925 8  89542586.35246  21867211.953                    21867214.535
        51.600          38.100
 117073713.825 7  91226327.91345  22278396.141                    22278402.328
        43.800          33.600
 18  3 13 13 24 50.0000000  0 19G10R08R07G14G22R09R15R16R17R18R24G19
                                G11G12G28G32G24G17G01
 121765279.897 7  94882193.35844  23171194.836                    23171201.859
        43.000          28.500
                  86313016.440 6  20723592.789                    20723593.695
                        40.500
                  86440960.949 6  20761585.125                    20761586.938
                        40.900
 129411859.007 6 100840340.05443  24626239.305                    24626242.906
        37.700          20.900
 129124865.962 6 100616876.16444  24571667.734                    24571668.453
        41.000          26.500
                  88015744.138 6  21191814.734                    21191814.723
                        40.900
                  94760869.857 5  22799832.133                    22799836.996
                        33.100
                  80043903.415 6  19265640.773                    19265642.242
                        40.400
                  84122351.908 6  20211782.031                    20211783.055
                        40.900
                  94054896.660 6  22653837.063                    22653840.445
                        40.800
                  88147423.543 5  21193732.320                    21193732.461
                        30.900
 116236466.182 7  90573875.42445  22119065.000                    22119065.879
        45.900          35.200
 121212625.280 6  94451402.36344  23065994.359                    23065997.777
        40.900          26.500
 121182109.505 7  94427547.17544  23060167.852                    23060171.672
        45.100          26.800
 125789737.539 6  98017992.06844  23936992.000                    23936995.926
        41.300          26.400
 119933273.389 7  93454518.83045  22822542.211                    22822548.242
        46.900          34.400
 109489585.975 8  85316579.72146  20835175.906                    20835181.281
        49.400          40.900
 114912406.386 8  89542145.67746  21867104.219                    21867107.086
        51.700          38.400
 117074456.905 7  91226906.94145  22278537.125                    22278544.277
        43.700          33.400
 18  3 13 13 24 51.0000000  0 19G10R08R07G14G22R09R15R16R17R18R24G19
                                G11G12G28G32G24G17G01
 121768263.299 7  94884518.09244  23171762.969                    23171769.449
        43.000          28.400
                  86311937.544 6  20723334.070                    20723334.941
                        40.500
                  86443167.618 6  20762114.930                    20762116.961
                        41.200
 129408860.139 6 100838003.27443  24625667.953                    24625672.008
        37.200          21.100
 129122445.209 6 100614989.86444  24571207.594                    24571207.965
        41.300          26.800
                  88013253.408 6  21191214.578                    21191214.875
                        41.600
                  94764595.476 5  22800728.000                    22800732.559
                        30.700
                  80044731.979 6  19265840.078                    19265841.539
                        40.300
                  84121615.240 6  20211604.086                    20211606.000
                        40.500
                  94051794.656 6  22653089.711                    22653092.676
                        40.300
                  88149966.925 5  21194342.492                    21194343.758
                        30.700
 116234260.156 7  90572156.44545  22118644.711                    22118646.215
        45.800          35.500
 121215243.055 6  94453442.18944  23066492.320                    23066495.832
        40.200          26.500
 121178789.134 7  94424959.90744  23059536.523                    23059539.508
        46.300          29.300
 125793397.657 6  98020844.09344  23937687.859                    23937692.133
        41.300          26.500
 119931264.060 7  93452953.11645  22822160.313                    22822165.250
        47.600          34.600
 109490275.956 8  85317117.36846  20835307.594                    20835312.984
        49.600          41.100
 114911841.486 8  89541705.50846  21866996.008                    21866999.621
        51.700          37.900
 117075200.745 7  91227486.55445  22278678.500                    22278685.566
        43.300          33.800
 18  3 13 13 24 52.0000000  0 19G10R08R07G14G22R09R15R16R17R18R24G19
                                G11G12G28G32G24G17G01
 121771247.157 7  94886843.18844  23172330.578                    23172337.453
        42.200          27.700
                  86310859.393 6  20723074.977                    20723075.762
                        41.100
                  86445374.896 6  20762645.500                    20762646.891
                        41.500
 129405861.547 6 100835666.71743  24625097.945                    24625101.555
        37.000          21.300
 129120024.817 6 100613103.84844  24570746.117                    24570747.438
        40.500          26.400
                  88010763.021 6  21190615.391                    21190615.492
                        41.600
                  94768321.245 5  22801625.195                    22801628.246
                        32.200
                  80045561.221 6  19266039.516                    19266041.191
                        40.000
                  84120879.289 6  20211427.891                    20211429.648
                        41.000
                  94048692.922 6  22652342.781                    22652345.715
                        41.000
                  88152510.863 5  21194954.953                    21194955.230
                        32.600
 116232054.748 7  90570437.95545  22118225.109                    22118226.379
        46.000          35.200
 121217861.443 6  94455482.49844  23066990.672                    23066993.965
        39.900          26.000
 121175469.094 7  94422372.91244  23058904.055                    23058907.672
        46.400          28.300
 125797058.010 6  98023696.29644  23938385.016                    23938389.336
        41.500          26.500
 119929255.286 8  93451387.83545  22821778.000                    22821783.102
        48.100          34.700
 109490966.601 8  85317655.52946  20835438.398                    20835444.477
        50.000          40.900
 114911277.227 8  89541265.83746  21866889.016                    21866892.379
        51.600          38.400
 117075945.341 7  91228066.76345  22278819.914                    22278827.371
        43.100          32.600
 18  3 13 13 24 53.0000000  0 19G10R08R07G14G22R09R15R16R17R18R24G19
                                G11G12G28G32G24G17G01
 121774231.537 7  94889168.69144  23172898.805                    23172905.449
        44.400          29.100
                  86309781.941 6  20722816.945                    20722817.688
                        41.100
                  86447582.816 6  20763176.383                    20763177.418
                        41.800
 129402863.158 5 100833330.31943  24624527.328                    24624531.055
        35.400          20.900
 129117604.810 6 100611218.12944  24570286.781                    24570287.258
        41.100          27.600
                  88008273.021 6  21190015.297                    21190015.551
                        41.300
                  94772047.258 5  22802523.109                    22802524.977
                        32.600
                  80046391.167 6  19266239.844                    19266241.172
                        40.400
                  84120144.082 6  20211251.242                    20211252.641
                        40.600
                  94045591.481 6  22651596.438                    22651598.547
                        41.200
                  88155055.393 5  21195567.477                    21195567.223
                        32.400
 116229849.938 7  90568719.92245  22117805.805                    22117807.148
        46.000          35.800
 121220480.448 6  94457523.27944  23067489.422                    23067492.586
        39.600          27.500
 121172149.401 7  94419786.17345  23058272.734                    23058276.137
        46.900          31.000
 125800718.538 7  98026548.62644  23939081.875                    23939084.922
        42.100          25.300
 119927247.090 7  93449823.00545  22821395.773                    22821401.172
        47.800          34.200
 109491657.989 8  85318194.27146  20835569.742                    20835575.734
        50.200          41.300
 114910713.632 8  89540826.68446  21866782.500                    21866784.840
        51.600          38.500
 117076690.712 7  91228647.56645  22278962.563                    22278969.332
        43.200          33.300
 18  3 13 13 24 54.0000000  0 19G10R08R07G14G22R09R15R16R17R18R24G19
                                G11G12G28G32G24G17G01
 121777216.491 7  94891494.64944  23173466.484                    23173473.297
        42.800          29.100
                  86308705.184 6  20722558.266                    20722559.121
                        40.900
                  86449791.385 6  20763706.406                    20763707.359
                        40.900
 129399865.043 5 100830994.11943  24623957.477                    24623961.051
        35.700          21.300
 129115185.212 6 100609332.73144  24569826.008                    24569826.723
        40.400          27.000
                  88005783.432 6  21189416.750                    21189416.059
                        41.600
                  94775773.462 5  22803418.945                    22803422.215
                        34.200
                  80047221.797 6  19266440.086                    19266440.965
                        40.500
                  84119409.649 6  20211074.813                    20211076.254
                        41.000
                  94042490.326 6  22650849.742                    22650851.105
                        40.800
                  88157600.524 5  21196178.813                    21196178.559
                        31.500
 116227645.733 7  90567002.35845  22117385.656                    22117387.461
        45.200          35.500
 121223100.194 6  94459564.62544  23067988.281                    23067991.055
        40.400          27.900
 121168830.031 7  94417199.64444  23057641.172                    23057644.508
        45.700          29.300
 125804379.404 6  98029401.23544  23939777.969                    23939781.906
        41.800          25.700
 119925239.441 8  93448258.59545  22821013.820                    22821019.359
        48.300          34.400
 109492350.117 8  85318733.59546  20835701.992                    20835707.461
        50.300          41.100
 114910150.695 8  89540388.04046  21866674.656                    21866677.820
        51.500          38.400
 117077436.898 7  91229229.00745  22279105.219                    22279110.988
        43.700          33.600
 18  3 13 13 24 55.0000000  0 19G10R08R07G14G22R09R15R16R17R18R24G19
                                G11G12G28G32G24G17G01
 121780202.010 7  94893821.04544  23174034.727                    23174041.133
        42.700          29.000
                  86307629.096 6  20722299.547                    20722300.348
                        41.200
                  86452000.638 6  20764236.781                    20764238.629
                        41.500
 129396867.250 6 100828658.17743  24623385.578                    24623390.027
        36.100          21.700
 129112765.977 6 100607447.61844  24569365.102                    24569366.410
        40.900          25.300
                  88003294.222 7  21188817.203                    21188817.340
                        42.100
                  94779499.855 5  22804314.258                    22804318.980
                        34.100
                  80048053.119 6  19266639.523                    19266640.629
                        40.400
                  84118675.947 6  20210898.563                    20210899.699
                        40.700
                  94039389.422 6  22650102.570                    22650104.586
                        40.800
                  88160146.230 5  21196791.273                    21196790.781
                        32.400
 116225442.146 7  90565285.28145  22116966.430                    22116968.172
        45.200          35.400
 121225720.538 6  94461606.43244  23068487.383                    23068489.230
        40.500          27.000
 121165510.996 7  94414613.39744  23057009.500                    23057013.039
        45.700          27.800
 125808040.436 7  98032253.95744  23940474.805                    23940478.531
        42.000          26.500
 119923232.348 8  93446694.61745  22820631.711                    22820637.660
        48.000          33.600
 109493043.026 8  85319273.52946  20835833.641                    20835839.531
        49.900          40.500
 114909588.420 8  89539949.91346  21866567.680                    21866570.480
        51.300          39.000
 117078183.838 7  91229811.02945  22279247.453                    22279253.438
        44.200          33.800
 18  3 13 13 24 56.0000000  0 19G10R08R07G14G22R09R15R16R17R18R24G19
                                G11G12G28G32G24G17G01
 121783188.007 7  94896147.81244  23174602.539                    23174609.441
        43.100          29.500
                  86306553.635 6  20722041.750                    20722042.082
                        41.300
                  86454210.524 6  20764767.891                    20764769.645
                        41.400
 129393869.637 6 100826322.35643  24622816.055                    24622819.543
        36.600          21.300
 129110347.127 6 100605562.80444  24568905.211                    24568906.172
        40.500          25.400
                  88000805.362 7  21188216.938                    21188218.133
                        42.300
                  94783226.427 5  22805211.328                    22805216.023
                        33.300
                  80048885.121 6  19266840.273                    19266841.141
                        40.800
                  84117942.975 6  20210722.445                    20210723.984
                        41.200
                  94036288.769 6  22649355.898                    22649357.664
                        41.000
                  88162692.504 5  21197402.570                    21197403.383
                        32.600
 116223239.173 7  90563568.68645  22116547.664                    22116548.777
        45.800          34.800
 121228341.502 6  94463648.73144  23068986.500                    23068988.172
        41.700          26.800
 121162192.297 7  94412027.35944  23056377.844                    23056380.977
        45.300          29.200
 125811701.741 7  98035106.89544  23941171.133                    23941175.699
        42.000          25.700
 119921225.822 7  93445131.08345  22820249.336                    22820255.684
        46.600          33.600
 109493736.613 8  85319813.98546  20835965.422                    20835971.324
        49.600          40.900
 114909026.807 8  89539512.29446  21866461.133                    21866463.813
        51.400          39.200
 117078931.540 7  91230393.65245  22279389.594                    22279395.586
        44.300          34.400
 18  3 13 13 24 57.0000000  0 19G10R08R07G14G22R09R15R16R17R18R24G19
                                G11G12G28G32G24G17G01
 121786174.511 7  94898474.97644  23175170.570                    23175177.809
        43.400          28.100
                  86305478.821 6  20721783.555                    20721783.887
                        40.900
                  86456421.008 6  20765298.516                    20765299.938
                        41.600
 129390872.351 6 100823986.82143  24622245.742                    24622249.391
        36.200          21.300
 129107928.672 6 100603678.29844  24568444.609                    24568445.867
        39.900          25.100
                  87998316.913 7  21187618.563                    21187618.500
                        42.100
                  94786953.143 5  22806107.914                    22806111.957
                        32.100
                  80049717.800 6  19267040.367                    19267041.480
                        41.000
                  84117210.703 6  20210546.617                    20210547.637
                        41.200
                  94033188.391 6  22648608.617                    22648610.418
                        40.600
                  88165239.379 5  21198015.570                    21198015.500
                        32.700
 116221036.817 7  90561852.56245  22116128.539                    22116129.953
        45.500          35.500
 121230963.110 7  94465691.55744  23069484.477                    23069486.957
        42.500          25.500
 121158873.873 7  94409441.55744  23055746.359                    23055749.977
        45.300          29.100
 125815363.224 6  98037959.96644  23941868.695                    23941872.605
        41.500          27.300
 119919219.792 7  93443567.93845  22819867.086                    22819873.867
        45.800          33.200
 109494430.887 8  85320354.97046  20836097.555                    20836103.309
        49.900          41.400
 114908465.811 8  89539075.17046  21866354.188                    21866357.488
        51.000          38.900
 117079680.021 7  91230976.89345  22279532.297                    22279538.566
        44.400          33.500
 18  3 13 13 24 58.0000000  0 19G10R08R07G14G22R09R15R16R17R18R24G19
                                G11G12G28G32G24G17G01
 121789161.530 7  94900802.53744  23175739.492                    23175746.566
        43.400          28.200
                  86304404.671 6  20721525.875                    20721526.375
                        40.900
                  86458632.116 6  20765829.172                    20765831.313
                        41.500
 129387875.224 6 100821651.40643  24621675.906                    24621678.988
        37.100          22.300
 129105510.563 6 100601794.05744  24567984.008                    24567985.422
        40.500          25.400
                  87995828.813 6  21187019.188                    21187019.336
                        41.600
                  94790680.052 5  22807005.492                    22807008.723
                        31.900
                  80050551.138 6  19267241.086                    19267241.984
                        41.000
                  84116479.116 6  20210370.922                    20210372.008
                        40.600
                  94030088.246 6  22647862.484                    22647864.645
                        40.700
                  88167786.807 5  21198628.664                    21198627.922
                        32.300
 116218835.009 7  90560136.85945  22115709.313                    22115710.887
        44.600          33.900
 121233585.287 7  94467734.83444  23069983.703                    23069985.871
        43.200          27.400
 121155555.734 7  94406855.99644  23055115.031                    23055118.465
        44.300          26.500
 125819024.917 7  98040813.20144  23942565.773                    23942568.777
        42.900          26.000
 119917214.314 7  93442005.22745  22819484.453                    22819492.277
        44.500          33.000
 109495125.889 8  85320896.52846  20836230.234                    20836235.918
        49.400          40.600
 114907905.461 8  89538638.54146  21866247.266                    21866250.730
        50.300          38.700
 117080429.266 7  91231560.73745  22279674.586                    22279680.355
        44.700          33.100
 18  3 13 13 24 59.0000000  0 19G10R08R07G14G22R09R15R16R17R18R24G19
                                G11G12G28G32G24G17G01
 121792149.071 7  94903130.50444  23176307.609                    23176314.410
        43.900          29.800
                  86303331.243 6  20721267.305                    20721268.723
                        40.700
                  86460843.933 6  20766360.531                    20766362.008
                        41.800
 129384878.412 6 100819316.22943  24621105.477                    24621108.617
        36.100          21.300
 129103092.817 6 100599910.10944  24567524.539                    24567525.207
        39.500          24.400
                  87993341.145 7  21186420.227                    21186420.367
                        42.100
                  94794407.168 5  22807902.078                    22807905.000
                        34.800
                  80051385.156 6  19267441.313                    19267442.539
                        40.800
                  84115748.245 6  20210195.063                    20210196.309
                        41.400
                                  22647116.609

                  88170334.845 5  21199240.039                    21199241.152
                        32.300
 116216633.976 7  90558421.76144  22115290.633                    22115292.211
        43.200          29.100
 121236208.196 7  94469778.67344  23070482.539                    23070484.871
        42.900          26.700
 121152237.988 7  94404270.75444  23054483.625                    23054487.090
        44.500          25.800
 125822686.917 6  98043666.66844  23943261.227                    23943265.613
        40.600          25.100
 119915209.324 7  93440442.91345  22819103.141                    22819110.465
        43.900          32.700
 109495821.577 8  85321438.62446  20836362.508                    20836368.316
        49.600          40.000
 114907345.794 8  89538202.44046  21866140.883                    21866143.953
        50.500          38.700
 117081179.232 7  91232145.13945  22279817.117                    22279822.965
        44.600          33.000
 18  3 13 13 25  0.0000000  0 18G10R08R07G14G22R09R15R16R17R24G19G11
                                G12G28G32G24G17G01
 121795137.129 7  94905458.88044  23176876.844                    23176883.344
        43.900          29.100
                  86302258.479 6  20721010.602                    20721011.027
                        41.500
                  86463056.285 6  20766892.109                    20766894.246
                        41.000
 129381881.879 6 100816981.27443  24620534.906                    24620539.293
        36.800          21.100
 129100675.447 6 100598026.44743  24567064.500                    24567065.113
        40.300          22.600
                  87990853.761 6  21185821.914                    21185821.988
                        41.500
                  94798134.584 5  22808797.500                    22808802.504
                        34.700
                  80052219.827 6  19267643.523                    19267643.582
                        39.900
                  84115018.112 6  20210019.633                    20210020.527
                        40.700
                  88172883.501 5  21199852.961                    21199853.813
                        31.400
 116214433.359 7  90556706.99845  22114872.102                    22114873.590
        46.400          35.500
 121238831.693 6  94471822.94643  23070981.586                    23070984.262
        40.500          23.200
 121148920.517 7  94401685.70844  23053852.172                    23053855.230
        44.700          28.300
 125826349.084 6  98046520.24644  23943958.375                    23943962.906
        40.600          25.500
 119913204.935 7  93438881.08345  22818722.508                    22818728.766
        43.500          34.000
 109496517.996 8  85321981.28546  20836494.906                    20836500.633
        50.600          41.400
 114906786.740 8  89537766.82346  21866034.781                    21866037.645
        51.800          40.800
 117081929.981 7  91232730.15745  22279959.977                    22279966.117
        44.300          33.000
 18  3 13 13 25  1.0000000  0 18G10R08R07G14G22R09R15R16R17R24G19G11
                                G12G28G32G24G17G01
 121798125.742 7  94907787.68844  23177445.148                    23177452.371
        43.900          29.200
                  86301186.430 6  20720752.938                    20720753.828
                        41.500
                  86465269.339 6  20767423.148                    20767425.711
                        41.600
 129378885.559 5 100814646.47543  24619964.664                    24619968.539
        35.000          21.300
 129098258.450 6 100596143.08344  24566604.516                    24566605.301
        39.200          24.200
                  87988366.860 7  21185222.500                    21185222.852
                        42.100
                  94801862.156 5  22809695.688                    22809699.824
                        35.600
                  80053055.205 6  19267843.461                    19267844.695
                        41.300
                  84114288.776 6  20209844.344                    20209845.680
                        41.400
                  88175432.737 5  21200466.008                    21200466.531
                        32.000
 116212233.458 7  90554992.78845  22114453.117                    22114454.406
        46.200          35.600
 121241455.872 6  94473867.74644  23071480.648                    23071483.352
        39.700          24.800
 121145603.426 7  94399100.97544  23053221.031                    23053224.605
        45.000          29.400
 125830011.474 6  98049373.98443  23944656.023                    23944659.863
        39.800          22.800
 119911201.029 7  93437319.62345  22818342.117                    22818347.316
        43.200          32.100
 109497215.130 8  85322524.51346  20836627.180                    20836633.109
        49.300          40.500
 114906228.405 8  89537331.75246  21865928.586                    21865931.559
        51.600          40.200
 117082681.536 7  91233315.78945  22280102.148                    22280108.996
        43.400          33.000
 18  3 13 13 25  2.0000000  0 18G10R08R07G14G22R09R15R16R17R24G19G11
                                G12G28G32G24G17G01
 121801114.881 7  94910116.88944  23178013.711                    23178020.855
        43.400          29.800
                  86300115.096 7  20720496.469                    20720496.355
                        42.100
                  86467483.032 6  20767955.055                    20767956.855
                        41.300
 129375889.552 6 100812311.90843  24619394.766                    24619398.313
        36.400          21.700
 129095841.927 6 100594260.08143  24566144.422                    24566145.098
        39.000          22.000
                  87985880.304 6  21184623.844                    21184624.137
                        41.600
                  94805589.858 5  22810592.430                    22810595.859
                        34.100
                  80053891.259 6  19268045.070                    19268046.043
                        40.900
                  84113560.163 6  20209669.344                    20209671.086
                        41.500
                  88177982.586 5  21201078.945                    21201079.520
                        31.600
 116210034.192 7  90553279.07745  22114034.922                    22114035.914
        45.100          35.700
 121244080.732 6  94475913.08144  23071979.930                    23071983.066
        39.800          25.400
 121142286.640 7  94396516.47444  23052589.852                    23052593.082
        44.600          27.600
 125833674.114 6  98052227.90943  23945353.711                    23945356.914
        41.100          23.300
 119909197.794 7  93435758.69545  22817962.289                    22817966.801
        44.600          32.000
 109497913.031 8  85323068.33646  20836759.828                    20836766.238
        48.500          40.400
 114905670.710 8  89536897.19146  21865821.656                    21865825.219
        51.000          39.900
 117083433.912 7  91233902.04845  22280245.727                    22280251.918
        42.600          32.300
 18  3 13 13 25  3.0000000  0 19G10R08R07G14G22R09R15R16R17R18R24G19
                                G11G12G28G32G24G17G01
 121804104.557 7  94912446.49444  23178583.484                    23178589.691
        42.900          29.900
                  86299044.402 6  20720238.773                    20720239.199
                        40.100
                  86469697.390 6  20768486.727                    20768488.906
                        41.900
 129372893.806 6 100809977.56843  24618824.094                    24618828.094
        38.400          20.900
 129093425.720 6 100592377.31843  24565684.945                    24565685.508
        39.200          22.000
                  87983394.148 6  21184025.445                    21184025.863
                        41.500
                  94809317.766 5  22811490.297                    22811493.215
                        32.100
                  80054728.011 6  19268246.734                    19268247.348
                        40.800
                  84112832.242 6  20209494.297                    20209495.965
                        39.700
                  94014591.99516  22644129.883                    22644132.195
                        41.400
                  88180533.016 5  21201694.188                    21201693.285
                        31.200
 116207835.513 7  90551565.82746  22113615.859                    22113617.793
        45.800          36.900
 121246706.179 6  94477958.87243  23072479.852                    23072483.105
        39.800          22.600
 121138970.155 7  94393932.21344  23051958.320                    23051962.156
        42.700          25.100
 125837337.008 6  98055082.05043  23946049.078                    23946053.348
        39.900          22.600
 119907195.051 8  93434198.10745  22817581.563                    22817585.313
        49.000          35.100
 109498611.565 8  85323612.65146  20836893.281                    20836898.703
        50.000          39.700
 114905113.633 8  89536463.11146  21865716.219                    21865719.176
        52.100          39.500
 117084187.029 7  91234488.89344  22280389.078                    22280395.648
        42.800          29.600
 18  3 13 13 25  4.0000000  0 19G10R08R07G14G22R09R15R16R17R18R24G19
                                G11G12G28G32G24G17G01
 121807094.738 7  94914776.50044  23179152.055                    23179158.840
        42.500          29.100
                  86297974.439 6  20719982.172                    20719982.875
                        41.100
                  86471912.335 6  20769018.914                    20769021.055
                        41.800
 129369898.239 5 100807643.36443  24618253.750                    24618258.484
        35.100          21.800
 129091009.974 6 100590494.92643  24565224.914                    24565225.867
        40.100          23.200
                  87980908.381 6  21183427.164                    21183427.188
                        41.500
                  94813045.912 5  22812385.367                    22812389.941
                        32.900
                  80055565.411 6  19268447.875                    19268448.523
                        41.100
                  84112105.082 6  20209319.852                    20209321.418
                        41.200
                  94011493.518 6  22643383.750                    22643385.914
                        40.300
                  88183084.041 5  21202306.156                    21202306.410
                        31.200
 116205637.454 7  90549853.06146  22113198.313                    22113199.379
        45.600          36.600
 121249332.324 6  94480005.21544  23072980.242                    23072982.805
        40.300          25.400
 121135654.017 7  94391348.19844  23051327.086                    23051330.875
        42.100          25.500
 125841000.125 6  98057936.38044  23946746.820                    23946750.953
        40.900          24.000
 119905192.899 8  93432637.96945  22817200.492                    22817204.578
        49.000          34.000
 109499310.867 8  85324157.56346  20837026.563                    20837032.195
        50.300          41.000
 114904557.265 8  89536029.59546  21865610.547                    21865613.254
        51.600          38.300
 117084940.879 7  91235076.28745  22280532.445                    22280538.648
        42.800          32.100
 18  3 13 13 25  5.0000000  0 19G10R08R07G14G22R09R15R16R17R18R24G19
                                G11G12G28G32G24G17G01
 121810085.459 7  94917106.95844  23179721.039                    23179727.730
        42.400          28.000
                  86296905.177 6  20719724.844                    20719725.844
                        39.700
                  86474127.922 6  20769551.203                    20769553.145
                        40.900
 129366903.044 5 100805309.46643  24617684.648                    24617688.223
        35.900          20.600
 129088594.554 6 100588612.78344  24564765.469                    24564765.973
        40.600          26.700
                  87978423.008 6  21182828.633                    21182828.543
                        40.200
                  94816774.295 5  22813282.383                    22813286.512
                        34.800
                  80056403.514 6  19268650.156                    19268650.770
                        40.900
                  84111378.667 6  20209145.078                    20209146.586
                        41.100
                  94008395.332 6  22642637.266                    22642639.375
                        41.400
                  88185635.679 5  21202917.891                    21202919.527
                        31.200
 116203440.014 7  90548140.76546  22112780.023                    22112781.293
        45.700          36.000
 121251959.109 6  94482052.05344  23073479.898                    23073482.566
        40.700          25.800
 121132338.201 7  94388764.44044  23050696.578                    23050699.973
        44.300          29.600
 125844663.506 6  98060790.89444  23947443.430                    23947447.746
        40.700          25.100
 119903191.271 8  93431078.23045  22816819.422                    22816823.273
        49.600          34.400
 109500010.870 8  85324703.01846  20837160.328                    20837165.395
        51.000          41.300
 114904001.514 8  89535596.54246  21865504.523                    21865507.891
        50.900          38.500
 117085695.541 7  91235664.32145  22280676.641                    22280682.609
        43.100          33.900
 18  3 13 13 25  6.0000000  0 19G10R08R07G14G22R09R15R16R17R18R24G19
                                G11G12G28G32G24G17G01
 121813076.665 7  94919437.80844  23180290.219                    23180297.082
        43.400          29.900
                  86295836.584 6  20719468.297                    20719469.355
                        39.600
                  86476344.142 7  20770083.711                    20770085.309
                        42.000
 129363908.053 5 100802975.70443  24617115.578                    24617118.320
        35.000          20.600
 129086179.501 6 100586730.92444  24564305.766                    24564306.316
        41.500          29.100
                  87975938.008 6  21182230.344                    21182230.262
                        41.400
                  94820502.756 5  22814181.484                    22814183.684
                        34.200
                  80057242.328 6  19268851.352                    19268852.734
                        41.300
                  84110652.935 6  20208970.867                    20208972.293
                        41.800
                  94005297.445 6  22641890.789                    22641893.289
                        41.200
                  88188187.851 5  21203532.828                    21203532.938
                        32.200
 116201243.160 7  90546428.93145  22112362.039                    22112363.289
        45.300          35.500
 121254586.451 7  94484099.32944  23073980.492                    23073982.461
        42.000          28.600
 121129022.688 7  94386180.89544  23050066.125                    23050069.277
        45.000          29.700
 125848327.040 6  98063645.52644  23948142.430                    23948145.742
        40.900          26.200
 119901190.205 8  93429518.93245  22816438.133                    22816443.297
        49.100          33.800
 109500711.535 8  85325248.98746  20837293.813                    20837298.762
        50.900          41.100
 114903446.425 8  89535164.00946  21865398.289                    21865401.441
        51.400          38.400
 117086450.944 7  91236252.93445  22280820.367                    22280826.148
        44.800          34.800
 18  3 13 13 25  7.0000000  0 19G10R08R07G14G22R09R15R16R17R18R24G19
                                G11G12G28G32G24G17G01
 121816068.434 6  94921769.09744  23180859.797                    23180866.430
        41.700          26.700
                  86294768.729 6  20719212.344                    20719212.578
                        41.100
                  86478560.995 6  20770615.898                    20770617.480
                        40.300
 129360913.380 5 100800642.21643  24616545.609                    24616548.555
        33.700          19.900
 129083764.936 6 100584849.45244  24563846.469                    24563847.070
        39.900          27.600
                  87973453.380 6  21181631.477                    21181631.656
                        40.400
                  94824231.498 5  22815079.781                    22815082.039
                        35.200
                  80058081.813 6  19269052.938                    19269054.555
                        40.400
                  84109927.943 6  20208796.734                    20208798.098
                        41.200
                  94002199.840 6  22641144.273                    22641147.516
                        40.400
                  88190740.643 5  21204147.211                    21204147.363
                        34.000
 116199046.989 7  90544717.64045  22111944.078                    22111945.133
        45.600          35.700
 121257214.573 6  94486147.22844  23074479.633                    23074482.266
        40.900          26.800
 121125707.555 7  94383597.65745  23049435.102                    23049438.063
        46.000          30.700
 125851990.918 6  98066500.42044  23948840.000                    23948841.953
        41.900          27.400
 119899189.739 7  93427960.10645  22816057.172                    22816062.395
        47.600          33.200
 109501413.005 8  85325795.59047  20837427.125                    20837431.992
        51.000          42.000
 114902892.025 8  89534732.00746  21865293.516                    21865296.496
        51.900          40.100
 117087207.231 7  91236842.23445  22280964.672                    22280970.098
        43.800          33.300
 18  3 13 13 25  8.0000000  0 19G10R08R07G14G22R09R15R16R17R18R24G19
                                G11G12G28G32G24G17G01
 121819060.746 6  94924100.78144  23181429.000                    23181436.113
        41.400          27.400
                  86293701.531 6  20718956.430                    20718956.742
                        40.500
                  86480778.481 6  20771149.445                    20771150.441
                        40.900
 129357918.886 6 100798308.84243  24615974.781                    24615978.629
        36.100          20.100
 129081350.647 7 100582968.19644  24563387.172                    24563387.641
        42.600          28.300
                  87970969.124 6  21181034.328                    21181033.855
                        40.800
                  94827960.333 5  22815975.461                    22815978.699
                        33.200
                  80058922.007 6  19269255.641                    19269257.008
                        39.600
                  84109203.710 6  20208621.820                    20208623.613
                        39.500
                  93999102.481 6  22640398.547                    22640401.402
                        40.700
                  88193293.993 5  21204760.414                    21204761.441
                        33.400
 116196851.382 7  90543006.77446  22111526.164                    22111527.395
        46.200          38.100
 121259843.229 7  94488195.53944  23074980.266                    23074982.699
        42.600          28.700
 121122392.705 7  94381014.65645  23048803.961                    23048807.473
        45.700          32.100
 125855654.981 6  98069355.47044  23949535.492                    23949539.313
        41.000          25.700
 119897189.783 7  93426401.66745  22815676.008                    22815682.203
        47.000          30.600
 109502115.153 8  85326342.72947  20837560.953                    20837565.859
        50.800          42.000
 114902338.233 8  89534300.48846  21865188.273                    21865191.109
        51.900          38.500
 117087964.168 7  91237432.06346  22281108.648                    22281114.434
        45.900          36.000
 18  3 13 13 25  9.0000000  0 19G10R08R07G14G22R09R15R16R17R18R24G19
                                G11G12G28G32G24G17G01
 121822053.537 7  94926432.83244  23181998.258                    23182005.012
        42.800          27.600
                  86292635.055 6  20718700.445                    20718700.484
                        41.400
                  86482996.638 6  20771681.352                    20771682.934
                        41.500
 129354924.704 5 100795975.70643  24615405.117                    24615408.605
        35.800          19.600
 129078936.770 6 100581087.24944  24562927.563                    24562927.992
        41.100          26.200
                  87968485.265 6  21180435.094                    21180435.813
                        41.200
                  94831689.445 5  22816870.734                    22816875.582
                        33.600
                  80059762.834 6  19269458.133                    19269459.445
                        40.900
                  84108480.224 6  20208449.047                    20208450.426
                        41.200
                  93996005.357 6  22639653.242                    22639654.844
                        39.800
                  88195847.961 5  21205374.156                    21205375.594
                        32.600
 116194656.370 7  90541296.37145  22111108.734                    22111109.836
        45.200          35.400
 121262472.545 6  94490244.35444  23075480.719                    23075482.977
        41.100          25.200
 121119078.180 7  94378431.91745  23048173.383                    23048177.141
        45.300          30.000
 125859319.309 6  98072210.72844  23950234.234                    23950237.313
        40.400          25.500
 119895190.336 7  93424843.64045  22815294.648                    22815301.516
        47.400          34.400
 109502818.046 8  85326890.44146  20837694.617                    20837699.691
        50.300          41.300
 114901785.119 8  89533869.49646  21865082.539                    21865085.520
        51.200          38.900
 117088721.914 7  91238022.53745  22281252.688                    22281258.676
        44.800          33.100
 18  3 13 13 25 10.0000000  0 19G10R08R07G14G22R09R15R16R17R18R24G19
                                G11G12G28G32G24G17G01
 121825046.825 7  94928765.28144  23182567.938                    23182574.477
        42.600          28.500
                  86291569.160 6  20718443.789                    20718444.840
                        40.600
                  86485215.398 6  20772214.563                    20772215.910
                        40.900
 129351930.719 5 100793642.70443  24614835.836                    24614838.828
        35.700          20.100
 129076523.251 6 100579206.58244  24562468.703                    24562469.055
        41.000          25.800
                  87966001.762 6  21179838.203                    21179838.090
                        40.700
                  94835418.766 5  22817769.492                    22817772.324
                        33.400
                  80060604.335 6  19269660.766                    19269661.926
                        39.700
                  84107757.406 6  20208274.813                    20208276.480
                        40.900
                  93992908.538 6  22638907.188                    22638909.117
                        40.000
                  88198402.458 5  21205989.930                    21205988.930
                        32.200
 116192461.960 7  90539586.43845  22110690.773                    22110692.281
        44.100          35.200
 121265102.466 7  94492293.64144  23075981.586                    23075983.676
        42.100          27.400
 121115763.929 7  94375849.39844  23047542.906                    23047546.164
        44.700          29.900
 125862983.840 6  98075066.14244  23950930.992                    23950934.305
        40.600          25.400
 119893191.388 7  93423286.01045  22814913.305                    22814920.801
        45.700          34.100
 109503521.565 8  85327438.63146  20837828.023                    20837833.426
        49.900          40.700
 114901232.603 8  89533438.97146  21864977.586                    21864980.867
        51.300          38.800
 117089480.391 7  91238613.57145  22281396.836                    22281403.230
        44.600          33.500
 18  3 13 13 25 11.0000000  0 19G10R08R07G14G22R09R15R16R17R18R24G19
                                G11G12G28G32G24G17G01
 121828040.656 7  94931098.15244  23183137.578                    23183144.246
        43.000          29.100
                  86290504.010 6  20718188.055                    20718188.961
                        41.100
                  86487434.814 6  20772747.172                    20772748.777
                        41.600
 129348936.992 5 100791309.91143  24614265.492                    24614269.293
        35.800          19.600
 129074110.139 6 100577326.22344  24562008.805                    24562010.586
        40.900          26.500
                  87963518.690 6  21179239.547                    21179240.168
                        41.000
                  94839148.224 5  22818668.461                    22818669.703
                        35.300
                  80061446.527 6  19269863.469                    19269864.617
                        40.200
                  84107035.387 6  20208102.070                    20208103.797
                        41.200
                  93989811.995 6  22638160.969                    22638163.324
                        40.300
                  88200957.590 5  21206604.227                    21206603.945
                        32.200
 116190268.197 7  90537877.01445  22110273.500                    22110274.711
        44.500          35.300
 121267733.069 7  94494343.45244  23076482.141                    23076484.383
        42.400          26.800
 121112450.055 7  94373267.16444  23046912.195                    23046915.324
        44.000          27.200
 125866648.623 6  98077921.75744  23951629.367                    23951632.113
        41.500          24.700
 119891192.999 7  93421728.82245  22814533.156                    22814541.043
        44.700          35.400
 109504225.829 8  85327987.40246  20837961.508                    20837967.273
        49.900          41.000
 114900680.786 8  89533009.00046  21864872.555                    21864875.672
        51.600          38.900
 117090239.683 7  91239205.24045  22281541.094                    22281547.672
        44.300          33.200
 18  3 13 13 25 12.0000000  0 19G10R08R07G14G22R09R15R16R17R18R24G19
                                G11G12G28G32G24G17G01
 121831035.059 7  94933431.47044  23183707.625                    23183714.355
        43.800          28.900
                  86289439.545 6  20717932.820                    20717933.492
                        40.900
                  86489654.879 6  20773280.336                    20773282.297
                        40.800
 129345943.605 5 100788977.41343  24613695.922                    24613699.895
        35.800          19.900
 129071697.438 6 100575446.19444  24561550.695                    24561550.855
        41.100          27.700
                  87961035.964 6  21178642.352                    21178642.449
                        41.600
                  94842877.867 5  22819565.883                    22819567.992
                        35.900
                  80062289.400 6  19270066.063                    19270067.758
                        40.600
                  84106314.104 6  20207928.625                    20207930.211
                        41.300
                  93986715.723 6  22637414.883                    22637417.520
                        40.200
                  88203513.346 5  21207216.570                    21207218.273
                        32.000
 116188075.056 7  90536168.07845  22109856.117                    22109857.371
        45.400          35.200
 121270364.310 7  94496393.76444  23076982.250                    23076984.875
        42.800          27.100
 121109136.531 7  94370685.16844  23046281.531                    23046285.121
        45.500          29.000
 125870313.732 6  98080777.65644  23952324.625                    23952329.102
        41.300          25.900
 119889195.183 7  93420172.09945  22814153.766                    22814160.570
        45.000          35.000
 109504930.823 8  85328536.74646  20838095.609                    20838101.387
        49.900          40.900
 114900129.640 8  89532579.54446  21864767.859                    21864770.414
        51.600          39.200
 117090999.761 7  91239797.51745  22281685.430                    22281691.953
        43.700          33.100
 18  3 13 13 25 13.0000000  0 19G10R08R07G14G22R09R15R16R17R18R24G19
                                G11G12G28G32G24G17G01
 121834029.919 7  94935765.14644  23184277.445                    23184284.207
        44.000          29.600
                  86288375.736 6  20717677.039                    20717678.090
                        41.000
                  86491875.517 6  20773813.391                    20773815.582
                        41.000
 129342950.380 5 100786645.06343  24613125.742                    24613130.555
        35.400          21.100
 129069285.063 6 100573566.42444  24561091.352                    24561091.777
        41.300          26.400
                  87958553.645 6  21178044.836                    21178045.027
                        41.600
                  94846607.665 5  22820461.148                    22820465.980
                        34.300
                  80063132.914 6  19270268.969                    19270270.586
                        40.300
                  84105593.561 6  20207755.297                    20207757.199
                        41.300
                  93983619.698 6  22636669.703                    22636671.949
                        40.900
                  88206069.603 5  21207833.313                    21207832.371
                        32.400
 116185882.485 7  90534459.58245  22109438.602                    22109440.074
        45.500          34.900
 121272996.130 7  94498444.53644  23077482.906                    23077485.457
        42.800          26.700
 121105823.241 7  94368103.36244  23045651.609                    23045654.672
        45.700          28.700
 125873978.991 6  98083633.68344  23953023.516                    23953027.785
        41.600          25.200
 119887197.866 7  93418615.76345  22813774.148                    22813780.191
        46.000          35.700
 109505636.466 8  85329086.59846  20838229.938                    20838235.859
        50.000          41.000
 114899579.084 8  89532150.54046  21864662.547                    21864665.836
        51.200          39.200
 117091760.586 7  91240390.37345  22281829.836                    22281836.758
        43.900          33.100
 18  3 13 13 25 14.0000000  0 19G10R08R07G14G22R09R15R16R17R18R24G19
                                G11G12G28G32G24G17G01
 121837025.316 7  94938099.24044  23184847.289                    23184854.438
        43.700          29.300
                  86287312.657 6  20717421.930                    20717422.676
                        40.900
                  86494096.810 6  20774346.711                    20774349.387
                        41.200
 129339957.452 5 100784312.92043  24612556.961                    24612560.711
        35.700          19.900
 129066873.097 6 100571686.98144  24560632.195                    24560632.832
        40.900          26.900
                  87956071.692 6  21177446.688                    21177446.965
                        41.400
                  94850337.706 5  22821357.070                    22821363.309
                        33.200
                  80063977.134 6  19270472.633                    19270473.621
                        40.400
                  84104873.754 6  20207582.477                    20207583.969
                        41.100
                  93980523.982 6  22635924.242                    22635926.824
                        40.700
                  88208626.455 5  21208447.508                    21208447.918
                        31.900
 116183690.538 7  90532751.57045  22109021.641                    22109023.172
        45.500          35.500
 121275628.627 6  94500495.84644  23077984.000                    23077986.871
        41.800          27.000
 121102510.317 7  94365521.85144  23045020.383                    23045024.043
        45.700          27.300
 125877644.534 6  98086489.93944  23953720.906                    23953724.848
        41.400          25.100
 119885201.168 7  93417059.90045  22813394.883                    22813400.500
        46.900          35.400
 109506342.867 8  85329637.04446  20838364.258                    20838370.758
        50.000          40.800
 114899029.218 8  89531722.07346  21864557.758                    21864561.125
        51.000          39.200
 117092522.186 7  91240983.83445  22281974.766                    22281981.359
        43.200          33.100
 18  3 13 13 25 15.0000000  0 19G10R08R07G14G22R09R15R16R17R18R24G19
                                G11G12G28G32G24G17G01
 121840021.167 7  94940433.68244  23185417.328                    23185424.379
        43.900          29.200
                  86286250.257 6  20717166.602                    20717167.164
                        41.100
                  86496318.662 6  20774880.492                    20774882.418
                        41.500
 129336964.748 5 100781980.93443  24611987.539                    24611991.316
        35.400          20.100
 129064461.438 6 100569807.77944  24560173.430                    24560174.066
        40.800          26.700
                  87953590.090 6  21176848.859                    21176849.664
                        41.600
                  94854067.899 5  22822255.344                    22822259.547
                        32.900
                  80064821.980 6  19270676.227                    19270677.508
                        40.400
                  84104154.603 6  20207409.469                    20207411.715
                        41.400
                  93977428.520 6  22635179.023                    22635181.879
                        40.600
                  88211183.887 5  21209061.516                    21209062.836
                        32.600
 116181499.160 7  90531044.00645  22108604.711                    22108606.270
        45.900          35.000
 121278261.721 6  94502547.61844  23078484.453                    23078487.730
        41.200          26.900
 121099197.656 7  94362940.55844  23044390.516                    23044393.801
        45.800          28.800
 125881310.239 6  98089346.31844  23954418.133                    23954422.449
        41.100          25.000
 119883204.925 7  93415504.39045  22813014.914                    22813020.500
        47.600          35.200
 109507049.926 8  85330187.99846  20838499.352                    20838504.551
        50.000          40.900
 114898479.941 8  89531294.06446  21864454.398                    21864456.641
        51.300          39.200
 117093284.474 7  91241577.82245  22282119.508                    22282126.539
        43.100          33.300
 18  3 13 13 25 16.0000000  0 19G10R08R07G14G22R09R15R16R17R18R24G19
                                G11G12G28G32G24G17G01
 121843017.575 7  94942768.56144  23185987.914                    23185994.156
        43.900          29.900
                  86285188.534 6  20716911.641                    20716913.238
                        40.700
                  86498541.200 6  20775414.547                    20775416.438
                        41.400
 129333972.263 5 100779649.11443  24611418.430                    24611421.879
        34.900          19.600
 129062050.218 6 100567928.90844  24559714.023                    24559715.016
        41.100          26.400
                  87951108.896 6  21176252.164                    21176252.121
                        41.200
                  94857798.238 5  22823156.336                    22823156.492
                        33.300
                  80065667.537 6  19270879.453                    19270880.715
                        40.500
                  84103436.234 6  20207236.969                    20207238.359
                        41.500
                  93974333.303 6  22634432.766                    22634435.785
                        40.500
                  88213741.908 5  21209676.594                    21209677.508
                        32.300
 116179308.414 7  90529336.93245  22108187.563                    22108189.152
        46.200          35.000
 121280895.430 6  94504599.84844  23078985.195                    23078988.309
        40.500          26.600
 121095885.329 7  94360359.53144  23043759.938                    23043763.520
        45.800          28.000
 125884976.225 6  98092202.89944  23955116.727                    23955119.660
        41.800          26.800
 119881209.285 7  93413949.33245  22812635.281                    22812640.691
        47.200          35.200
 109507757.684 8  85330739.50446  20838633.930                    20838639.352
        50.000          40.900
 114897931.345 8  89530866.59246  21864349.352                    21864352.246
        51.000          39.000
 117094047.621 7  91242172.49345  22282264.477                    22282272.176
        43.100          33.800
 18  3 13 13 25 17.0000000  0 19G10R08R07G14G22R09R15R16R17R18R24G19
                                G11G12G28G32G24G17G01
 121846014.478 7  94945103.80944  23186557.688                    23186564.980
        43.200          29.200
                  86284127.467 6  20716656.320                    20716657.660
                        40.800
                  86500764.356 7  20775947.992                    20775950.477
                        42.000
 129330980.076 5 100777317.53843  24610848.445                    24610852.652
        35.800          19.900
 129059639.330 6 100566050.29844  24559255.344                    24559256.320
        41.100          27.000
                  87948628.046 6  21175654.977                    21175654.801
                        41.100
                  94861528.725 5  22824052.594                    22824054.785
                        34.600
                  80066513.739 6  19271083.242                    19271083.832
                        40.400
                  84102718.564 6  20207063.820                    20207065.809
                        41.000
                  93971238.347 6  22633687.891                    22633690.566
                        40.700
                  88216300.468 5  21210291.656                    21210292.762
                        32.300
 116177118.240 7  90527630.30045  22107770.844                    22107772.371
        45.700          34.800
 121283529.802 6  94506652.59044  23079486.953                    23079490.215
        40.500          26.400
 121092573.316 7  94357778.74844  23043129.875                    23043133.285
        43.800          25.300
 125888642.415 6  98095059.64544  23955813.242                    23955817.762
        41.400          25.600
 119879214.174 7  93412394.68145  22812255.219                    22812260.840
        47.100          34.800
 109508466.128 8  85331291.53846  20838768.914                    20838774.098
        49.900          41.100
 114897383.355 8  89530439.58746  21864244.922                    21864248.176
        50.900          38.900
 117094811.451 7  91242767.69145  22282410.836                    22282417.773
        43.400          34.100
 18  3 13 13 25 18.0000000  0 19G10R08R07G14G22R09R15R16R17R18R24G19
                                G11G12G28G32G24G17G01
 121849011.844 7  94947439.41244  23187128.445                    23187135.242
        43.000          28.500
                  86283067.070 6  20716402.336                    20716403.758
                        40.700
                  86502988.153 6  20776483.117                    20776484.809
                        41.600
 129327988.093 5 100774986.12343  24610278.688                    24610283.426
        35.800          20.100
 129057228.800 6 100564171.96844  24558796.633                    24558798.027
        40.200          26.400
                  87946147.562 6  21175057.625                    21175057.141
                        40.900
                  94865259.436 5  22824948.516                    22824953.789
                        35.100
                  80067360.598 6  19271287.180                    19271288.215
                        40.800
                  84102001.641 6  20206892.281                    20206894.641
                        41.100
                  93968143.646 6  22632941.641                    22632944.402
                        40.700
                  88218859.652 5  21210907.688                    21210907.941
                        32.200
 116174928.679 7  90525924.15545  22107354.008                    22107355.492
        46.100          35.800
 121286164.792 6  94508705.81344  23079988.820                    23079991.496
        40.600          26.600
 121089261.612 7  94355198.24744  23042499.680                    23042503.121
        44.000          25.600
 125892308.811 6  98097916.55744  23956511.813                    23956515.406
        41.600          26.000
 119877219.595 7  93410840.45245  22811875.555                    22811881.340
        46.600          34.800
 109509175.271 8  85331844.11546  20838903.883                    20838909.301
        50.000          41.100
 114896836.026 8  89530013.09946  21864140.719                    21864143.754
        51.000          38.300
 117095576.104 7  91243363.52645  22282555.813                    22282562.656
        42.900          33.600
 18  3 13 13 25 19.0000000  0 19G10R08R07G14G22R09R15R16R17R18R24G19
                                G11G12G28G32G24G17G01
 121852009.744 7  94949775.43744  23187698.563                    23187705.559
        43.500          28.700
                  86282007.300 6  20716147.875                    20716149.402
                        40.600
                  86505212.562 6  20777017.188                    20777018.781
                        41.400
 129324996.357 6 100772654.91243  24609710.258                    24609713.871
        36.400          20.100
 129054818.699 6 100562293.96844  24558337.898                    24558338.906
        40.100          25.800
                  87943667.486 6  21174460.602                    21174460.629
                        40.800
                  94868990.371 5  22825845.148                    22825850.703
                        35.200
                  80068208.143 6  19271490.938                    19271492.195
                        40.800
                  84101285.426 6  20206720.141                    20206721.848
                        41.000
                  93965049.193 6  22632196.406                    22632199.207
                        40.800
                  88221419.462 5  21211522.008                    21211523.082
                        31.500
 116172739.723 7  90524218.48345  22106937.820                    22106939.199
        46.400          35.700
 121288800.390 6  94510759.52744  23080490.664                    23080493.152
        41.600          27.200
 121085950.224 7  94352617.97743  23041869.289                    23041872.734
        44.000          23.900
 125895975.492 6  98100773.71044  23957208.758                    23957213.402
        41.300          27.300
 119875225.563 7  93409286.66945  22811496.117                    22811501.934
        46.300          34.700
 109509885.109 8  85332397.23746  20839038.781                    20839044.566
        49.600          40.900
 114896289.349 8  89529587.11646  21864036.938                    21864040.008
        51.100          38.300
 117096341.488 7  91243959.93945  22282701.656                    22282708.559
        43.000          33.100
 18  3 13 13 25 20.0000000  0 19G10R08R07G14G22R09R15R16R17R18R24G19
                                G11G12G28G32G24G17G01
 121855008.169 7  94952111.87044  23188269.656                    23188276.016
        43.400          29.100
                  86280948.260 6  20715894.016                    20715894.480
                        40.900
                  86507437.617 6  20777551.578                    20777553.867
                        41.300
 129322004.950 6 100770323.93943  24609141.242                    24609144.625
        36.300          20.400
 129052408.959 6 100560416.25644  24557880.203                    24557880.609
        40.400          27.200
                  87941187.790 6  21173862.742                    21173863.156
                        41.600
                  94872721.413 5  22826745.109                    22826748.641
                        33.600
                  80069056.378 6  19271695.125                    19271696.109
                        40.900
                  84100569.992 6  20206548.867                    20206550.180
                        40.600
                  93961955.072 6  22631451.750                    22631454.195
                        40.900
                  88223979.845 5  21212139.148                    21212138.883
                        32.600
 116170551.416 7  90522513.31046  22106521.242                    22106522.602
        46.600          36.100
 121291436.658 6  94512813.76044  23080992.398                    23080994.660
        41.600          27.500
 121082639.135 7  94350037.90644  23041239.281                    23041242.695
        43.000          24.700
 125899642.417 7  98103631.02944  23957907.789                    23957910.699
        42.200          26.700
 119873232.102 7  93407733.33145  22811116.898                    22811122.645
        47.000          35.000
 109510595.698 8  85332950.94046  20839173.914                    20839179.457
        49.900          40.700
 114895743.331 8  89529161.65546  21863932.742                    21863936.027
        51.100          38.500
 117097107.643 7  91244556.94345  22282847.883                    22282854.238
        43.200          33.600
 18  3 13 13 25 21.0000000  0 19G10R08R07G14G22R09R15R16R17R18R24G19
                                G11G12G28G32G24G17G01
 121858007.075 7  94954448.67344  23188840.008                    23188846.754
        43.100          28.900
                  86279889.845 6  20715639.445                    20715640.250
                        41.000
                  86509663.239 6  20778086.484                    20778087.840
                        41.400
 129319013.722 6 100767993.10543  24608572.156                    24608575.586
        36.200          20.600
 129049999.573 6 100558538.82744  24557420.930                    24557421.902
        39.800          27.600
                  87938708.431 6  21173266.102                    21173266.336
                        41.500
                  94876452.582 5  22827644.258                    22827645.668
                        33.300
                  80069905.271 6  19271899.477                    19271900.449
                        40.700
                  84099855.229 6  20206376.211                    20206377.840
                        41.200
                  93958861.154 6  22630706.430                    22630709.156
                        40.800
                  88226540.787 5  21212754.008                    21212754.879
                        33.100
 116168363.648 7  90520808.55646  22106104.961                    22106106.383
        46.600          36.100
 121294073.521 6  94514868.45744  23081494.070                    23081496.906
        41.300          25.800
 121079328.375 7  94347458.06744  23040608.844                    23040612.289
        45.400          29.300
 125903309.579 6  98106488.55644  23958603.656                    23958608.934
        41.400          26.300
 119871239.146 7  93406180.39345  22810737.617                    22810743.660
        47.600          35.100
 109511306.929 8  85333505.14346  20839309.273                    20839314.844
        49.900          40.700
 114895197.942 8  89528736.68346  21863828.859                    21863831.996
        51.000          38.700
 117097874.521 7  91245154.51445  22282993.594                    22282999.957
        43.200          33.500
 18  3 13 13 25 22.0000000  0 19G10R08R07G14G22R09R15R16R17R18R24G19
                                G11G12G28G32G24G17G01
 121861006.560 7  94956785.93244  23189410.766                    23189417.500
        43.200          27.700
                  86278832.190 6  20715385.852                    20715386.570
                        40.800
                  86511889.532 6  20778621.211                    20778623.164
                        41.200
 129316022.794 5 100765662.51143  24608002.586                    24608006.383
        34.600          20.400
 129047590.621 6 100556661.72544  24556962.945                    24556963.711
        39.900          26.400
                  87936229.480 6  21172669.352                    21172669.551
                        41.400
                  94880184.059 5  22828540.609                    22828543.547
                        33.600
                  80070754.896 6  19272103.844                    19272105.027
                        41.100
                  84099141.234 6  20206205.188                    20206206.715
                        41.200
                  93955767.559 6  22629961.797                    22629963.707
                        40.500
                  88229102.340 5  21213369.727                    21213370.809
                        32.400
 116166176.531 7  90519104.31345  22105689.461                    22105690.258
        46.100          35.600
 121296711.087 6  94516923.71644  23081995.961                    23081998.609
        41.300          26.200
 121076017.958 7  94344878.50844  23039979.273                    23039982.672
        46.000          29.600
 125906976.943 6  98109346.22944  23959302.859                    23959307.047
        41.500          26.600
 119869246.784 8  93404627.91645  22810358.813                    22810364.395
        48.000          35.400
 109512018.927 8  85334059.94046  20839444.703                    20839450.582
        50.200          41.000
 114894653.227 8  89528312.23546  21863725.094                    21863728.789
        51.100          38.700
 117098642.224 7  91245752.72245  22283140.156                    22283146.020
        43.300          33.400
 18  3 13 13 25 23.0000000  0 19G10R08R07G14G22R09R15R16R17R18R24G19
                                G11G12G28G32G24G17G01
 121864006.497 7  94959123.55044  23189981.555                    23189988.445
        43.000          28.300
                  86277775.169 6  20715131.211                    20715132.480
                        40.900
                  86514116.422 6  20779155.586                    20779157.590
                        41.200
 129313032.151 5 100763332.14643  24607433.891                    24607437.164
        35.200          19.300
 129045181.963 6 100554784.85444  24556504.211                    24556505.480
        40.200          26.500
                  87933750.888 6  21172072.852                    21172072.879
                        41.600
                  94883915.692 5  22829435.867                    22829440.801
                        35.300
                  80071605.165 6  19272308.633                    19272309.148
                        40.700
                  84098427.894 6  20206033.461                    20206034.816
                        41.000
                  93952674.197 6  22629216.070                    22629218.406
                        40.900
                  88231664.415 5  21213986.766                    21213986.316
                        32.800
 116163989.992 7  90517400.51345  22105272.586                    22105274.117
        46.300          35.700
 121299349.209 6  94518979.39344  23082497.469                    23082500.422
        40.800          26.100
 121072707.824 7  94342299.17544  23039349.148                    23039352.723
        46.300          28.300
 125910644.526 6  98112204.08744  23960000.523                    23960004.805
        40.800          25.900
 119867254.877 8  93403075.77945  22809980.273                    22809985.563
        48.300          35.000
 109512731.564 8  85334615.23846  20839580.156                    20839585.813
        49.900          41.100
 114894109.122 8  89527888.25946  21863622.094                    21863624.813
        51.000          39.200
 117099410.628 7  91246351.48145  22283286.648                    22283292.688
        44.000          33.100
 18  3 13 13 25 24.0000000  0 19G10R08R07G14G22R09R15R16R17R18R24G19
                                G11G12G28G32G24G17G01
 121867006.928 7  94961461.55744  23190553.352                    23190559.715
        42.900          28.600
                  86276718.848 6  20714878.484                    20714879.727
                        40.700
                  86516343.974 6  20779691.039                    20779692.844
                        41.400
 129310041.586 5 100761001.82443  24606864.148                    24606868.547
        35.400          19.000
 129042773.703 6 100552908.28844  24556046.102                    24556047.176
        40.600          25.800
                  87931272.689 6  21171476.086                    21171476.363
                        41.200
                  94887647.506 5  22830334.711                    22830339.621
                        35.300
                  80072456.146 6  19272514.023                    19272514.980
                        40.500
                  84097715.284 6  20205862.547                    20205864.367
                        40.700
                  93949581.096 6  22628470.641                    22628473.273
                        40.600
                  88234227.086 5  21214603.203                    21214603.379
                        33.000
 116161804.045 7  90515697.17745  22104856.266                    22104857.750
        45.700          35.500
 121301987.974 6  94521035.57444  23082999.633                    23083002.539
        41.000          25.800
 121069397.992 7  94339720.09344  23038719.719                    23038723.133
        46.300          29.100
 125914312.323 6  98115062.11044  23960698.211                    23960702.516
        41.300          26.100
 119865263.546 8  93401524.08545  22809600.633                    22809606.199
        48.100          34.700
 109513444.934 8  85335171.11746  20839716.094                    20839721.652
        49.600          41.100
 114893565.672 8  89527464.79346  21863518.703                    21863521.785
        51.100          38.800
 117100179.804 7  91246950.83845  22283432.789                    22283438.953
        43.800          32.900
 18  3 13 13 25 25.0000000  0 19G10R08R07G14G22R09R15R16R17R18R24G19
                                G11G12G28G32G24G17G01
 121870007.859 7  94963799.94144  23191123.492                    23191130.410
        42.900          28.900
                  86275663.123 6  20714624.125                    20714625.750
                        41.100
                  86518572.129 6  20780226.109                    20780227.879
                        41.200
 129307051.370 5 100758671.77243  24606294.852                    24606298.914
        35.200          18.300
 129040365.782 6 100551031.98944  24555588.273                    24555588.852
        41.300          25.800
                  87928794.827 6  21170879.398                    21170879.445
                        41.100
                  94891379.410 5  22831233.945                    22831237.883
                        34.600
                  80073307.771 6  19272718.633                    19272720.223
                        40.700
                  84097003.405 6  20205691.891                    20205692.988
                        40.900
                  93946488.251 6  22627726.648                    22627728.316
                        40.400
                  88236790.323 5  21215218.313                    21215218.844
                        32.900
 116159618.666 7  90513994.28545  22104441.141                    22104441.668
        45.800          35.300
 121304627.334 6  94523092.21844  23083502.211                    23083504.746
        41.300          25.200
 121066088.463 7  94337141.25744  23038089.945                    23038092.984
        45.900          29.300
 125917980.360 7  98117920.32244  23961396.453                    23961400.148
        42.100          27.500
 119863272.714 8  93399972.76345  22809221.844                    22809227.273
        48.000          35.200
 109514158.973 8  85335727.51046  20839851.797                    20839857.879
        49.300          40.900
 114893022.811 8  89527041.78146  21863414.828                    21863418.227
        51.000          38.700
 117100949.726 7  91247550.78545  22283579.156                    22283584.965
        43.800          32.700
 18  3 13 13 25 26.0000000  0 19G10R08R07G14G22R09R15R16R17R18R24G19
                                G11G12G28G32G24G17G01
 121873009.315 7  94966138.72444  23191695.148                    23191701.824
        42.900          29.100
                  86274608.128 6  20714371.688                    20714372.430
                        41.200
                  86520800.933 6  20780761.336                    20780763.105
                        41.100
 129304061.396 5 100756341.93643  24605726.328                    24605729.879
        35.200          19.300
 129037958.280 6 100549156.01244  24555130.492                    24555130.457
        41.300          26.200
                  87926317.381 6  21170282.531                    21170282.758
                        41.200
                  94895111.500 5  22832133.055                    22832135.320
                        34.100
                  80074160.060 6  19272922.922                    19272924.738
                        40.600
                  84096292.285 6  20205520.500                    20205522.039
                        40.600
                  93943395.656 6  22626980.836                    22626983.461
                        40.500
                  88239354.156 5  21215834.711                    21215835.148
                        32.500
 116157433.957 7  90512291.91245  22104025.234                    22104026.672
        45.800          35.200
 121307267.343 6  94525149.37044  23084005.125                    23084007.234
        41.600          25.600
 121062779.256 7  94334562.67344  23037459.945                    23037463.648
        46.200          28.800
 125921648.630 6  98120778.73144  23962094.297                    23962098.859
        41.400          27.400
 119861282.448 7  93398421.88445  22808842.570                    22808848.371
        47.600          34.200
 109514873.727 8  85336284.46946  20839987.961                    20839993.844
        49.200          40.800
 114892480.644 8  89526619.31546  21863312.094                    21863315.000
        51.100          38.700
 117101720.425 7  91248151.32845  22283725.383                    22283731.637
        43.100          33.100
 18  3 13 13 25 27.0000000  0 19G10R08R07G14G22R09R15R16R17R18R24G19
                                G11G12G28G32G24G17G01
 121876011.319 7  94968477.93744  23192266.164                    23192273.035
        43.100          29.600
                  86273553.796 6  20714117.930                    20714119.012
                        41.300
                  86523030.362 6  20781297.188                    20781298.352
                        41.300
 129301071.715 6 100754012.33143  24605156.156                    24605161.391
        36.600          19.300
 129035551.135 6 100547280.32444  24554672.141                    24554672.387
        41.300          25.700
                  87923840.316 6  21169686.117                    21169686.746
                        41.400
                  94898843.821 5  22833029.992                    22833033.637
                        33.200
                  80075013.043 6  19273128.563                    19273130.223
                        40.600
                  84095581.927 6  20205349.594                    20205351.227
                        40.900
                  93940303.357 6  22626236.531                    22626238.938
                        40.900
                  88241918.594 5  21216452.008                    21216452.121
                        33.400
 116155249.852 7  90510590.00845  22103609.664                    22103611.051
        44.900          35.600
 121309907.995 7  94527207.02244  23084507.820                    23084509.840
        42.100          25.200
 121059470.401 7  94331984.35444  23036830.750                    23036833.625
        46.400          29.300
 125925317.118 6  98123637.30644  23962793.375                    23962796.723
        41.300          26.500
 119859292.747 7  93396871.45345  22808463.570                    22808469.754
        46.800          34.800
 109515589.204 8  85336841.98646  20840124.453                    20840129.934
        49.200          40.800
 114891939.130 8  89526197.35646  21863209.273                    21863212.090
        51.200          38.700
 117102491.902 7  91248752.48645  22283872.047                    22283878.711
        43.100          33.100
 18  3 13 13 25 28.0000000  0 19G10R08R07G14G22R09R15R16R17R18R24G19
                                G11G12G28G32G24G17G01
 121879013.758 7  94970817.48244  23192837.773                    23192844.328
        43.600          29.000
                  86272500.172 6  20713866.109                    20713866.348
                        41.400
                  86525260.388 6  20781833.016                    20781834.617
                        41.300
 129298082.223 5 100751682.86043  24604588.352                    24604591.789
        35.200          19.600
 129033144.362 6 100545404.91744  24554213.648                    24554214.148
        41.100          26.200
                  87921363.586 6  21169089.602                    21169090.289
                        41.600
                  94902576.366 5  22833926.883                    22833930.715
                        33.300
                  80075866.653 6  19273334.586                    19273335.727
                        40.200
                  84094872.252 6  20205178.984                    20205180.613
                        40.900
                  93937211.314 6  22625491.352                    22625494.293
                        40.800
                  88244483.581 5  21217068.539                    21217069.113
                        32.200
 116153066.297 7  90508888.53845  22103194.672                    22103195.336
        45.000          35.600
 121312549.233 7  94529265.13744  23085010.016                    23085012.621
        42.800          25.200
 121056161.795 7  94329406.21844  23036200.883                    23036204.172
        45.900          28.600
 125928985.834 6  98126496.06244  23963490.820                    23963495.125
        40.700          26.500
 119857303.517 7  93395321.40845  22808084.453                    22808091.703
        45.700          34.100
 109516305.352 8  85337400.02546  20840260.945                    20840266.219
        49.600          41.100
 114891398.229 8  89525775.87446  21863106.023                    21863109.195
        51.400          38.900
 117103264.106 7  91249354.20145  22284019.438                    22284025.777
        43.200          32.900
 18  3 13 13 25 29.0000000  0 19G10R08R07G14G22R09R15R16R17R18R24G19
                                G11G12G28G32G24G17G01
 121882016.788 7  94973157.49644  23193408.938                    23193415.703
        43.700          29.900
                  86271447.256 6  20713612.422                    20713613.434
                        41.400
                  86527491.076 6  20782367.578                    20782370.117
                        41.500
 129295093.065 5 100749353.65143  24604019.875                    24604023.547
        34.900          19.900
 129030737.987 6 100543529.82144  24553755.648                    24553756.387
        40.900          25.300
                  87918887.295 6  21168493.602                    21168493.629
                        41.500
                  94906309.089 5  22834825.852                    22834828.688
                        34.800
                  80076721.014 6  19273540.031                    19273541.648
                        40.800
                  84094163.323 6  20205008.367                    20205010.523
                        40.900
                  93934119.555 6  22624746.711                    22624749.570
                        40.600
                  88247049.180 5  21217684.992                    21217685.406
                        32.200
 116150883.398 7  90507187.57445  22102778.445                    22102779.941
        46.000          35.800
 121315191.149 7  94531323.78444  23085512.336                    23085515.258
        42.500          24.700
 121052853.594 7  94326828.39744  23035571.258                    23035574.168
        46.300          28.600
 125932654.796 6  98129355.00844  23964188.953                    23964193.059
        40.600          25.300
 119855314.867 7  93393771.82245  22807705.945                    22807713.254
        45.000          34.200
 109517022.223 8  85337958.63146  20840397.344                    20840402.254
        49.800          41.100
 114890857.989 8  89525354.91246  21863002.977                    21863006.430
        51.400          38.600
 117104037.108 7  91249956.53945  22284166.445                    22284172.496
        43.400          33.400
 18  3 13 13 25 30.0000000  0 19G10R08R07G14G22R09R15R16R17R18R24G19
                                G11G12G28G32G24G17G01
 121885020.287 7  94975497.87944  23193980.414                    23193987.113
        43.900          29.800
                  86270394.996 6  20713359.758                    20713361.027
                        40.900
                  86529722.347 6  20782903.297                    20782905.555
                        41.300
 129292104.121 5 100747024.60143  24603451.289                    24603454.699
        35.000          19.300
 129028331.999 6 100541655.02044  24553297.953                    24553298.594
        40.700          25.600
                  87916411.333 6  21167897.367                    21167897.328
                        41.400
                  94910041.919 5  22835725.758                    22835727.645
                        34.300
                  80077576.032 6  19273745.820                    19273747.469
                        40.400
                  84093455.094 6  20204838.695                    20204840.039
                        40.800
                  93931028.082 6  22624002.508                    22624005.199
                        40.800
                  88249615.270 5  21218303.398                    21218302.730
                        31.500
 116148701.112 7  90505487.09645  22102363.133                    22102364.629
        45.700          35.900
 121317833.689 6  94533382.91544  23086014.672                    23086018.000
        41.300          26.700
 121049545.646 7  94324250.77144  23034942.039                    23034945.121
        45.900          28.700
 125936324.005 6  98132214.13844  23964886.375                    23964891.434
        39.200          24.100
 119853326.728 7  93392222.64145  22807328.031                    22807334.938
        44.500          34.000
 109517739.785 8  85338517.76646  20840533.727                    20840539.176
        49.600          41.100
 114890318.400 8  89524934.45046  21862900.758                    21862903.977
        51.600          39.000
 117104810.851 7  91250559.45745  22284313.875                    22284320.008
        43.200          33.100
 18  3 13 13 25 31.0000000  0 19G10R08R07G14G22R09R15R16R17R18R24G19
                                G11G12G28G32G24G17G01
 121888024.306 7  94977838.67245  23194551.742                    23194558.953
        43.400          30.100
                  86269343.391 6  20713107.492                    20713108.227
                        41.100
                  86531954.234 6  20783439.625                    20783441.883
                        41.600
 129289115.386 5 100744695.72743  24602882.109                    24602886.121
        35.000          19.300
 129025926.314 6 100539780.45044  24552840.641                    24552840.605
        40.900          26.300
                  87913935.758 6  21167302.125                    21167302.496
                        41.400
                  94913774.908 5  22836623.375                    22836626.426
                        34.000
                  80078431.726 6  19273951.992                    19273953.094
                        40.600
                  84092747.596 6  20204669.219                    20204670.207
                        40.900
                  93927936.869 6  22623257.156                    22623260.602
                        41.000
                  88252181.951 5  21218919.617                    21218919.957
                        32.600
 116146519.370 7  90503787.03345  22101947.852                    22101949.266
        46.600          35.900
 121320476.846 6  94535442.52644  23086517.258                    23086520.801
        40.700          26.500
 121046238.019 7  94321673.39444  23034312.266                    23034316.043
        46.000          27.800
 125939993.384 6  98135073.39644  23965586.461                    23965589.750
        40.900          25.400
 119851339.140 7  93390673.89345  22806950.828                    22806956.523
        45.300          34.100
 109518458.042 8  85339077.44446  20840669.969                    20840675.719
        49.900          41.000
 114889779.443 8  89524514.48646  21862798.195                    21862800.988
        51.200          38.500
 117105585.360 7  91251162.97045  22284461.586                    22284467.316
        43.700          33.300
 18  3 13 13 25 32.0000000  0 19G10R08R07G14G22R09R15R16R17R18R24G19
                                G11G12G28G32G24G17G01
 121891028.814 7  94980179.84144  23195123.664                    23195130.621
        43.000          29.300
                  86268292.472 6  20712854.609                    20712855.977
                        41.200
                  86534186.741 6  20783976.063                    20783978.461
                        41.300
 129286126.917 5 100742367.04143  24602313.445                    24602317.438
        35.300          19.000
 129023521.066 6 100537906.23544  24552382.602                    24552383.121
        41.300          27.500
                  87911460.549 6  21166705.508                    21166705.645
                        41.500
                  94917508.111 5  22837518.633                    22837524.660
                        32.400
                  80079288.055 6  19274158.008                    19274158.637
                        40.200
                  84092040.842 6  20204499.375                    20204500.574
                        41.200
                  93924845.911 6  22622513.570                    22622516.484
                        40.900
                  88254749.240 5  21219535.797                    21219537.070
                        33.100
 116144338.281 7  90502087.49146  22101533.672                    22101534.156
        45.900          36.100
 121323120.655 6  94537502.63944  23087020.672                    23087024.445
        40.000          25.200
 121042930.698 7  94319096.25244  23033682.906                    23033686.164
        45.800          29.100
 125943663.027 6  98137932.87244  23966283.156                    23966287.355
        40.700          24.600
 119849352.077 7  93389125.55145  22806573.430                    22806578.109
        46.600          34.900
 109519176.983 8  85339637.65946  20840806.602                    20840812.770
        49.600          41.100
 114889241.126 8  89524095.01646  21862695.883                    21862698.680
        51.200          38.800
 117106360.627 7  91251767.08145  22284609.070                    22284614.855
        43.900          33.400
 18  3 13 13 25 33.0000000  0 19G10R08R07G14G22R09R15R16R17R18R24G19
                                G11G12G28G32G24G17G01
 121894033.855 7  94982521.42744  23195695.703                    23195702.840
        42.600          29.100
                  86267242.230 6  20712602.969                    20712603.855
                        40.900
                  86536419.919 6  20784513.172                    20784514.840
                        41.200
 129283138.718 5 100740038.56943  24601744.992                    24601748.754
        35.400          18.300
 129021116.169 6 100536032.28144  24551924.906                    24551925.617
        41.100          25.800
                  87908985.740 6  21166109.234                    21166110.051
                        41.500
                  94921241.564 5  22838417.250                    22838422.426
                        31.900
                  80080145.054 6  19274363.938                    19274364.895
                        40.500
                  84091334.797 6  20204328.750                    20204330.957
                        41.500
                  93921755.196 6  22621768.953                    22621771.188
                        40.800
                  88257317.081 5  21220154.906                    21220154.512
                        32.300
 116142157.760 7  90500388.38445  22101118.172                    22101119.531
        45.200          35.300
 121325765.064 6  94539563.20144  23087524.094                    23087527.371
        39.500          26.100
 121039623.708 7  94316519.34944  23033053.977                    23033056.773
        43.900          25.000
 125947332.853 6  98140792.48444  23966981.781                    23966986.500
        40.800          25.900
 119847365.584 8  93387577.63145  22806195.852                    22806200.332
        48.100          35.000
 109519896.633 8  85340198.42546  20840943.563                    20840949.426
        49.900          41.100
 114888703.436 8  89523676.03646  21862593.016                    21862596.078
        51.200          39.200
 117107136.681 7  91252371.80445  22284756.383                    22284762.801
        43.800          33.600
 18  3 13 13 25 34.0000000  0 19G10R08R07G14G22R09R15R16R17R18R24G19
                                G11G12G28G32G24G17G01
 121897039.414 7  94984863.40444  23196267.789                    23196274.484
        43.400          29.600
                  86266192.704 6  20712350.320                    20712352.488
                        40.900
                  86538653.781 6  20785049.570                    20785050.996
                        41.200
 129280150.783 5 100737710.30242  24601175.555                    24601180.160
        34.400          17.800
 129018711.649 6 100534158.62344  24551467.117                    24551467.887
        40.600          26.900
                  87906511.297 6  21165514.336                    21165514.664
                        40.700
                  94924975.192 5  22839318.063                    22839320.313
                        33.100
                  80081002.730 6  19274570.250                    19274571.875
                        41.000
                  84090629.480 6  20204160.070                    20204161.133
                        41.200
                  93918664.761 6  22621024.063                    22621026.781
                        40.400
                  88259885.498 5  21220773.164                    21220772.328
                        31.700
 116139977.890 7  90498689.78345  22100703.516                    22100704.637
        45.800          35.300
 121328410.141 6  94541624.28344  23088027.781                    23088030.371
        40.500          26.700
 121036317.017 7  94313942.72244  23032424.141                    23032427.898
        43.800          24.900
 125951002.955 6  98143652.32944  23967680.805                    23967684.699
        40.900          24.300
 119845379.670 8  93386030.15445  22805817.641                    22805822.395
        48.500          35.100
 109520617.020 8  85340759.77246  20841080.859                    20841086.574
        49.200          40.900
 114888166.409 8  89523257.57146  21862490.969                    21862494.223
        51.200          39.000
 117107913.503 7  91252977.13845  22284904.688                    22284910.664
        44.700          33.500
 18  3 13 13 25 35.0000000  0 19G10R08R07G14G22R09R15R16R17R18R24G19
                                G11G12G28G32G24G17G01
 121900045.492 7  94987205.79944  23196839.516                    23196846.500
        43.200          28.400
                  86265143.856 6  20712099.055                    20712100.277
                        40.900
                  86540888.202 6  20785585.867                    20785587.578
                        41.200
 129277163.131 5 100735382.27643  24600607.445                    24600611.605
        35.000          18.600
 129016307.536 6 100532285.29544  24551009.258                    24551010.316
        40.800          25.800
                  87904037.249 6  21164918.867                    21164919.355
                        41.000
                  94928708.937 5  22840217.414                    22840219.004
                        34.300
                  80081861.063 6  19274776.453                    19274777.965
                        40.200
                  84089924.881 6  20203990.805                    20203991.762
                        41.300
                  93915574.617 6  22620280.117                    22620282.656
                        40.200
                  88262454.583 5  21221388.453                    21221389.387
                        32.600
 116137798.609 7  90496991.64345  22100288.844                    22100289.984
        45.800          35.100
 121331055.791 6  94543685.80744  23088532.008                    23088534.098
        40.300          26.200
 121033010.663 7  94311366.36445  23031795.297                    23031798.457
        46.600          30.200
 125954673.254 6  98146512.31444  23968379.578                    23968382.926
        40.600          26.000
 119843394.302 8  93384483.09945  22805439.492                    22805444.777
        49.300          35.300
 109521338.093 8  85341321.64846  20841217.875                    20841224.070
        49.300          40.900
 114887630.052 8  89522839.62846  21862389.047                    21862392.172
        51.100          38.700
 117108691.084 7  91253583.05945  22285052.133                    22285058.230
        44.900          33.800
 18  3 13 13 25 36.0000000  0 19G10R08R07G14G22R09R15R16R17R18R24G19
                                G11G12G28G32G24G17G01
 121903052.042 7  94989548.55944  23197411.906                    23197418.613
        43.200          28.500
                  86264095.679 6  20711847.102                    20711848.309
                        41.200
                  86543123.220 6  20786123.047                    20786124.695
                        41.200
 129274175.638 5 100733054.34742  24600038.984                    24600042.785
        34.600          17.400
 129013903.754 6 100530412.21044  24550552.016                    24550552.500
        40.700          27.300
                  87901563.529 6  21164322.758                    21164322.855
                        41.600
                  94932442.869 5  22841113.633                    22841118.164
                        34.300
                  80082720.043 6  19274983.477                    19274984.816
                        40.600
                  84089221.025 6  20203821.211                    20203822.738
                        41.200
                  93912484.725 6  22619536.922                    22619538.500
                        39.500
                  88265024.206 5  21222007.070                    21222007.148
                        32.800
 116135619.938 7  90495293.97245  22099874.484                    22099875.773
        46.000          35.700
 121333702.098 6  94545747.85944  23089035.922                    23089037.848
        40.700          25.500
 121029704.620 7  94308790.25544  23031166.023                    23031169.527
        46.100          28.400
 125958343.807 6  98149372.50944  23969076.820                    23969081.270
        40.400          24.600
 119841409.430 8  93382936.42645  22805061.484                    22805067.199
        49.500          34.800
 109522059.857 8  85341884.06246  20841355.359                    20841361.055
        49.200          40.800
 114887094.299 8  89522422.15346  21862286.711                    21862289.973
        51.200          38.800
 117109469.389 7  91254189.54045  22285200.281                    22285206.570
        44.700          33.900
 18  3 13 13 25 37.0000000  0 19G10R08R07G14G22R09R15R16R17R18R24G19
                                G11G12G28G32G24G17G01
 121906059.132 7  94991891.74944  23197984.016                    23197991.031
        43.100          28.500
                  86263048.142 6  20711595.492                    20711596.563
                        40.800
                  86545358.856 6  20786660.461                    20786661.508
                        41.400
 129271188.388 5 100730726.61542  24599469.891                    24599474.668
        33.700          16.900
 129011500.364 6 100528539.43644  24550095.023                    24550095.512
        39.900          27.100
                  87899090.233 6  21163727.680                    21163727.352
                        41.300
                  94936177.030 5  22842010.875                    22842016.992
                        33.800
                  80083579.754 6  19275191.031                    19275191.840
                        40.900
                  84088517.871 6  20203652.469                    20203654.148
                        41.200
                  93909395.111 6  22618792.578                    22618794.586
                        39.800
                  88267594.394 5  21222625.703                    21222625.215
                        32.300
 116133441.837 7  90493596.75546  22099458.563                    22099460.930
        45.200          36.500
 121336349.009 6  94547810.38744  23089539.391                    23089541.195
        41.100          24.500
 121026398.901 7  94306214.38144  23030537.078                    23030540.727
        46.400          29.300
 125962014.534 6  98152232.84444  23969775.578                    23969780.074
        40.500          24.600
 119839425.098 8  93381390.17345  22804683.734                    22804689.438
        48.600          34.900
 109522782.323 8  85342447.02546  20841493.055                    20841498.688
        49.100          41.000
 114886559.208 8  89522005.20046  21862185.266                    21862187.941
        50.700          38.400
 117110248.452 7  91254796.61345  22285348.813                    22285354.797
        44.600          34.200
 18  3 13 13 25 38.0000000  0 19G10R08R07G14G22R09R15R16R17R18R24G19
                                G11G12G28G32G24G17G01
 121909066.716 7  94994235.32644  23198556.172                    23198563.336
        43.400          28.700
                  86262001.268 6  20711344.203                    20711345.621
                        40.900
                  86547595.133 6  20787197.500                    20787198.914
                        41.500
 129268201.451 5 100728399.13742  24598901.445                    24598906.309
        33.300          16.900
 129009097.349 6 100526666.95744  24549637.555                    24549638.215
        39.100          27.000
                  87896617.289 6  21163132.281                    21163131.855
                        41.100
                  94939911.358 5  22842909.180                    22842914.414
                        33.200
                  80084440.143 6  19275398.195                    19275399.156
                        40.900
                  84087815.438 6  20203483.680                    20203484.793
                        41.000
                  93906305.768 6  22618048.164                    22618050.109
                        39.800
                  88270165.163 5  21223243.586                    21223243.871
                        32.900
 116131264.377 7  90491900.03846  22099045.188                    22099046.051
        46.000          36.300
 121338996.565 6  94549873.43144  23090043.633                    23090045.043
        41.800          27.100
 121023093.449 7  94303638.70644  23029908.219                    23029911.406
        46.200          29.000
 125965685.557 6  98155093.39344  23970475.375                    23970478.438
        39.900          24.900
 119837441.331 7  93379844.35545  22804305.953                    22804311.891
        47.700          34.900
 109523505.489 8  85343010.53346  20841631.102                    20841636.262
        49.100          41.100
 114886024.760 8  89521588.73946  21862083.641                    21862086.750
        50.800          38.700
 117111028.268 7  91255404.25745  22285497.117                    22285503.086
        44.200          34.600
 18  3 13 13 25 39.0000000  0 19G10R08R07G14G22R09R15R16R17R18R24G19
                                G11G12G28G32G24G17G01
 121912074.826 7  94996579.32244  23199128.406                    23199135.391
        43.000          28.900
                  86260955.146 6  20711092.938                    20711093.770
                        40.700
                  86549832.058 6  20787734.758                    20787735.949
                        41.500
 129265214.802 5 100726071.89842  24598334.656                    24598337.668
        33.700          17.800
 129006694.711 6 100524794.77644  24549180.266                    24549181.398
        39.700          26.500
                  87894144.717 6  21162536.844                    21162536.844
                        41.400
                  94943645.820 5  22843811.086                    22843812.961
                        33.300
                  80085301.230 6  19275604.633                    19275606.184
                        40.700
                  84087113.737 6  20203314.734                    20203316.391
                        40.700
                  93903216.692 6  22617303.734                    22617306.082
                        39.900
                  88272736.515 5  21223861.148                    21223861.945
                        32.500
 116129087.530 7  90490203.80446  22098631.391                    22098632.555
        45.800          36.000
 121341644.754 7  94551936.98344  23090546.680                    23090548.973
        42.100          27.400
 121019788.367 7  94301063.31844  23029279.102                    23029282.207
        46.500          29.700
 125969356.739 6  98157954.07144  23971172.680                    23971177.184
        39.800          25.400
 119835458.077 7  93378298.94945  22803928.250                    22803934.816
        46.800          34.600
 109524229.355 8  85343574.58546  20841768.758                    20841773.977
        49.600          41.100
 114885490.951 8  89521172.78446  21861981.656                    21861985.059
        51.100          39.000
 117111808.852 7  91256012.50245  22285645.281                    22285651.730
        44.800          34.400
 18  3 13 13 25 40.0000000  0 19G10R08R07G14G22R09R15R16R17R18R24G19
                                G11G12G28G32G24G17G01
 121915083.449 7  94998923.71144  23199701.141                    23199708.152
        43.300          28.700
                  86259909.688 6  20710841.805                    20710842.676
                        40.600
                  86552069.638 6  20788271.641                    20788272.957
                        41.000
 129262228.356 5 100723744.81143  24597766.797                    24597769.285
        33.900          19.000
 129004292.439 6 100522922.88644  24548722.805                    24548724.355
        39.300          26.600
                  87891672.568 6  21161941.273                    21161941.414
                        40.800
                  94947380.474 5  22844709.820                    22844710.934
                        33.400
                  80086162.961 6  19275812.617                    19275813.797
                        40.900
                  84086412.795 6  20203147.195                    20203148.879
                        41.000
                  93900127.897 6  22616558.992                    22616562.211
                        40.800
                  88275308.423 5  21224479.781                    21224480.172
                        32.600
 116126911.282 7  90488508.02446  22098216.797                    22098218.523
        45.600          36.100
 121344293.561 7  94554001.00244  23091050.844                    23091053.219
        42.000          26.600
 121016483.620 7  94298488.18844  23028650.219                    23028653.273
        46.500          29.800
 125973028.189 6  98160814.97044  23971871.352                    23971876.078
        39.600          24.600
 119833475.396 7  93376753.99745  22803550.734                    22803557.281
        45.500          33.800
 109524953.960 8  85344139.21146  20841906.391                    20841912.168
        49.500          40.800
 114884957.819 8  89520757.35346  21861880.711                    21861883.547
        51.200          38.800
 117112590.212 7  91256621.34745  22285793.875                    22285800.559
        44.800          34.500
 18  3 13 13 25 41.0000000  0 19G10R08R07G14G22R09R15R16R17R18R24G19
                                G11G12G28G32G24G17G01
 121918092.618 7  95001268.51544  23200274.023                    23200280.531
        43.200          28.800
                  86258864.946 6  20710591.086                    20710592.094
                        40.800
                  86554307.859 6  20788809.023                    20788811.176
                        41.100
 129259242.231 5 100721417.95043  24597198.141                    24597201.402
        34.400          18.300
 129001890.628 6 100521051.35544  24548265.953                    24548266.895
        39.400          27.800
                  87889200.830 6  21161346.336                    21161346.117
                        41.300
                  94951115.451 5  22845606.953                    22845610.078
                        33.700
                  80087025.406 6  19276020.695                    19276021.684
                        40.900
                  84085712.583 6  20202978.461                    20202979.738
                        41.300
                  93897039.389 6  22615815.977                    22615818.602
                        38.600
                  88277880.922 5  21225098.313                    21225098.625
                        33.300
 116124735.674 7  90486812.74845  22097802.844                    22097803.820
        46.600          35.800
 121346943.031 6  94556065.53244  23091554.406                    23091557.504
        41.700          26.900
 121013179.212 7  94295913.33044  23028021.633                    23028024.719
        46.600          29.400
 125976699.947 6  98163676.10944  23972569.922                    23972574.742
        40.300          26.500
 119831493.276 7  93375209.49045  22803173.094                    22803180.262
        44.400          34.200
 109525679.294 8  85344704.40246  20842044.648                    20842049.797
        49.700          40.800
 114884425.359 8  89520342.44846  21861779.367                    21861782.223
        52.000          39.800
 117113372.366 7  91257230.81745  22285942.492                    22285949.156
        44.500          34.400
 18  3 13 13 25 42.0000000  0 19G10R08R07G14G22R09R15R16R17R18R24G19
                                G11G12G28G32G24G17G01
 121921102.279 7  95003613.69644  23200847.031                    23200853.051
        43.100          29.100
                  86257820.844 6  20710340.773                    20710341.613
                        40.500
                  86556546.669 6  20789346.844                    20789348.852
                        40.900
 129256256.238 5 100719091.21243  24596628.414                    24596633.121
        34.300          18.300
 128999489.147 6 100519180.07344  24547809.148                    24547809.938
        39.600          27.200
                  87886729.435 6  21160751.203                    21160751.082
                        41.100
                  94954850.479 5  22846504.297                    22846508.988
                        34.000
                  80087888.492 6  19276228.570                    19276228.762
                        40.400
                  84085013.064 6  20202810.406                    20202812.316
                        40.500
                  93893951.314 6  22615073.234                    22615074.785
                        37.300
                  88280453.985 5  21225715.750                    21225717.445
                        32.600
 116122560.685 7  90485117.95245  22097389.281                    22097390.535
        43.400          30.800
 121349593.165 6  94558130.56344  23092058.766                    23092061.715
        41.200          26.100
 121009875.120 7  94293338.70644  23027392.961                    23027396.188
        46.300          29.800
 125980371.879 6  98166537.37744  23973268.602                    23973273.441
        40.300          24.000
 119829511.673 7  93373665.40745  22802796.094                    22802803.172
        44.600          33.600
 109526405.307 8  85345270.11646  20842182.891                    20842187.906
        49.900          40.700
 114883893.547 8  89519928.04246  21861678.211                    21861681.434
        51.800          39.700
 117114155.290 7  91257840.87445  22286091.555                    22286098.199
        44.700          34.300
 18  3 13 13 25 43.0000000  0 19G10R08R07G14G22R09R15R16R17R18R24G19
                                G11G12G28G32G24G17G01
 121924112.443 7  95005959.26144  23201419.570                    23201426.203
        43.400          28.100
                  86256777.449 6  20710090.578                    20710091.137
                        40.500
                  86558786.120 6  20789884.313                    20789886.602
                        41.000
 129253270.677 5 100716764.78143  24596061.539                    24596064.770
        34.600          18.300
 128997088.021 6 100517309.06544  24547352.547                    24547353.410
        40.000          26.400
                  87884258.441 6  21160156.703                    21160156.234
                        41.300
                  94958585.761 5  22847403.867                    22847407.793
                        34.300
                  80088752.271 6  19276435.961                    19276437.156
                        40.700
                  84084314.305 6  20202642.828                    20202643.766
                        41.000
                  93890863.192 6  22614329.156                    22614331.027
                        38.000
                  88283027.654 5  21226335.961                    21226336.402
                        32.600
 116120386.298 7  90483423.61946  22096975.086                    22096976.754
        46.000          37.100
 121352243.870 6  94560196.04844  23092561.453                    23092565.918
        40.700          26.200
 121006571.330 7  94290764.31345  23026764.156                    23026767.199
        46.800          30.500
 125984044.016 6  98169398.79744  23973967.359                    23973972.141
        40.800          25.300
 119827530.624 7  93372121.76145  22802420.102                    22802426.379
        45.500          34.600
 109527132.049 8  85345836.41046  20842320.758                    20842326.250
        49.500          41.100
 114883362.362 8  89519514.12446  21861577.086                    21861580.055
        51.000          39.000
 117114938.981 7  91258451.53345  22286240.875                    22286247.215
        44.300          33.900
 18  3 13 13 25 44.0000000  0 19G10R08R07G14G22R09R15R16R17R18R24G19
                                G11G12G28G32G24G17G01
 121927123.105 7  95008305.21344  23201992.109                    23201999.039
        42.900          28.300
                  86255734.682 6  20709839.609                    20709841.039
                        40.500
                  86561026.159 6  20790422.188                    20790424.152
                        41.300
 129250285.188 5 100714438.43843  24595493.141                    24595496.586
        35.300          18.600
 128994687.275 6 100515438.35944  24546895.383                    24546895.863
        40.700          25.300
                  87881787.791 6  21159560.805                    21159561.266
                        40.900
                  94962321.147 5  22848304.086                    22848306.547
                        32.600
                  80089616.699 6  19276644.195                    19276645.023
                        41.400
                  84083616.231 6  20202474.039                    20202476.117
                        41.200
                  93887775.446 6  22613584.883                    22613587.293
                        41.400
                  88285601.857 5  21226955.055                    21226955.289
                        32.200
 116118212.466 7  90481729.72745  22096561.391                    22096562.504
        45.900          35.200
 121354895.234 6  94562262.02344  23093067.008                    23093070.566
        40.200          27.700
 121003267.839 7  94288190.16745  23026135.656                    23026138.859
        47.000          30.700
 125987716.379 7  98172260.38544  23974667.125                    23974670.316
        42.100          25.300
 119825550.096 7  93370578.52245  22802043.773                    22802049.598
        46.700          34.700
 109527859.417 8  85346403.18946  20842458.703                    20842464.828
        49.700          40.900
 114882831.773 8  89519100.67346  21861475.578                    21861478.824
        51.000          38.700
 117115723.380 7  91259062.75345  22286390.008                    22286396.480
        44.700          34.000
 18  3 13 13 25 45.0000000  0 19G10R08R07G14G22R09R15R16R17R18R24G19
                                G11G12G28G32G24G17G01
 121930134.261 7  95010651.54944  23202565.320                    23202572.090
        43.400          29.000
                  86254692.643 6  20709589.539                    20709591.012
                        40.900
                  86563266.839 6  20790960.773                    20790962.441
                        41.400
 129247300.021 5 100712112.33343  24594925.313                    24594928.395
        34.200          18.600
 128992286.891 6 100513567.93544  24546438.648                    24546439.723
        40.700          26.300
                  87879317.521 6  21158966.609                    21158966.422
                        41.500
                  94966056.697 5  22849202.133                    22849205.496
                        31.600
                  80090481.815 6  19276852.227                    19276853.023
                        41.000
                  84082918.880 6  20202307.266                    20202308.813
                        41.400
                  93884687.980 6  22612841.359                    22612844.406
                        41.800
                  88288176.674 5  21227573.648                    21227574.082
                        32.900
 116116039.253 7  90480036.31645  22096149.016                    22096150.016
        46.100          35.400
 121357547.202 6  94564328.47244  23093571.617                    23093575.266
        39.400          26.700
 120999964.657 7  94285616.27145  23025507.391                    23025510.742
        45.700          30.200
 125991388.954 6  98175122.16244  23975365.156                    23975369.652
        41.200          24.500
 119823570.127 7  93369035.70145  22801667.664                    22801672.492
        47.400          34.200
 109528587.508 8  85346970.53546  20842596.883                    20842602.980
        49.300          40.400
 114882301.839 8  89518687.73546  21861375.211                    21861378.090
        51.100          39.000
 117116508.568 7  91259674.59745  22286539.977                    22286545.977
        44.700          34.200
 18  3 13 13 25 46.0000000  0 19G10R08R07G14G22R09R15R16R17R18R24G19
                                G11G12G28G32G24G17G01
 121933145.923 7  95012998.28444  23203138.508                    23203145.434
        43.000          28.500
                  86253651.290 6  20709339.273                    20709340.426
                        40.900
                  86565508.167 6  20791498.922                    20791500.555
                        41.500
 129244315.124 5 100709786.44242  24594356.852                    24594360.609
        34.200          17.800
 128989886.915 6 100511697.82844  24545981.383                    24545982.621
        41.100          28.000
                  87876847.630 6  21158371.867                    21158371.891
                        41.400
                  94969792.489 5  22850099.891                    22850103.387
                        33.400
                  80091347.608 6  19277061.125                    19277061.547
                        40.600
                  84082222.282 6  20202139.859                    20202141.371
                        41.300
                  93881600.761 6  22612097.328                    22612099.992
                        41.600
                  88290752.033 5  21228193.594                    21228193.266
                        32.400
 116113866.668 7  90478343.39345  22095734.805                    22095736.504
        46.000          35.500
 121360199.779 6  94566395.39644  23094077.234                    23094080.281
        39.900          26.300
 120996661.813 7  94283042.64045  23024878.523                    23024881.633
        45.800          30.000
 125995061.757 6  98177984.11144  23976063.781                    23976068.258
        41.100          24.000
 119821590.727 7  93367493.31145  22801290.344                    22801295.969
        47.900          34.500
 109529316.336 8  85347538.46046  20842735.883                    20842741.703
        49.400          40.800
 114881772.558 8  89518275.29746  21861274.477                    21861277.410
        50.700          38.700
 117117294.512 7  91260287.02345  22286689.563                    22286695.340
        45.100          34.000
 18  3 13 13 25 47.0000000  0 19G10R08R07G14G22R09R15R16R17R18R24G19
                                G11G12G28G32G24G17G01
 121936158.136 7  95015345.45144  23203711.773                    23203718.395
        43.400          28.200
                  86252610.646 6  20709089.750                    20709090.617
                        40.900
                  86567750.144 6  20792037.742                    20792039.363
                        41.400
 129241330.546 5 100707460.77143  24593788.297                    24593792.355
        34.400          18.300
 128987487.283 6 100509827.97744  24545525.039                    24545526.098
        41.300          25.700
                  87874378.143 6  21157777.789                    21157777.703
                        41.400
                  94973528.501 5  22850998.195                    22851002.660
                        34.300
                  80092214.067 6  19277269.055                    19277270.168
                        40.400
                  84081526.406 6  20201972.398                    20201974.156
                        41.600
                  93878513.828 6  22611354.695                    22611357.047
                        41.200
                  88293327.980 5  21228812.406                    21228813.023
                        32.900
 116111694.665 7  90476650.91945  22095320.813                    22095322.777
        45.600          35.700
 121362853.035 6  94568462.84444  23094582.750                    23094584.766
        40.400          24.700
 120993359.286 7  94280469.24745  23024249.820                    23024253.223
        46.000          30.200
 125998734.816 6  98180846.26544  23976763.125                    23976767.430
        40.800          26.200
 119819611.853 8  93365951.31945  22800913.648                    22800919.391
        48.100          34.300
 109530045.851 8  85348106.91646  20842874.508                    20842880.777
        49.500          40.800
 114881243.937 8  89517863.37346  21861173.555                    21861176.977
        50.800          38.500
 117118081.211 7  91260900.03145  22286839.523                    22286845.430
        44.900          33.800
 18  3 13 13 25 48.0000000  0 19G10R08R07G14G22R09R15R16R17R18R24G19
                                G11G12G28G32G24G17G01
 121939170.783 7  95017692.97144  23204285.375                    23204291.887
        43.600          28.900
                  86251570.618 6  20708839.438                    20708840.789
                        40.600
                  86569992.693 6  20792576.133                    20792578.016
                        41.400
 129238346.030 5 100705135.16843  24593220.344                    24593224.500
        35.100          18.600
 128985087.982 6 100507958.38644  24545068.523                    24545069.617
        40.700          26.700
                  87871908.960 6  21157183.117                    21157182.695
                        41.400
                  94977264.565 5  22851898.320                    22851901.637
                        34.300
                  80093081.117 6  19277477.531                    19277478.945
                        40.600
                  84080831.186 6  20201805.227                    20201806.883
                        41.500
                  93875427.130 6  22610610.672                    22610612.984
                        40.700
                  88295904.495 5  21229431.570                    21229432.395
                        32.700
 116109523.209 7  90474958.88545  22094908.625                    22094909.578
        46.500          35.300
 121365506.820 6  94570530.72344  23095088.648                    23095089.910
        41.600          26.700
 120990056.990 7  94277896.02845  23023621.297                    23023625.094
        45.800          30.200
 126002407.974 6  98183708.49344  23977462.680                    23977466.484
        41.400          26.300
 119817633.437 8  93364409.68445  22800537.008                    22800543.082
        48.300          34.400
 109530776.020 8  85348675.88546  20843013.383                    20843019.621
        49.600          40.700
 114880715.873 8  89517451.88346  21861073.219                    21861076.289
        50.800          38.900
 117118868.612 7  91261513.59745  22286988.859                    22286995.273
        44.600          33.900
 18  3 13 13 25 49.0000000  0 19G10R08R07G14G22R09R15R16R17R18R24G19
                                G11G12G28G32G24G17G01
 121942183.950 7  95020040.90544  23204858.734                    23204865.629
        43.200          28.900
                  86250531.248 6  20708590.711                    20708591.195
                        40.900
                  86572235.817 6  20793115.609                    20793116.602
                        41.400
 129235361.753 5 100702809.74943  24592653.203                    24592656.742
        34.600          18.600
 128982689.044 6 100506089.07644  24544612.086                    24544613.551
        40.400          27.500
                  87869440.165 6  21156588.883                    21156589.230
                        41.300
                  94981000.753 5  22852798.250                    22852801.695
                        33.800
                  80093948.838 6  19277686.438                    19277687.563
                        40.700
                  84080136.704 6  20201638.438                    20201639.617
                        40.900
                  93872340.702 6  22609867.953                    22609869.582
                        41.100
                  88298481.567 5  21230051.313                    21230051.355
                        33.300
 116107352.380 7  90473267.33245  22094495.164                    22094496.402
        46.700          35.500
 121368161.205 6  94572599.07844  23095592.961                    23095594.844
        41.900          26.200
 120986754.992 7  94275323.04344  23022993.000                    23022996.414
        46.000          29.400
 126006081.356 6  98186570.90444  23978160.508                    23978165.266
        41.000          27.000
 119815655.578 7  93362868.47745  22800160.188                    22800166.727
        47.600          34.400
 109531506.883 8  85349245.39146  20843152.914                    20843158.582
        49.500          40.600
 114880188.463 8  89517040.90446  21860973.617                    21860975.828
        50.900          38.600
 117119656.780 7  91262127.75745  22287138.680                    22287145.133
        44.100          33.700
 18  3 13 13 25 50.0000000  0 19G10R08R07G14G22R09R15R16R17R18R24G19
                                G11G12G28G32G24G17G01
 121945197.578 7  95022389.20044  23205431.969                    23205438.809
        43.400          28.500
                  86249492.524 6  20708341.141                    20708341.918
                        41.100
                  86574479.529 6  20793653.688                    20793655.516
                        41.200
 129232377.770 5 100700484.57243  24592085.789                    24592088.930
        35.300          18.600
 128980290.439 6 100504220.03744  24544155.836                    24544156.949
        40.600          26.100
                  87866971.705 6  21155994.031                    21155994.035
                        41.100
                  94984737.103 5  22853696.523                    22853700.746
                        32.400
                  80094817.220 6  19277895.500                    19277896.344
                        40.200
                  84079442.907 6  20201472.070                    20201473.555
                        40.800
                  93869254.493 6  22609124.266                    22609126.422
                        40.700
                  88301059.133 5  21230670.930                    21230671.625
                        33.400
 116105182.097 7  90471576.20345  22094081.578                    22094083.348
        46.600          35.500
 121370816.178 6  94574667.89844  23096097.523                    23096100.230
        41.600          27.200
 120983453.318 7  94272750.32644  23022364.695                    23022367.934
        46.100          29.400
 126009754.953 6  98189433.47644  23978860.188                    23978865.004
        41.000          27.000
 119813678.210 7  93361327.66045  22799783.500                    22799790.039
        47.200          34.600
 109532238.401 8  85349815.41046  20843292.195                    20843297.902
        49.700          40.900
 114879661.652 8  89516630.38946  21860872.844                    21860875.977
        50.700          38.400
 117120445.645 7  91262742.45645  22287288.844                    22287295.102
        43.900          33.800
 18  3 13 13 25 51.0000000  0 19G10R08R07G14G22R09R15R16R17R18R24G19
                                G11G12G28G32G24G17G01
 121948211.781 7  95024737.93944  23206005.586                    23206012.598
        43.600          28.700
                  86248454.487 6  20708091.352                    20708092.949
                        41.100
                  86576723.942 6  20794193.328                    20794195.016
                        41.400
 129229394.104 6 100698159.68843  24591517.906                    24591521.020
        36.900          19.000
 128977892.332 6 100502351.39144  24543699.305                    24543700.563
        40.700          26.200
                  87864503.699 6  21155399.586                    21155400.316
                        41.200
                  94988473.755 5  22854593.672                    22854598.840
                        31.500
                  80095686.345 6  19278104.859                    19278105.887
                        40.400
                  84078749.893 6  20201305.766                    20201306.867
                        41.200
                  93866168.609 6  22608379.906                    22608382.250
                        41.100
                  88303637.404 5  21231290.039                    21231291.594
                        33.000
 116103012.505 7  90469885.61145  22093669.719                    22093670.203
        46.900          35.800
 121373471.877 7  94576737.29344  23096603.133                    23096605.672
        42.000          27.300
 120980152.014 7  94270177.86244  23021736.609                    23021739.922
        46.000          28.900
 126013428.854 6  98192296.26644  23979558.664                    23979563.859
        40.600          25.800
 119811701.462 7  93359787.33845  22799407.664                    22799413.922
        47.200          34.800
 109532970.687 8  85350386.01946  20843431.508                    20843437.313
        49.700          40.800
 114879135.568 8  89516220.43846  21860772.664                    21860776.168
        50.500          38.700
 117121235.378 7  91263357.83445  22287438.984                    22287445.582
        43.700          34.100
 18  3 13 13 25 52.0000000  0 19G10R08R07G14G22R09R15R16R17R18R24G19
                                G11G12G28G32G24G17G01
 121951226.513 7  95027087.08444  23206579.016                    23206585.996
        43.400          28.900
                  86247417.166 6  20707842.305                    20707843.555
                        41.200
                  86578968.988 6  20794731.984                    20794734.516
                        41.500
 129226410.658 6 100695834.95843  24590949.820                    24590953.621
        36.200          19.000
 128975494.569 6 100500483.00544  24543243.102                    24543243.906
        40.700          27.600
                  87862036.081 6  21154805.969                    21154806.113
                        41.200
                  94992210.623 5  22855493.625                    22855497.453
                        32.800
                  80096556.149 6  19278314.211                    19278315.488
                        40.400
                  84078057.594 6  20201139.148                    20201140.238
                        41.200
                  93863083.019 6  22607637.109                    22607639.664
                        41.100
                  88306216.214 5  21231911.039                    21231911.258
                        33.400
 116100843.519 7  90468195.49645  22093256.641                    22093257.746
        47.000          35.800
 121376128.190 6  94578807.15644  23097108.250                    23097111.191
        41.800          25.200
 120976851.007 7  94267605.64344  23021108.242                    23021111.363
        46.000          28.900
 126017102.932 6  98195159.19444  23980258.414                    23980262.996
        41.100          25.300
 119809725.261 7  93358247.45045  22799032.164                    22799037.918
        46.800          34.300
 109533703.688 8  85350957.19346  20843571.336                    20843577.066
        49.900          40.900
 114878610.134 8  89515810.99646  21860672.914                    21860675.730
        50.700          38.700
 117122025.866 7  91263973.80745  22287589.320                    22287596.262
        43.900          33.600
 18  3 13 13 25 53.0000000  0 19G10R08R07G14G22R09R15R16R17R18R24G19
                                G11G12G28G32G24G17G01
 121954241.690 7  95029436.57544  23207152.805                    23207159.605
        43.800          29.300
                  86246380.484 6  20707592.898                    20707594.750
                        40.900
                  86581214.601 6  20795272.141                    20795273.434
                        41.300
 129223427.481 6 100693510.40343  24590383.008                    24590385.590
        37.600          19.000
 128973097.132 6 100498614.86444  24542786.836                    24542787.957
        41.200          26.900
                  87859568.775 6  21154210.883                    21154211.723
                        41.500
                  94995947.581 5  22856394.563                    22856397.129
                        33.800
                  80097426.588 6  19278523.008                    19278525.070
                        40.400
                  84077366.009 6  20200972.906                    20200974.441
                        41.000
                  93859997.608 6  22606893.625                    22606896.066
                        40.600
                  88308795.528 5  21232532.383                    21232531.859
                        33.100
 116098675.087 7  90466505.81045  22092843.641                    22092844.855
        46.700          35.900
 121378785.091 7  94580877.46144  23097614.289                    23097616.496
        42.500          26.500
 120973550.253 7  94265033.62344  23020480.375                    23020483.617
        46.000          29.400
 126020777.231 6  98198022.31344  23980957.469                    23980961.512
        40.700          24.000
 119807749.540 7  93356707.93645  22798656.063                    22798661.531
        47.300          34.900
 109534437.352 8  85351528.88246  20843710.930                    20843716.258
        49.800          40.900
 114878085.289 8  89515402.01846  21860572.977                    21860575.969
        50.500          39.000
 117122817.063 7  91264590.32045  22287739.781                    22287746.551
        44.000          34.200
 18  3 13 13 25 54.0000000  0 19G10R08R07G14G22R09R15R16R17R18R24G19
                                G11G12G28G32G24G17G01
 121957257.383 7  95031786.46945  23207727.695                    23207733.625
        43.500          30.400
                  86245344.556 6  20707345.172                    20707346.113
                        40.500
                  86583460.876 6  20795810.727                    20795812.715
                        41.000
 129220444.540 6 100691186.02643  24589813.813                    24589817.988
        36.200          19.000
 128970700.091 6 100496747.03544  24542331.008                    24542331.852
        41.400          26.400
                  87857101.896 6  21153617.406                    21153617.367
                        41.100
                  94999684.728 5  22857293.953                    22857296.914
                        34.600
                  80098297.721 6  19278732.516                    19278733.707
                        40.600
                  84076675.163 6  20200805.781                    20200808.094
                        40.900
                  93856912.517 6  22606150.461                    22606153.332
                        40.800
                  88311375.471 5  21233150.586                    21233152.145
                        33.600
 116096507.292 7  90464816.61945  22092431.500                    22092432.738
        47.600          35.900
 121381442.647 7  94582948.27744  23098119.477                    23098122.559
        42.200          25.800
 120970249.861 7  94262461.89244  23019852.633                    23019855.293
        46.500          29.600
 126024451.800 6  98200885.63344  23981656.609                    23981661.918
        40.300          25.400
 119805774.417 7  93355168.88745  22798280.305                    22798285.797
        47.500          35.100
 109535171.738 8  85352101.13046  20843850.711                    20843856.180
        50.000          40.800
 114877561.129 8  89514993.57846  21860472.844                    21860476.168
        50.600          39.100
 117123609.062 7  91265207.46145  22287890.305                    22287897.000
        44.000          33.500
 18  3 13 13 25 55.0000000  0 19G10R08R07G14G22R09R15R16R17R18R24G19
                                G11G12G28G32G24G17G01
 121960273.566 7  95034136.73044  23208300.844                    23208307.527
        43.300          28.600
                  86244309.268 6  20707096.469                    20707097.836
                        40.900
                  86585707.732 6  20796351.617                    20796352.457
                        40.900
 129217461.783 6 100688861.78643  24589247.008                    24589250.531
        37.100          19.300
 128968303.416 6 100494879.50144  24541874.734                    24541875.516
        40.900          25.500
                  87854635.358 6  21153024.328                    21153023.430
                        41.300
                  95003422.023 5  22858192.094                    22858196.184
                        34.000
                  80099169.464 6  19278943.609                    19278944.539
                        40.700
                  84075985.023 6  20200640.984                    20200642.641
                        41.000
                  93853827.677 6  22605407.742                    22605410.887
                        41.500
                  88313955.971 5  21233771.188                    21233772.320
                        32.900
 116094340.077 7  90463127.88145  22092019.203                    22092020.484
        47.400          35.700
 121384100.775 6  94585019.54644  23098624.594                    23098628.355
        41.900          26.400
 120966949.752 7  94259890.38244  23019224.523                    23019227.797
        46.900          29.400
 126028126.492 6  98203749.04244  23982356.039                    23982360.719
        40.900          25.800
 119803799.822 7  93353630.24145  22797904.352                    22797909.984
        47.600          34.700
 109535906.780 8  85352673.89246  20843990.531                    20843996.223
        50.200          40.800
 114877037.596 8  89514585.62846  21860373.102                    21860376.559
        50.500          39.100
 117124401.760 7  91265825.14845  22288041.859                    22288048.148
        44.000          34.000
 18  3 13 13 25 56.0000000  0 19G10R08R07G14G22R09R15R16R17R18R24G19
                                G11G12G28G32G24G17G01
 121963290.300 7  95036487.42044  23208875.305                    23208881.500
        43.600          29.400
                  86243274.688 6  20706848.414                    20706849.098
                        40.800
                  86587955.252 6  20796890.594                    20796892.379
                        41.400
 129214479.400 6 100686537.84543  24588679.680                    24588683.012
        36.300          19.600
 128965907.148 6 100493012.27744  24541418.898                    24541419.387
        40.900          27.000
                  87852169.237 6  21152430.086                    21152430.160
                        41.700
                  95007159.560 5  22859090.516                    22859095.781
                        32.500
                  80100041.951 6  19279153.602                    19279154.125
                        40.400
                  84075295.652 6  20200475.617                    20200476.406
                        41.000
                  93850743.166 6  22604665.352                    22604667.816
                        41.500
                  88316537.089 5  21234392.258                    21234393.418
                        32.800
 116092173.512 7  90461439.64445  22091606.344                    22091607.844
        46.000          35.200
 121386759.607 6  94587091.37244  23099130.695                    23099134.262
        41.600          26.000
 120963650.004 7  94257319.14745  23018596.430                    23018599.855
        46.800          30.600
 126031801.507 6  98206612.70544  23983055.391                    23983059.926
        40.900          26.800
 119801825.784 7  93352092.01345  22797528.422                    22797534.234
        47.200          34.900
 109536642.575 8  85353247.24146  20844130.664                    20844136.074
        49.500          40.900
 114876514.762 8  89514178.21846  21860274.133                    21860276.984
        50.600          39.000
 117125195.278 7  91266443.47445  22288192.594                    22288198.746
        43.900          33.500
 18  3 13 13 25 57.0000000  0 19G10R08R07G14G22R09R15R16R17R18R24G19
                                G11G12G28G32G24G17G01
 121966307.537 7  95038838.50444  23209449.555                    23209456.160
        43.800          29.300
                  86242240.740 6  20706599.180                    20706600.707
                        41.100
                  86590203.390 6  20797430.063                    20797431.973
                        41.200
 129211497.200 6 100684214.02043  24588112.078                    24588115.426
        36.200          18.300
 128963511.239 6 100491145.33744  24540962.797                    24540963.652
        40.500          26.100
                  87849703.475 6  21151836.797                    21151836.590
                        41.400
                  95010897.274 5  22859990.320                    22859994.480
                        32.100
                  80100915.067 6  19279363.555                    19279364.707
                        40.400
                  84074606.976 6  20200310.047                    20200311.938
                        41.400
                  93847658.896 7  22603922.742                    22603925.531
                        42.000
                  88319118.742 5  21235012.297                    21235013.980
                        33.000
 116090007.531 7  90459751.87145  22091194.539                    22091195.723
        46.400          35.700
 121389419.012 6  94589163.64144  23099636.328                    23099640.676
        41.100          25.600
 120960350.569 7  94254748.15644  23017968.813                    23017972.000
        46.500          28.600
 126035476.687 6  98209476.50144  23983754.930                    23983759.066
        41.400          26.900
 119799852.255 7  93350554.17445  22797153.133                    22797158.699
        46.400          34.200
 109537379.056 8  85353821.12146  20844270.727                    20844276.059
        49.900          40.800
 114875992.536 8  89513771.28546  21860174.781                    21860177.922
        50.800          39.000
 117125989.532 7  91267062.36545  22288343.406                    22288350.441
        43.700          33.600
 18  3 13 13 25 58.0000000  0 19G10R08R07G14G22R09R15R16R17R18R24G19
                                G11G12G28G32G24G17G01
 121969325.364 7  95041190.07844  23210023.313                    23210030.570
        43.600          28.600
                  86241207.538 6  20706351.758                    20706353.109
                        41.300
                  86592452.198 6  20797970.539                    20797972.336
                        41.000
 129208515.334 6 100681890.46043  24587545.328                    24587548.129
        36.200          18.300
 128961115.801 6 100489278.75444  24540507.156                    24540507.887
        40.500          25.800
                  87847238.145 6  21151242.789                    21151242.621
                        41.200
                  95014635.208 5  22860889.758                    22860892.797
                        32.700
                  80101788.933 6  19279572.906                    19279574.137
                        40.200
                  84073919.101 6  20200144.688                    20200145.855
                        41.200
                  93844574.969 6  22603179.813                    22603182.316
                        41.900
                  88321701.047 5  21235634.023                    21235634.582
                        33.100
 116087842.227 7  90458064.62645  22090782.938                    22090784.020
        46.600          35.600
 121392079.154 6  94591236.48044  23100142.469                    23100146.703
        39.200          25.500
 120957051.515 7  94252177.47144  23017341.016                    23017344.824
        46.100          29.300
 126039152.145 6  98212340.51744  23984453.719                    23984458.797
        40.400          25.700
 119797879.334 7  93349016.81445  22796776.430                    22796783.305
        45.100          33.900
 109538116.296 8  85354395.59646  20844411.281                    20844416.477
        49.300          41.200
 114875471.028 8  89513364.91946  21860075.133                    21860078.586
        50.900          38.600
 117126784.613 7  91267681.89845  22288494.742                    22288501.582
        43.300          33.300
 18  3 13 13 25 59.0000000  0 19G10R08R07G14G22R09R15R16R17R18R24G19
                                G11G12G28G32G24G17G01
 121972343.693 7  95043542.05944  23210597.258                    23210605.031
        43.500          29.000
                  86240175.000 6  20706103.875                    20706105.301
                        41.100
                  86594701.610 6  20798510.383                    20798512.871
                        41.100
 129205533.667 6 100679567.08043  24586977.359                    24586980.637
        36.400          19.000
 128958720.679 6 100487412.42244  24540051.016                    24540051.773
        40.600          26.400
                  87844773.188 6  21150649.625                    21150649.352
                        41.200
                  95018373.304 5  22861789.609                    22861792.309
                        34.300
                  80102663.441 6  19279783.359                    19279784.910
                        40.400
                  84073231.897 6  20199979.711                    20199980.793
                        41.200
                  93841491.273 6  22602436.969                    22602439.629
                        41.900
                  88324283.916 5  21236254.820                    21236255.539
                        33.700
 116085677.528 7  90456377.84245  22090370.531                    22090371.980
        46.500          35.500
 121394739.895 6  94593309.77544  23100649.227                    23100652.953
        38.800          24.800
 120953752.751 7  94249607.00444  23016713.117                    23016716.633
        46.000          29.200
 126042827.786 6  98215204.68044  23985154.648                    23985157.766
        41.600          27.000
 119795906.918 7  93347479.86245  22796400.297                    22796408.371
        42.600          33.600
 109538854.229 8  85354970.61546  20844551.594                    20844557.113
        49.100          40.900
 114874950.155 8  89512959.04046  21859976.242                    21859979.453
        51.000          38.300
 117127580.413 7  91268301.99945  22288646.453                    22288653.184
        43.600          33.300
 18  3 13 13 26  0.0000000  0 19G10R08R07G14G22R09R15R16R17R18R24G19
                                G11G12G28G32G24G17G01
 121975362.520 7  95045894.41544  23211171.891                    23211178.934
        43.900          28.900
                  86239143.161 6  20705856.273                    20705857.297
                        40.800
                  86596951.633 6  20799051.398                    20799053.055
                        41.100
 129202552.283 6 100677243.94743  24586409.281                    24586413.043
        36.500          18.300
 128956325.943 6 100485546.38844  24539595.664                    24539596.484
        40.100          26.400
                  87842308.607 6  21150055.664                    21150055.914
                        41.400
                  95022111.573 5  22862688.977                    22862692.301
                        34.700
                  80103538.633 6  19279994.961                    19279995.320
                        40.400
                  84072545.417 6  20199814.641                    20199815.883
                        40.800
                  93838407.843 6  22601694.320                    22601697.227
                        41.400
                  88326867.345 5  21236876.750                    21236877.316
                        32.600
 116083513.405 7  90454691.50945  22089958.570                    22089959.992
        46.100          35.800
 121397401.268 6  94595383.55144  23101156.219                    23101159.281
        39.700          24.500
 120950454.310 7  94247036.78844  23016085.531                    23016088.887
        46.300          29.600
 126046503.696 6  98218069.04644  23985852.438                    23985856.957
        40.800          24.900
 119793934.978 6  93345943.31545  22796025.469                    22796033.020
        41.400          33.600
 109539592.870 8  85355546.18646  20844691.828                    20844697.422
        49.300          40.700
 114874429.930 8  89512553.67946  21859877.141                    21859880.176
        51.100          38.600
 117128377.017 7  91268922.73145  22288797.297                    22288804.559
        43.600          33.900
 18  3 13 13 26  1.0000000  0 19G10R08R07G14G22R09R15R16R17R18R24G19
                                G11G12G28G32G24G17G01
 121978381.885 7  95048247.19144  23211746.195                    23211753.699
        44.100          29.100
                  86238112.009 6  20705608.547                    20705609.832
                        41.000
                  86599202.297 6  20799590.617                    20799593.422
                        41.200
 129199571.147 6 100674920.98943  24585842.484                    24585846.105
        36.800          18.300
 128953931.618 6 100483680.68444  24539139.250                    24539140.492
        40.000          26.000
                  87839844.418 6  21149462.445                    21149462.734
                        41.400
                  95025850.040 5  22863587.172                    22863592.223
                        33.700
                  80104414.515 6  19280205.117                    19280206.715
                        40.500
                  84071859.705 6  20199650.070                    20199651.676
                        40.700
                  93835324.699 6  22600951.844                    22600954.926
                        40.800
                  88329451.391 5  21237496.688                    21237498.223
                        33.500
 116081349.903 7  90453005.67245  22089547.078                    22089548.066
        46.700          35.600
 121400063.303 6  94597457.84844  23101664.133                    23101665.621
        41.200          26.200
 120947156.209 7  94244466.84044  23015457.859                    23015461.207
        46.100          28.700
 126050179.821 6  98220933.56544  23986553.313                    23986557.121
        41.300          25.300
 119791963.627 7  93344407.26245  22795652.336                    22795658.035
        43.300          32.700
 109540332.233 8  85356122.31446  20844832.617                    20844838.063
        49.100          40.900
 114873910.366 8  89512148.82646  21859778.492                    21859781.445
        51.000          38.900
 117129174.387 7  91269544.06045  22288949.531                    22288956.527
        43.600          34.100
 18  3 13 13 26  2.0000000  0 19G10R08R07G14G22R09R15R16R17R18R24G19
                                G11G12G28G32G24G17G01
 121981401.741 7  95050600.32944  23212321.102                    23212328.344
        43.800          28.100
                  86237081.563 6  20705361.195                    20705362.656
                        40.900
                  86601453.594 6  20800132.313                    20800134.402
                        41.400
 129196590.275 6 100672598.26443  24585275.266                    24585278.941
        36.200          18.600
 128951537.674 6 100481815.27844  24538684.555                    24538685.188
        40.400          25.500
                  87837380.645 6  21148869.414                    21148869.238
                        40.800
                  95029588.692 5  22864487.156                    22864491.789
                        32.600
                  80105291.061 6  19280416.336                    19280417.410
                        40.600
                  84071174.736 6  20199486.328                    20199486.820
                        40.800
                  93832241.862 6  22600208.594                    22600211.176
                        40.900
                  88332035.974 5  21238119.570                    21238118.941
                        32.500
 116079187.062 7  90451320.33945  22089136.148                    22089136.488
        46.800          35.700
 121402725.924 7  94599532.61844  23102171.195                    23102172.633
        42.200          25.800
 120943858.431 7  94241897.14745  23014830.367                    23014833.781
        46.000          30.200
 126053856.212 6  98223798.29344  23987251.758                    23987256.387
        40.600          25.800
 119789992.882 7  93342871.66345  22795279.047                    22795282.914
        46.200          33.100
 109541072.327 8  85356699.00346  20844973.508                    20844979.059
        49.400          40.900
 114873391.459 8  89511744.48046  21859679.516                    21859682.742
        50.800          38.800
 117129972.541 7  91270165.98845  22289101.531                    22289108.059
        43.200          34.000
 18  3 13 13 26  3.0000000  0 19G10R08R07G14G22R09R15R16R17R18R24G19
                                G11G12G28G32G24G17G01
 121984422.123 7  95052953.89644  23212896.711                    23212902.895
        43.700          29.700
                  86236051.818 6  20705113.961                    20705115.289
                        40.600
                  86603705.502 6  20800673.461                    20800674.438
                        41.100
 129193609.674 6 100670275.72943  24584708.570                    24584711.711
        36.900          18.600
 128949144.101 6 100479950.16144  24538228.352                    24538229.059
        40.800          25.800
                  87834917.198 6  21148276.109                    21148276.719
                        41.200
                  95033327.473 5  22865387.000                    22865390.809
                        32.300
                  80106168.257 6  19280627.359                    19280628.559
                        40.600
                  84070490.446 6  20199321.000                    20199322.250
                        40.700
                  93829159.254 6  22599465.438                    22599468.570
                        40.800
                  88334621.086 5  21238740.758                    21238741.195
                        32.300
 116077024.780 7  90449635.43845  22088723.102                    22088725.066
        45.600          35.800
 121405389.162 7  94601607.88744  23102677.031                    23102679.535
        42.800          26.500
 120940560.961 7  94239327.69944  23014202.813                    23014206.121
        46.000          28.800
 126057532.736 6  98226663.12944  23987952.500                    23987956.535
        41.300          26.400
 119788022.681 8  93341336.46045  22794904.477                    22794907.914
        48.200          33.000
 109541813.076 8  85357276.21246  20845114.469                    20845120.102
        49.300          40.800
 114872873.162 8  89511340.60946  21859580.930                    21859584.270
        50.700          39.000
 117130771.430 7  91270788.49345  22289253.789                    22289260.313
        42.900          34.000
 18  3 13 13 26  4.0000000  0 19G10R08R07G14G22R09R15R16R17R18R24G19
                                G11G12G28G32G24G17G01
 121987442.969 7  95055307.82544  23213470.797                    23213477.691
        43.700          28.700
                  86235022.707 6  20704867.008                    20704868.063
                        40.700
                  86605958.006 6  20801213.945                    20801215.711
                        41.200
 129190629.244 6 100667953.30943  24584141.023                    24584144.574
        36.400          18.600
 128946750.846 6 100478085.30244  24537773.438                    24537773.984
        39.900          25.100
                  87832454.103 6  21147683.273                    21147683.371
                        40.900
                  95037066.436 5  22866287.117                    22866290.691
                        32.400
                  80107046.091 6  19280838.773                    19280840.055
                        40.400
                  84069806.887 6  20199156.805                    20199158.598
                        41.200
                  93826076.899 6  22598723.688                    22598726.301
                        40.900
                  88337206.815 5  21239360.914                    21239363.102
                        32.200
 116074863.063 7  90447950.98445  22088312.734                    22088314.262
        45.900          35.300
 121408052.968 7  94603683.59244  23103184.023                    23103186.180
        43.000          25.800
 120937263.771 7  94236758.48144  23013575.406                    23013578.465
        46.300          28.800
 126061209.484 6  98229528.13344  23988651.555                    23988655.277
        41.000          26.600
 119786052.981 8  93339801.60645  22794529.164                    22794532.699
        49.300          33.900
 109542554.512 8  85357853.95146  20845255.648                    20845260.930
        49.600          40.700
 114872355.513 8  89510937.25346  21859482.477                    21859485.516
        50.500          38.800
 117131571.035 7  91271411.56045  22289406.227                    22289412.207
        43.600          33.500
 18  3 13 13 26  5.0000000  0 19G10R08R07G14G22R09R15R16R17R18R24G19
                                G11G12G28G32G24G17G01
 121990464.376 7  95057662.18844  23214045.844                    23214052.664
        43.000          29.400
                  86233994.311 6  20704619.805                    20704620.969
                        40.900
                  86608211.203 6  20801755.430                    20801757.293
                        41.300
 129187649.149 6 100665631.13843  24583574.117                    24583577.105
        36.700          18.300
 128944358.065 6 100476220.79744  24537318.047                    24537319.090
        39.700          26.200
                  87829991.461 6  21147090.305                    21147090.348
                        40.900
                  95040805.643 5  22867186.461                    22867190.051
                        34.000
                  80107924.643 6  19281050.383                    19281051.410
                        40.400
                  84069124.057 6  20198992.438                    20198993.754
                        41.000
                  93822994.840 6  22597981.656                    22597983.301
                        41.000
                  88339793.112 5  21239983.703                    21239984.445
                        32.500
 116072702.040 7  90446267.07545  22087902.234                    22087902.719
        46.500          35.900
 121410717.493 7  94605759.86744  23103690.063                    23103692.836
        42.400          24.500
 120933966.964 7  94234189.55444  23012947.539                    23012951.105
        45.900          28.900
 126064886.515 6  98232393.37144  23989351.469                    23989355.426
        40.300          24.500
 119784083.907 8  93338267.20745  22794154.805                    22794158.020
        50.200          34.200
 109543296.684 8  85358432.26446  20845396.570                    20845402.277
        49.500          40.800
 114871838.566 8  89510534.44346  21859384.023                    21859387.539
        50.500          38.500
 117132371.480 7  91272035.28545  22289558.500                    22289564.504
        43.700          33.200
 18  3 13 13 26  6.0000000  0 19G10R08R07G14G22R09R15R16R17R18R24G19
                                G11G12G28G32G24G17G01
 121993486.278 7  95060016.94744  23214620.836                    23214627.707
        43.100          28.700
                  86232966.525 6  20704373.453                    20704374.590
                        40.600
                  86610464.937 6  20802296.992                    20802298.941
                        41.100
 129184669.290 6 100663309.15043  24583006.938                    24583010.223
        37.800          18.600
 128941965.593 6 100474356.51944  24536862.891                    24536863.695
        40.100          26.200
                  87827529.142 6  21146497.391                    21146497.891
                        40.700
                  95044544.957 5  22868085.484                    22868089.895
                        34.500
                  80108803.837 6  19281262.336                    19281263.164
                        40.800
                  84068441.942 6  20198828.680                    20198830.043
                        40.900
                  93819913.047 6  22597240.023                    22597241.754
                        41.200
                  88342379.969 5  21240606.227                    21240606.539
                        32.600
 116070541.571 7  90444583.58545  22087490.195                    22087491.906
        45.800          35.800
 121413382.554 6  94607836.54844  23104196.953                    23104200.418
        40.300          26.200
 120930670.438 7  94231620.83044  23012320.680                    23012323.539
        46.000          29.400
 126068563.729 6  98235258.74844  23990051.250                    23990055.137
        40.800          26.200
 119782115.323 8  93336733.19345  22793780.008                    22793783.609
        49.800          34.800
 109544039.505 8  85359011.08246  20845537.688                    20845543.773
        49.400          40.600
 114871322.200 8  89510132.09546  21859286.188                    21859288.820
        50.500          38.800
 117133172.607 7  91272659.55145  22289711.398                    22289717.344
        44.300          33.300
 18  3 13 13 26  7.0000000  0 19G10R08R07G14G22R09R15R16R17R18R24G19
                                G11G12G28G32G24G17G01
 121996508.642 7  95062372.06444  23215196.203                    23215202.551
        43.500          28.600
                  86231939.463 6  20704126.492                    20704127.906
                        40.800
                  86612719.310 6  20802838.055                    20802840.438
                        41.200
 129181689.660 6 100660987.35443  24582439.594                    24582443.234
        37.100          19.000
 128939573.516 6 100472492.56244  24536408.258                    24536408.238
        40.800          26.700
                  87825067.245 6  21145904.422                    21145905.273
                        40.800
                  95048284.448 5  22868985.117                    22868990.000
                        34.100
                  80109683.702 6  19281474.813                    19281474.785
                        40.900
                  84067760.552 6  20198665.211                    20198666.938
                        41.000
                  93816831.509 6  22596497.445                    22596499.305
                        41.300
                  88344967.449 5  21241226.977                    21241228.840
                        33.200
 116068381.706 7  90442900.56845  22087078.656                    22087080.230
        45.900          35.800
 121416048.284 6  94609913.73544  23104703.977                    23104707.441
        40.300          25.400
 120927374.236 7  94229052.35444  23011693.211                    23011696.531
        45.900          29.600
 126072241.131 6  98238124.27944  23990750.883                    23990755.586
        40.000          25.200
 119780147.297 8  93335199.62145  22793404.703                    22793409.285
        49.000          33.900
 109544783.041 8  85359590.46046  20845678.906                    20845685.406
        49.500          40.600
 114870806.510 8  89509730.26446  21859187.898                    21859190.863
        50.800          38.600
 117133974.500 7  91273284.40545  22289863.875                    22289869.762
        44.300          33.700
 18  3 13 13 26  8.0000000  0 19G10R08R07G14G22R09R15R16R17R18R24G19
                                G11G12G28G32G24G17G01
 121999531.528 7  95064727.58344  23215771.156                    23215777.645
        43.200          28.800
                  86230913.070 6  20703880.141                    20703881.457
                        40.800
                  86614974.280 6  20803379.641                    20803382.039
                        41.000
 129178710.258 6 100658665.74943  24581872.539                    24581876.395
        38.000          18.600
 128937181.783 6 100470628.87944  24535952.852                    24535953.223
        41.100          26.000
                  87822605.677 6  21145311.805                    21145312.383
                        40.700
                  95052024.089 5  22869886.586                    22869889.539
                        32.900
                  80110564.260 6  19281685.656                    19281686.859
                        40.400
                  84067079.904 6  20198501.664                    20198502.953
                        41.400
                  93813750.239 6  22595755.891                    22595757.621
                        41.400
                  88347555.513 5  21241849.320                    21241850.609
                        32.500
 116066222.457 7  90441218.05146  22086668.906                    22086669.457
        46.600          36.200
 121418714.640 6  94611991.40944  23105211.492                    23105215.004
        40.200          26.100
 120924078.333 7  94226484.10444  23011066.445                    23011069.473
        46.000          29.800
 126075918.799 6  98240989.99944  23991451.516                    23991454.691
        41.100          27.000
 119778179.780 7  93333666.45945  22793028.969                    22793034.957
        47.300          33.500
 109545527.277 8  85360170.38946  20845820.898                    20845826.930
        49.300          40.700
 114870291.448 8  89509328.92246  21859089.469                    21859092.879
        50.700          38.800
 117134777.162 7  91273909.86345  22290016.195                    22290022.195
        44.400          33.700
 18  3 13 13 26  9.0000000  0 19G10R08R07G14G22R09R15R16R17R18R24G19
                                G11G12G28G32G24G17G01
 122002554.957 7  95067083.52244  23216346.742                    23216353.191
        43.000          29.300
                  86229887.379 6  20703633.648                    20703635.477
                        40.500
                  86617229.936 6  20803921.805                    20803923.656
                        40.700
 129175731.204 6 100656344.39343  24581305.570                    24581309.449
        37.600          18.600
 128934790.528 6 100468765.55844  24535497.727                    24535497.988
        41.400          26.400
                  87820144.541 6  21144719.133                    21144718.867
                        41.100
                  95055763.965 5  22870786.992                    22870789.609
                        32.500
                  80111445.523 6  19281898.219                    19281899.008
                        40.400
                  84066400.002 6  20198337.617                    20198339.449
                        41.200
                  93810669.290 7  22595013.258                    22595015.609
                        42.100
                  88350144.142 5  21242473.477                    21242473.773
                        32.300
 116064063.842 7  90439536.00746  22086257.625                    22086259.090
        46.600          36.100
 121421381.638 6  94614069.58044  23105719.422                    23105722.652
        40.500          25.600
 120920782.795 7  94223916.14544  23010438.984                    23010442.352
        45.900          29.500
 126079596.714 6  98243855.93044  23992149.711                    23992154.902
        40.300          26.300
 119776212.838 7  93332133.75445  22792653.266                    22792660.746
        44.900          33.200
 109546272.244 8  85360750.88546  20845962.594                    20845968.566
        49.900          40.600
 114869777.092 8  89508928.13646  21858991.758                    21858994.824
        50.800          38.800
 117135580.625 7  91274535.93845  22290169.016                    22290175.500
        44.600          34.000
 18  3 13 13 26 10.0000000  0 19G10R08R07G14G22R09R15R16R17R18R24G19
                                G11G12G28G32G24G17G01
 122005578.883 7  95069439.84744  23216921.977                    23216928.180
        43.400          28.800
                  86228862.365 6  20703387.219                    20703388.770
                        40.400
                  86619486.239 6  20804463.945                    20804465.301
                        40.800
 129172752.400 6 100654023.25343  24580739.320                    24580742.742
        38.500          19.000
 128932399.590 6 100466902.49344  24535043.016                    24535043.008
        41.100          26.800
                  87817683.800 6  21144126.281                    21144126.824
                        41.100
                  95059504.039 5  22871684.594                    22871689.145
                        33.100
                  80112327.458 6  19282110.055                    19282111.176
                        39.800
                  84065720.802 6  20198175.500                    20198177.055
                        40.900
                  93807588.604 6  22594271.156                    22594273.691
                        41.900
                  88352733.396 5  21243094.930                    21243095.957
                        32.500
 116061905.837 7  90437854.44446  22085846.703                    22085848.332
        46.500          36.200
 121424049.278 6  94616148.25344  23106227.250                    23106230.168
        40.900          25.300
 120917487.600 7  94221348.45445  23009812.016                    23009815.211
        46.300          30.400
 126083274.865 6  98246722.02844  23992850.289                    23992854.395
        40.400          26.900
 119774246.422 7  93330601.49845  22792277.766                    22792286.832
        42.500          33.300
 109547017.888 8  85361331.90846  20846104.602                    20846110.449
        49.800          40.700
 114869263.371 8  89508527.83746  21858893.938                    21858897.063
        50.700          38.800
 117136384.870 7  91275162.62845  22290321.953                    22290328.652
        43.500          33.600
 18  3 13 13 26 11.0000000  0 19G10R08R07G14G22R09R15R16R17R18R24G19
                                G11G12G28G32G24G17G01
 122008603.330 7  95071796.58344  23217497.367                    23217504.242
        43.500          29.100
                  86227838.045 6  20703141.695                    20703142.863
                        40.500
                  86621743.154 6  20805006.000                    20805007.313
                        41.000
 129169773.795 6 100651702.25943  24580172.586                    24580175.441
        38.500          19.000
 128930009.045 6 100465039.72544  24534587.727                    24534588.211
        41.800          27.100
                  87815223.409 6  21143534.148                    21143534.879
                        41.200
                  95063244.308 5  22872584.594                    22872588.930
                        33.700
                  80113210.045 6  19282321.945                    19282323.680
                        40.400
                  84065042.347 6  20198012.266                    20198013.344
                        41.100
                  93804508.174 6  22593528.305                    22593532.266
                        41.600
                  88355323.194 5  21243717.492                    21243718.813
                        32.500
 116059748.435 7  90436173.35746  22085436.383                    22085437.555
        46.900          36.100
 121426717.484 6  94618227.36044  23106735.414                    23106738.539
        41.200          26.000
 120914192.681 7  94218780.98044  23009185.141                    23009188.387
        46.300          28.900
 126086953.193 6  98249588.26644  23993549.109                    23993555.043
        39.000          26.400
 119772280.481 7  93329069.65145  22791904.328                    22791912.156
        42.300          33.000
 109547764.226 8  85361913.47746  20846246.648                    20846251.949
        49.800          40.500
 114868750.275 8  89508128.02746  21858796.195                    21858799.719
        50.700          38.700
 117137189.827 7  91275789.87445  22290475.328                    22290481.766
        43.100          33.400
 18  3 13 13 26 12.0000000  0 19G10R08R07G14G22R09R15R16R17R18R24G19
                                G11G12G28G32G24G17G01
 122011628.298 7  95074153.71944  23218073.719                    23218079.949
        43.600          29.000
                  86226814.432 6  20702895.469                    20702897.059
                        40.600
                  86624000.695 6  20805547.961                    20805550.199
                        41.100
 129166795.506 6 100649381.50343  24579605.852                    24579609.105
        38.200          18.600
 128927618.885 6 100463177.26644  24534132.734                    24534133.207
        41.200          27.300
                  87812763.428 6  21142942.172                    21142942.590
                        41.400
                  95066984.752 5  22873484.992                    22873488.426
                        34.500
                  80114093.314 6  19282535.078                    19282535.965
                        40.000
                  84064364.643 6  20197849.094                    20197850.543
                        41.000
                  93801428.013 6  22592786.797                    22592790.766
                        41.500
                  88357913.566 5  21244341.039                    21244342.008
                        32.900
 116057591.670 7  90434492.76346  22085026.500                    22085027.488
        47.200          36.100
 121429386.370 6  94620307.00944  23107243.070                    23107245.777
        40.400          26.200
 120910898.118 7  94216213.79644  23008558.156                    23008561.473
        46.300          29.800
 126090631.729 6  98252454.65144  23994252.000                    23994254.887
        41.100          25.900
 119770315.171 7  93327538.30845  22791532.477                    22791538.219
        45.500          34.000
 109548511.308 8  85362495.61946  20846389.359                    20846394.652
        49.800          40.800
 114868237.872 8  89507728.76146  21858698.727                    21858701.957
        50.500          38.700
 117137995.602 7  91276417.74645  22290628.523                    22290635.156
        43.100          34.000
 18  3 13 13 26 13.0000000  0 19G10R08R07G14G22R09R15R16R17R18R24G19
                                G11G12G28G32G24G17G01
 122014653.776 7  95076511.25744  23218649.016                    23218655.336
        43.900          29.400
                  86225791.504 6  20702649.609                    20702651.125
                        40.900
                  86626258.854 6  20806090.000                    20806091.910
                        41.200
 129163817.426 6 100647060.90643  24579038.570                    24579042.145
        38.100          19.300
 128925229.119 6 100461315.10444  24533678.008                    24533678.715
        40.900          27.000
                  87810303.842 6  21142349.867                    21142349.770
                        41.300
                  95070725.358 5  22874385.641                    22874389.180
                        35.000
                  80114977.253 6  19282747.563                    19282748.344
                        40.600
                  84063687.661 6  20197686.195                    20197687.656
                        41.100
                  93798348.142 6  22592043.961                    22592047.785
                        40.900
                  88360504.495 5  21244962.719                    21244964.359
                        33.000
 116055435.504 7  90432812.62946  22084615.422                    22084617.125
        47.100          36.300
 121432055.877 6  94622387.14844  23107750.359                    23107753.957
        39.700          25.300
 120907603.883 7  94213646.85644  23007931.344                    23007934.363
        46.500          29.300
 126094310.563 6  98255321.27944  23994949.750                    23994954.039
        39.700          24.900
 119768350.463 7  93326007.41045  22791159.625                    22791164.293
        47.800          33.900
 109549259.128 8  85363078.34246  20846531.820                    20846536.789
        50.300          40.900
 114867726.102 8  89507329.98646  21858601.375                    21858604.750
        50.500          38.800
 117138802.137 7  91277046.21245  22290781.711                    22290788.402
        43.300          33.800
 18  3 13 13 26 14.0000000  0 19G10R08R07G14G22R09R15R16R17R18R24G19
                                G11G12G28G32G24G17G01
 122017679.731 7  95078869.16744  23219224.367                    23219231.117
        43.200          29.300
                  86224769.255 6  20702405.258                    20702405.801
                        40.600
                  86628517.594 6  20806632.742                    20806634.754
                        40.900
 129160839.591 6 100644740.50743  24578472.305                    24578475.457
        38.700          19.000
 128922839.717 6 100459453.22744  24533223.500                    24533223.922
        40.500          27.200
                  87807844.613 6  21141758.055                    21141757.816
                        41.500
                  95074466.086 5  22875285.203                    22875289.004
                        34.000
                  80115861.826 6  19282960.695                    19282962.039
                        40.400
                  84063011.366 6  20197523.930                    20197525.730
                        41.500
                  93795268.553 6  22591302.852                    22591306.137
                        41.300
                  88363095.964 5  21245586.844                    21245587.242
                        32.700
 116053279.947 7  90431132.97146  22084205.281                    22084206.883
        47.600          36.200
 121434726.004 6  94624467.75644  23108258.484                    23108262.094
        39.300          24.800
 120904309.940 7  94211080.14644  23007304.344                    23007307.602
        46.500          29.100
 126097989.542 6  98258188.02643  23995651.156                    23995655.176
        40.000          23.300
 119766386.267 8  93324476.87045  22790786.469                    22790790.355
        49.100          34.400
 109550007.618 8  85363661.57946  20846674.156                    20846679.426
        49.900          40.600
 114867214.965 8  89506931.70746  21858504.305                    21858507.637
        51.000          38.800
 117139609.386 7  91277675.22945  22290935.633                    22290941.926
        43.400          34.200
 18  3 13 13 26 15.0000000  0 19G10R08R07G14G22R09R15R16R17R18R24G19
                                G11G12G28G32G24G17G01
 122020706.210 7  95081227.48044  23219799.852                    23219806.996
        43.700          28.500
                  86223747.653 6  20702159.125                    20702160.648
                        40.500
                  86630776.960 6  20807175.195                    20807176.844
                        40.900
 129157862.066 6 100642420.35943  24577905.508                    24577908.930
        38.100          18.300
 128920450.724 6 100457591.68344  24532768.594                    24532769.516
        40.500          27.100
                  87805385.787 6  21141165.133                    21141166.480
                        41.200
                  95078207.020 5  22876185.805                    22876189.582
                        32.300
                  80116747.108 6  19283173.531                    19283174.793
                        40.600
                  84062335.815 6  20197362.273                    20197363.301
                        41.400
                  93792189.251 6  22590562.328                    22590564.156
                        41.000
                  88365687.982 5  21246210.242                    21246211.133
                        32.800
 116051125.016 7  90429453.81345  22083795.859                    22083796.832
        47.800          35.700
 121437396.806 6  94626548.89044  23108766.727                    23108770.434
        38.900          24.900
 120901016.343 7  94208513.71144  23006677.727                    23006680.770
        46.000          29.600
 126101668.815 6  98261055.00144  23996349.859                    23996354.316
        40.400          24.600
 119764422.652 8  93322946.74845  22790412.453                    22790416.516
        49.100          34.900
 109550756.840 8  85364245.39046  20846816.234                    20846821.961
        49.900          41.000
 114866704.483 8  89506533.94446  21858407.008                    21858410.145
        50.700          38.800
 117140417.418 7  91278304.85945  22291089.820                    22291096.047
        43.100          33.600
 18  3 13 13 26 16.0000000  0 19G10R08R07G14G22R09R15R16R17R18R24G19
                                G11G12G28G32G24G17G01
 122023733.120 7  95083586.12644  23220376.328                    23220383.324
        43.100          28.300
                  86222726.708 6  20701914.773                    20701915.828
                        40.800
                  86633036.944 6  20807717.789                    20807719.875
                        41.000
 129154884.761 6 100640100.37443  24577339.109                    24577342.180
        38.400          18.300
 128918062.043 6 100455730.36644  24532314.219                    24532314.855
        40.900          26.500
                  87802927.325 6  21140573.992                    21140573.949
                        41.300
                  95081948.157 5  22877084.242                    22877089.324
                        32.100
                  80117633.053 6  19283386.523                    19283388.188
                        40.600
                  84061660.928 6  20197199.438                    20197201.047
                        41.200
                  93789110.199 6  22589820.219                    22589822.008
                        40.900
                  88368280.611 5  21246832.094                    21246834.984
                        32.700
 116048970.660 7  90427775.09046  22083385.469                    22083386.707
        47.000          36.000
 121440068.147 6  94628630.43644  23109276.148                    23109278.570
        39.800          24.400
 120897723.024 7  94205947.48345  23006051.078                    23006054.313
        46.300          30.400
 126105348.192 6  98263922.05644  23997051.617                    23997055.492
        40.900          24.800
 119762459.524 8  93321416.99845  22790038.125                    22790043.121
        48.400          34.400
 109551506.723 8  85364829.71546  20846959.172                    20846964.824
        49.700          40.900
 114866194.614 8  89506136.64846  21858309.680                    21858313.207
        50.300          38.800
 117141226.173 7  91278935.04845  22291243.750                    22291250.016
        43.600          33.500
 18  3 13 13 26 17.0000000  0 19G10R08R07G14G22R09R15R16R17R18R24G19
                                G11G12G28G32G24G17G01
 122026760.623 7  95085945.23744  23220952.438                    23220958.914
        43.500          28.900
                  86221706.515 6  20701669.094                    20701670.531
                        40.600
                  86635297.644 6  20808260.719                    20808263.004
                        40.800
 129151907.750 6 100637780.60242  24576772.367                    24576775.805
        37.700          17.400
 128915673.780 6 100453869.37744  24531859.836                    24531860.094
        40.800          27.700
                  87800469.281 6  21139981.805                    21139982.496
                        41.300
                  95085689.516 5  22877985.711                    22877988.781
                        33.400
                  80118519.707 6  19283599.680                    19283601.563
                        40.400
                  84060986.860 6  20197037.969                    20197039.551
                        41.400
                  93786031.453 6  22589079.055                    22589080.461
                        41.200
                  88370873.882 5  21247456.688                    21247457.133
                        32.500
 116046816.955 7  90426096.87946  22082975.156                    22082976.465
        46.600          36.100
 121442740.191 6  94630712.54443  23109785.102                    23109787.164
        41.300          23.800
 120894430.109 7  94203381.57344  23005424.328                    23005427.602
        46.400          28.000
 126109027.933 6  98266789.40443  23997750.859                    23997754.633
        40.300          23.500
 119760497.012 7  93319887.72345  22789663.836                    22789669.703
        47.000          34.100
 109552257.390 8  85365414.65046  20847101.703                    20847107.473
        49.500          40.600
 114865685.450 8  89505739.90046  21858212.883                    21858216.262
        50.500          39.000
 117142035.740 7  91279565.87645  22291397.313                    22291403.965
        43.400          34.000
 18  3 13 13 26 18.0000000  0 19G10R08R07G14G22R09R15R16R17R18R24G19
                                G11G12G28G32G24G17G01
 122029788.553 7  95088304.66844  23221528.523                    23221535.613
        43.400          29.100
                  86220686.992 6  20701424.617                    20701425.410
                        40.600
                  86637558.888 6  20808803.977                    20808805.926
                        41.000
 129148930.940 6 100635461.01943  24576206.188                    24576209.195
        37.700          18.600
 128913285.857 6 100452008.66244  24531405.766                    24531406.348
        40.300          26.700
                  87798011.573 6  21139390.508                    21139390.852
                        41.100
                  95089430.974 5  22878886.750                    22878889.797
                        34.900
                  80119406.989 6  19283813.914                    19283815.227
                        40.400
                  84060313.485 6  20196876.508                    20196877.418
                        41.300
                  93782952.938 6  22588337.969                    22588339.375
                        41.300
                  88373467.614 5  21248081.219                    21248081.539
                        33.100
 116044663.829 7  90424419.12445  22082566.531                    22082567.316
        47.000          35.400
 121445412.791 7  94632795.09343  23110293.484                    23110295.445
        42.000          23.000
 120891137.439 7  94200815.86244  23004797.703                    23004800.836
        46.200          29.200
 126112707.787 6  98269656.83644  23998450.563                    23998455.691
        39.400          24.100
 119758534.946 7  93318358.80545  22789289.109                    22789296.832
        44.500          34.100
 109553008.674 8  85366000.06346  20847244.453                    20847250.266
        49.600          41.000
 114865176.872 8  89505343.60946  21858116.695                    21858119.746
        50.500          39.200
 117142845.994 7  91280197.24245  22291551.297                    22291558.051
        43.200          33.400
 18  3 13 13 26 19.0000000  0 19G10R08R07G14G22R09R15R16R17R18R24G19
                                G11G12G28G32G24G17G01
 122032817.005 7  95090664.48244  23222105.047                    23222111.672
        43.100          28.900
                  86219668.185 6  20701179.820                    20701181.414
                        40.800
                  86639820.779 6  20809347.219                    20809349.648
                        41.000
 129145954.425 6 100633141.66443  24575640.047                    24575643.016
        37.400          19.000
 128910898.382 6 100450148.28644  24530951.164                    24530951.805
        40.500          26.600
                  87795554.273 6  21138798.344                    21138798.602
                        41.600
                  95093172.646 5  22879787.078                    22879790.531
                        34.400
                  80120294.982 6  19284027.875                    19284029.012
                        40.000
                  84059640.834 6  20196714.453                    20196715.836
                        41.500
                  93779874.705 6  22587596.469                    22587597.887
                        41.200
                  88376062.047 5  21248703.195                    21248705.852
                        32.200
 116042511.343 7  90422741.85945  22082156.031                    22082157.621
        46.400          35.500
 121448086.041 7  94634878.15244  23110802.219                    23110804.082
        42.500          26.800
 120887845.131 7  94198250.42744  23004171.422                    23004174.574
        45.600          29.700
 126116387.925 6  98272524.46243  23999150.914                    23999155.547
        39.700          22.500
 119756573.410 7  93316830.33445  22788914.938                    22788923.082
        42.200          33.600
 109553760.711 8  85366586.07146  20847388.211                    20847393.488
        49.100          40.800
 114864668.975 8  89504947.84446  21858019.844                    21858022.707
        50.200          39.200
 117143657.106 7  91280829.26745  22291705.148                    22291712.387
        42.600          33.600
 18  3 13 13 26 20.0000000  0 19G10R08R07G14G22R09R15R16R17R18R24G19
                                G11G12G28G32G24G17G01
 122035845.940 7  95093024.65844  23222681.453                    23222687.941
        42.600          29.400
                  86218650.056 6  20700935.672                    20700936.535
                        40.300
                  86642083.297 6  20809890.734                    20809892.723
                        40.900
 129142978.185 6 100630822.53543  24575073.070                    24575076.789
        38.100          18.300
 128908511.244 6 100448288.18844  24530496.109                    24530497.508
        40.000          26.700
                  87793097.378 6  21138206.875                    21138207.344
                        41.300
                  95096914.488 5  22880685.914                    22880690.957
                        33.900
                  80121183.654 6  19284241.148                    19284242.227
                        40.100
                  84058968.955 6  20196552.641                    20196554.063
                        41.300
                  93776796.759 6  22586855.008                    22586856.910
                        41.500
                  88378657.031 5  21249327.680                    21249329.234
                        32.200
 116040359.469 7  90421065.07345  22081746.227                    22081747.789
        45.500          35.200
 121450759.924 6  94636961.71744  23111310.609                    23111313.090
        41.300          25.200
 120884553.169 7  94195685.27044  23003544.852                    23003548.219
        45.800          29.100
 126120068.274 6  98275392.26043  23999851.844                    23999856.430
        39.600          22.800
 119754612.438 7  93315302.34845  22788543.430                    22788549.895
        43.100          33.000
 109554513.448 8  85367172.61746  20847531.516                    20847536.980
        49.200          40.400
 114864161.736 8  89504552.59546  21857923.234                    21857926.004
        50.100          38.900
 117144468.985 6  91281461.89345  22291859.594                    22291866.941
        41.700          33.600
 18  3 13 13 26 21.0000000  0 19G10R08R07G14G22R09R15R16R17R18R24G19
                                G11G12G28G32G24G17G01
 122038875.371 7  95095385.20644  23223258.289                    23223264.000
        42.700          28.700
                  86217632.604 6  20700691.273                    20700692.453
                        40.500
                  86644346.425 6  20810434.664                    20810436.352
                        41.000
 129140002.217 6 100628503.58343  24574506.516                    24574510.254
        38.300          18.300
 128906124.526 6 100446428.40244  24530042.117                    24530042.906
        40.200          26.800
                  87790640.860 6  21137615.578                    21137615.852
                        41.200
                  95100656.513 5  22881586.438                    22881590.641
                        32.700
                  80122072.988 6  19284456.516                    19284456.805
                        40.000
                  84058297.803 6  20196391.938                    20196393.445
                        41.400
                  93773719.093 6  22586112.453                    22586115.645
                        41.500
                  88381252.559 5  21249953.352                    21249953.164
                        32.500
 116038208.197 7  90419388.76445  22081337.867                    22081338.746
        46.800          35.400
 121453434.468 6  94639045.80044  23111818.805                    23111821.871
        40.500          25.400
 120881261.510 7  94193120.35144  23002918.445                    23002921.852
        45.700          29.800
 126123748.856 6  98278260.22944  24000552.984                    24000555.957
        41.300          25.300
 119752652.034 7  93313774.82245  22788172.602                    22788177.105
        46.300          33.300
 109555266.879 8  85367759.70646  20847675.156                    20847680.188
        49.800          40.900
 114863655.150 8  89504157.85246  21857826.570                    21857829.777
        50.500          38.800
 117145281.610 6  91282095.09445  22292014.219                    22292021.555
        41.400          33.900
 18  3 13 13 26 22.0000000  0 19G10R08R07G14G22R09R15R16R17R18R24G19
                                G11G12G28G32G24G17G01
 122041905.298 7  95097746.14544  23223834.719                    23223840.977
        42.700          29.200
                  86216615.854 6  20700447.242                    20700448.180
                        40.600
                  86646610.194 6  20810978.445                    20810980.695
                        41.200
 129137026.480 6 100626184.82442  24573940.594                    24573944.148
        37.900          17.800
 128903738.174 6 100444568.92544  24529588.344                    24529589.027
        40.100          27.500
                  87788184.693 6  21137024.063                    21137024.313
                        41.300
                  95104398.713 5  22882486.578                    22882491.527
                        32.200
                  80122963.009 6  19284670.320                    19284670.758
                        40.200
                  84057627.392 6  20196230.672                    20196232.113
                        41.200
                  93770641.695 6  22585371.359                    22585375.348
                        41.400
                  88383848.653 5  21250575.680                    21250578.047
                        31.800
 116036057.547 7  90417712.93845  22080929.070                    22080929.137
        46.800          35.400
 121456109.597 6  94641130.33444  23112327.461                    23112330.684
        39.900          24.900
 120877970.156 7  94190555.66044  23002291.992                    23002295.824
        45.500          29.100
 126127429.679 6  98281128.41044  24001251.891                    24001256.969
        39.000          24.400
 119750692.217 8  93312247.73745  22787800.617                    22787804.453
        48.800          33.400
 109556021.002 8  85368347.33946  20847818.117                    20847823.430
        49.500          40.800
 114863149.186 8  89503763.59446  21857730.758                    21857733.777
        50.700          38.900
 117146094.990 6  91282728.88745  22292169.711                    22292176.305
        41.500          34.000
 18  3 13 13 26 23.0000000  0 19G10R08R07G14G22R09R15R16R17R18R24G19
                                G11G12G28G32G24G17G01
 122044935.791 7  95100107.53144  23224411.227                    23224417.789
        43.000          28.100
                  86215599.788 6  20700203.609                    20700204.730
                        40.800
                  86648874.634 6  20811522.477                    20811523.828
                        41.500
 129134051.011 6 100623866.25443  24573374.156                    24573378.129
        37.700          18.600
 128901352.235 6 100442709.75844  24529133.867                    24529135.461
        39.200          26.500
                  87785728.968 6  21136433.039                    21136433.160
                        41.400
                  95108141.125 5  22883387.273                    22883390.551
                        32.900
                  80123853.707 6  19284884.516                    19284885.555
                        40.400
                  84056957.735 6  20196069.789                    20196070.820
                        41.200
                  93767564.615 6  22584629.859                    22584634.297
                        41.700
                  88386445.418 5  21251199.977                    21251201.707
                        32.400
 116033907.531 7  90416037.59345  22080518.609                    22080520.352
        45.800          35.500
 121458785.422 6  94643215.38744  23112836.297                    23112840.043
        39.100          25.300
 120874679.175 7  94187991.26444  23001665.875                    23001669.625
        45.200          28.900
 126131110.707 6  98283996.72943  24001954.664                    24001957.535
        41.100          23.400
 119748732.990 8  93310721.06945  22787427.953                    22787431.535
        49.800          34.000
 109556775.878 8  85368935.54646  20847961.766                    20847967.219
        49.100          40.900
 114862643.920 8  89503369.88046  21857634.422                    21857637.711
        50.900          38.900
 117146909.198 6  91283363.32145  22292325.227                    22292331.395
        41.800          33.500
 18  3 13 13 26 24.0000000  0 19G10R08R07G14G22R09R15R16R17R18R24G19
                                G11G12G28G32G24G17G01
 122047966.749 7  95102469.28944  23224987.773                    23224994.566
        43.300          29.400
                  86214584.363 6  20699959.539                    20699960.488
                        40.800
                  86651139.662 6  20812066.766                    20812068.105
                        41.300
 129131075.793 6 100621547.90543  24572808.070                    24572811.758
        37.700          18.300
 128898966.659 6 100440850.87244  24528680.750                    24528681.426
        39.700          26.000
                  87783273.605 6  21135841.914                    21135842.012
                        41.500
                  95111883.680 5  22884288.500                    22884291.785
                        33.700
                  80124745.059 6  19285098.031                    19285099.402
                        40.400
                  84056288.809 6  20195908.680                    20195910.660
                        40.900
                  93764487.826 6  22583890.008                    22583893.262
                        41.600
                  88389042.659 5  21251825.055                    21251825.789
                        32.200
 116031758.111 7  90414362.72445  22080109.711                    22080111.008
        45.600          35.700
 121461461.849 6  94645300.90044  23113345.891                    23113349.555
        39.200          25.000
 120871388.491 7  94185427.09544  23001039.508                    23001043.379
        45.600          29.100
 126134791.966 6  98286865.26143  24002653.031                    24002658.293
        40.400          22.800
 119746774.293 8  93309194.78245  22787054.938                    22787058.844
        50.600          34.000
 109557531.432 8  85369524.28846  20848105.477                    20848111.277
        49.100          40.700
 114862139.296 8  89502976.66546  21857538.266                    21857541.332
        51.100          38.600
 117147724.089 7  91283998.28845  22292481.102                    22292486.328
        42.400          33.500
 18  3 13 13 26 25.0000000  0 19G10R08R07G14G22R09R15R16R17R18R24G19
                                G11G12G28G32G24G17G01
 122050998.202 7  95104831.43244  23225564.961                    23225571.449
        43.000          26.900
                  86213569.594 6  20699716.133                    20699717.234
                        40.800
                  86653405.257 6  20812611.031                    20812612.355
                        41.500
 129128100.800 6 100619229.72343  24572241.953                    24572245.523
        37.700          18.600
 128896581.416 6 100438992.24344  24528226.031                    24528227.336
        39.900          25.500
                  87780818.609 6  21135251.070                    21135250.969
                        41.400
                  95115626.385 5  22885188.883                    22885192.563
                        34.400
                  80125637.032 6  19285313.555                    19285314.313
                        40.200
                  84055620.574 6  20195748.789                    20195749.582
                        41.200
                  93761411.269 6  22583148.531                    22583152.164
                        41.300
                  88391640.452 5  21252449.438                    21252450.813
                        32.500
 116029609.257 7  90412688.29345  22079701.164                    22079702.379
        46.100          35.400
 121464138.847 6  94647386.84944  23113855.570                    23113858.930
        39.400          25.200
 120868098.075 7  94182863.13644  23000413.352                    23000417.281
        45.500          29.400
 126138473.396 6  98289733.91544  24003354.578                    24003358.297
        41.500          25.300
 119744816.104 8  93307668.87245  22786681.688                    22786685.984
        50.500          34.200
 109558287.626 8  85370113.53146  20848249.383                    20848255.168
        48.700          40.800
 114861635.274 8  89502583.93346  21857442.430                    21857445.695
        50.700          38.400
 117148539.733 7  91284633.85445  22292636.336                    22292641.629
        43.000          33.900
 18  3 13 13 26 26.0000000  0 19G10R08R07G14G22R09R15R16R17R18R24G19
                                G11G12G28G32G24G17G01
 122054030.148 7  95107193.96144  23226141.563                    23226148.371
        43.700          28.500
                  86212555.480 6  20699471.719                    20699473.340
                        40.600
                  86655671.426 6  20813154.781                    20813156.555
                        41.600
 129125125.997 6 100616911.68943  24571675.750                    24571679.082
        37.500          18.600
 128894196.519 6 100437133.87844  24527772.414                    24527773.691
        40.100          25.600
                  87778363.940 6  21134659.609                    21134660.055
                        41.500
                  95119369.222 5  22886088.414                    22886093.164
                        33.800
                  80126529.688 6  19285528.977                    19285529.328
                        40.700
                  84054953.019 6  20195587.758                    20195589.703
                        41.000
                  93758334.937 6  22582408.617                    22582410.457
                        41.400
                  88394238.833 5  21253073.625                    21253075.043
                        32.700
 116027461.012 7  90411014.33745  22079292.102                    22079293.590
        46.300          35.700
 121466816.418 6  94649473.25044  23114365.375                    23114368.402
        40.200          26.000
 120864807.985 7  94180299.42844  22999787.227                    22999790.973
        45.200          29.100
 126142155.042 6  98292602.75243  24004054.125                    24004059.375
        39.900          22.200
 119742858.435 8  93306143.37345  22786308.820                    22786313.785
        49.300          34.300
 109559044.483 8  85370703.28746  20848393.242                    20848399.012
        48.800          41.000
 114861131.862 8  89502191.67146  21857346.516                    21857349.488
        50.900          38.700
 117149356.108 7  91285269.99145  22292791.461                    22292796.902
        43.200          34.000
 18  3 13 13 26 27.0000000  0 19G10R08R07G14G22R09R15R16R17R18R24G19
                                G11G12G28G32G24G17G01
 122057062.597 7  95109556.89344  23226718.742                    23226725.398
        43.800          29.600
                  86211542.127 6  20699229.141                    20699229.758
                        40.900
                  86657938.265 6  20813699.000                    20813700.762
                        41.400
 129122151.539 6 100614593.92742  24571109.977                    24571113.531
        37.600          17.800
 128891812.080 6 100435275.87344  24527318.492                    24527319.684
        40.200          25.800
                  87775909.711 6  21134068.508                    21134069.371
                        41.300
                  95123112.286 5  22886988.945                    22886993.848
                        32.900
                  80127423.038 6  19285743.242                    19285743.848
                        40.700
                  84054286.244 6  20195427.875                    20195429.242
                        41.200
                  93755258.869 6  22581667.992                    22581669.406
                        40.800
                  88396837.789 5  21253700.320                    21253700.273
                        33.100
 116025313.394 7  90409340.86745  22078883.609                    22078885.191
        46.200          35.400
 121469494.692 6  94651560.22044  23114875.469                    23114878.074
        40.500          24.600
 120861518.262 7  94177736.01044  22999161.406                    22999164.813
        45.600          28.800
 126145836.909 6  98295471.73043  24004755.711                    24004759.875
        40.100          23.000
 119740901.356 7  93304618.35045  22785934.922                    22785941.332
        47.500          33.800
 109559802.102 8  85371293.64046  20848537.461                    20848543.344
        48.800          40.700
 114860629.133 8  89501799.93946  21857250.633                    21857253.914
        50.700          38.300
 117150173.264 7  91285906.74245  22292946.453                    22292952.473
        43.200          34.200
 18  3 13 13 26 28.0000000  0 19G10R08R07G14G22R09R15R16R17R18R24G19
                                G11G12G28G32G24G17G01
 122060095.557 7  95111920.22144  23227295.781                    23227303.121
        43.100          28.300
                  86210529.451 6  20698985.688                    20698987.332
                        40.800
                  86660205.736 6  20814243.938                    20814245.695
                        41.400
 129119177.259 6 100612276.27843  24570543.719                    24570547.074
        38.000          18.600
 128889427.968 6 100433418.12044  24526865.258                    24526865.836
        40.800          26.300
                  87773455.824 6  21133478.031                    21133478.121
                        41.400
                  95126855.482 5  22887890.867                    22887893.852
                        31.500
                  80128317.051 6  19285957.797                    19285959.508
                        40.800
                  84053620.171 6  20195268.094                    20195269.387
                        41.000
                  93752183.066 6  22580926.813                    22580928.523
                        40.800
                  88399437.259 5  21254324.008                    21254325.152
                        32.800
 116023166.381 7  90407667.87845  22078475.492                    22078476.316
        47.200          35.300
 121472173.511 6  94653647.61144  23115385.344                    23115387.766
        40.500          24.300
 120858228.837 7  94175172.81644  22998535.273                    22998538.766
        45.800          28.900
 126149519.029 6  98298340.90744  24005455.828                    24005460.203
        39.700          24.700
 119738944.772 7  93303093.72645  22785560.969                    22785569.250
        45.000          33.600
 109560560.375 8  85371884.49946  20848681.750                    20848687.277
        48.800          41.000
 114860127.057 8  89501408.71646  21857155.719                    21857158.492
        50.700          38.300
 117150991.157 7  91286544.07145  22293101.688                    22293108.465
        42.900          33.800
 18  3 13 13 26 29.0000000  0 19G10R08R07G14G22R09R15R16R17R18R24G19
                                G11G12G28G32G24G17G01
 122063129.026 7  95114283.93844  23227873.414                    23227880.012
        43.200          28.900
                  86209517.438 6  20698742.805                    20698743.758
                        41.100
                  86662473.850 6  20814788.781                    20814790.344
                        41.400
 129116203.345 6 100609958.94943  24569978.047                    24569981.180
        38.000          19.300
 128887044.262 6 100431560.68144  24526411.617                    24526412.742
        40.300          25.000
                  87771002.325 6  21132887.133                    21132887.676
                        41.200
                  95130598.870 5  22888791.477                    22888794.355
                        31.900
                  80129211.729 6  19286173.625                    19286175.027
                        40.800
                  84052954.865 6  20195107.898                    20195109.102
                        41.400
                  93749107.549 6  22580185.984                    22580186.930
                        41.200
                  88402037.412 5  21254948.383                    21254950.508
                        33.100
 116021019.979 7  90405995.35445  22078066.680                    22078067.598
        46.400          35.800
 121474852.981 6  94655735.51344  23115894.867                    23115897.816
        40.700          25.400
 120854939.710 7  94172609.85944  22997909.273                    22997912.625
        46.400          27.900
 126153201.342 6  98301210.24244  24006157.031                    24006161.344
        39.900          25.000
 119736988.658 7  93301569.49445  22785187.375                    22785197.051
        42.100          33.500
 109561319.400 8  85372475.95446  20848826.164                    20848831.867
        48.700          40.600
 114859625.596 8  89501017.97046  21857059.953                    21857063.246
        51.000          38.700
 117151809.849 7  91287182.02045  22293256.930                    22293264.270
        42.400          33.900
 18  3 13 13 26 30.0000000  0 19G10R08R07G14G22R09R15R16R17R18R24G19
                                G11G12G28G32G24G17G01
 122066162.934 7  95116648.00744  23228450.984                    23228457.500
        43.400          29.100
                  86208506.037 6  20698500.609                    20698501.766
                        41.200
                  86664742.514 6  20815333.461                    20815335.176
                        41.300
 129113229.514 6 100607641.69843  24569412.195                    24569415.586
        38.400          19.000
 128884660.803 6 100429703.44944  24525958.211                    24525958.746
        40.800          26.000
                  87768549.146 6  21132297.047                    21132296.535
                        41.400
                  95134342.409 5  22889690.156                    22889695.309
                        33.600
                  80130107.007 6  19286388.820                    19286390.555
                        40.800
                  84052290.208 6  20194948.133                    20194949.785
                        41.000
                  93746032.267 6  22579444.602                    22579446.367
                        41.100
                  88404637.919 5  21255575.859                    21255575.680
                        33.300
 116018874.074 7  90404323.21245  22077657.523                    22077659.648
        45.400          35.300
 121477533.029 6  94657823.86944  23116405.148                    23116408.125
        40.800          24.500
 120851650.840 7  94170047.10944  22997283.609                    22997287.023
        44.700          28.700
 126156883.771 6  98304079.66444  24006857.758                    24006861.273
        40.500          24.600
 119735033.018 7  93300045.68845  22784817.031                    22784824.266
        43.400          33.600
 109562079.022 8  85373067.86346  20848970.914                    20848976.309
        48.700          40.900
 114859124.689 8  89500627.66146  21856964.383                    21856967.797
        50.800          38.700
 117152629.217 6  91287820.49745  22293412.695                    22293419.906
        41.600          33.600
 18  3 13 13 26 31.0000000  0 19G10R08R07G14G22R09R15R16R17R18R24G19
                                G11G12G28G32G24G17G01
 122069197.365 7  95119012.50444  23229027.484                    23229034.715
        43.000          28.100
                  86207495.336 6  20698258.313                    20698259.207
                        41.300
                  86667011.781 6  20815878.805                    20815880.449
                        41.400
 129110255.958 6 100605324.63943  24568847.016                    24568849.844
        38.600          20.100
 128882277.768 6 100427846.54244  24525504.727                    24525505.668
        40.400          26.000
                  87766096.354 6  21131705.133                    21131705.891
                        41.400
                  95138086.140 5  22890591.859                    22890596.027
                        33.600
                  80131002.952 6  19286605.141                    19286606.004
                        40.400
                  84051626.288 6  20194788.883                    20194790.582
                        41.100
                  93742957.275 6  22578703.289                    22578706.297
                        41.500
                  88407239.086 5  21256200.617                    21256201.234
                        33.100
 116016728.815 7  90402651.59545  22077250.156                    22077250.996
        46.200          35.900
 121480213.662 6  94659912.68144  23116915.453                    23116918.105
        40.300          26.000
 120848362.323 7  94167484.60744  22996657.828                    22996661.027
        45.000          28.900
 126160566.445 6  98306949.28344  24007557.445                    24007562.855
        40.200          25.600
 119733077.985 7  93298522.36045  22784447.328                    22784451.871
        46.300          34.000
 109562839.337 8  85373660.31746  20849115.563                    20849120.949
        48.500          40.600
 114858624.447 8  89500237.86046  21856869.281                    21856872.387
        50.800          38.900
 117153449.365 6  91288459.58245  22293567.828                    22293576.016
        40.900          33.300
 18  3 13 13 26 32.0000000  0 19G10R08R07G14G22R09R15R16R17R18R24G19
                                G11G12G28G32G24G17G01
 122072232.346 7  95121377.42844  23229605.594                    23229612.039
        43.600          28.700
                  86206485.313 6  20698014.609                    20698016.379
                        41.000
                  86669281.652 6  20816423.977                    20816425.508
                        41.200
 129107282.742 6 100603007.85443  24568280.680                    24568284.199
        38.200          19.900
 128879895.167 6 100425989.96844  24525051.492                    24525052.391
        40.400          25.600
                  87763643.967 6  21131114.492                    21131115.625
                        41.500
                  95141830.017 5  22891491.836                    22891497.184
                        34.100
                  80131899.579 6  19286820.742                    19286821.902
                        40.600
                  84050963.098 6  20194629.391                    20194631.051
                        41.300
                  93739882.533 6  22577962.883                    22577966.031
                        41.400
                  88409840.887 5  21256824.297                    21256827.004
                        33.300
 116014584.196 7  90400980.46846  22076842.305                    22076843.199
        46.700          36.000
 121482894.968 6  94662002.00944  23117425.219                    23117428.313
        40.100          25.600
 120845074.121 7  94164922.36044  22996031.945                    22996035.625
        44.500          29.300
 126164249.317 6  98309819.05544  24008261.125                    24008263.293
        41.400          24.900
 119731123.537 8  93296999.45745  22784076.219                    22784080.801
        48.200          34.200
 109563600.389 8  85374253.34446  20849260.539                    20849265.871
        48.600          40.800
 114858124.889 8  89499848.59346  21856774.641                    21856777.434
        50.800          38.900
 117154270.289 6  91289099.25845  22293724.945                    22293732.328
        40.800          34.100
 18  3 13 13 26 33.0000000  0 19G10R08R07G14G22R09R15R16R17R18R24G19
                                G11G12G28G32G24G17G01
 122075267.764 7  95123742.68844  23230183.352                    23230190.012
        43.900          29.500
                  86205475.953 6  20697772.664                    20697774.121
                        41.200
                  86671552.105 6  20816968.938                    20816970.969
                        41.500
 129104309.661 6 100600691.14543  24567714.891                    24567718.023
        38.100          19.600
 128877512.879 6 100424133.63244  24524598.078                    24524598.723
        40.700          26.800
                  87761191.935 6  21130524.727                    21130525.121
                        41.100
                  95145574.027 5  22892394.586                    22892397.598
                        33.100
                  80132796.861 6  19287036.898                    19287037.824
                        40.500
                  84050300.630 6  20194470.414                    20194471.895
                        41.400
                  93736808.056 6  22577222.258                    22577225.832
                        41.800
                  88412443.165 5  21257451.992                    21257452.203
                        33.100
 116012440.133 7  90399309.76546  22076433.586                    22076435.055
        45.800          36.000
 121485576.864 6  94664091.78744  23117935.555                    23117938.723
        40.500          25.300
 120841786.228 7  94162360.36144  22995406.008                    22995409.563
        44.700          28.900
 126167932.432 6  98312689.01844  24008958.898                    24008963.965
        40.000          24.000
 119729169.611 8  93295476.90745  22783704.672                    22783708.324
        49.500          34.700
 109564362.097 8  85374846.88646  20849405.078                    20849410.980
        48.600          40.800
 114857625.926 8  89499459.78946  21856679.344                    21856682.586
        50.800          38.900
 117155091.933 6  91289739.48745  22293881.477                    22293888.113
        41.100          33.600
 18  3 13 13 26 34.0000000  0 19G10R08R07G14G22R09R15R16R17R18R24G19
                                G11G12G28G32G24G17G01
 122078303.662 7  95126108.32544  23230760.914                    23230767.516
        43.700          28.100
                  86204467.257 6  20697530.570                    20697531.398
                        41.000
                  86673823.206 6  20817514.172                    20817516.266
                        41.700
 129101336.893 6 100598374.69043  24567148.820                    24567152.910
        38.000          19.300
 128875130.977 6 100422277.60644  24524144.813                    24524145.426
        41.200          25.300
                  87758740.306 6  21129934.266                    21129934.711
                        41.400
                  95149318.210 5  22893295.242                    22893298.270
                        33.400
                  80133694.811 6  19287252.352                    19287254.000
                        40.900
                  84049638.871 6  20194311.313                    20194312.688
                        40.900
                  93733733.872 6  22576482.352                    22576485.473
                        41.700
                  88415045.995 5  21258077.383                    21258078.617
                        33.100
 116010296.680 7  90397639.54846  22076026.328                    22076027.414
        46.700          36.300
 121488259.367 6  94666182.04544  23118446.406                    23118449.020
        40.400          26.200
 120838498.609 7  94159798.58744  22994780.695                    22994784.207
        44.200          28.900
 126171615.729 6  98315559.10644  24009661.586                    24009665.277
        40.700          26.400
 119727216.206 8  93293954.73445  22783332.273                    22783336.184
        49.500          35.100
 109565124.505 8  85375440.96346  20849550.172                    20849556.043
        48.600          40.700
 114857127.605 8  89499071.49146  21856584.734                    21856587.613
        50.400          38.700
 117155914.332 7  91290380.30945  22294039.117                    22294044.652
        42.000          33.400
 18  3 13 13 26 35.0000000  0 19G10R08R07G14G22R09R15R16R17R18R24G19
                                G11G12G28G32G24G17G01
 122081340.169 7  95128474.43944  23231339.328                    23231345.832
        43.300          28.300
                  86203459.282 6  20697288.102                    20697289.809
                        40.900
                  86676094.955 6  20818060.258                    20818062.168
                        41.600
 129098364.385 6 100596058.41043  24566583.492                    24566586.734
        38.500          19.000
 128872749.472 6 100420421.88144  24523691.375                    24523692.313
        41.100          27.000
                  87756289.057 6  21129344.477                    21129345.105
                        41.300
                  95153062.604 5  22894195.164                    22894199.113
                        33.100
                  80134593.472 6  19287468.430                    19287470.305
                        40.700
                  84048977.850 6  20194152.383                    20194153.863
                        41.100
                  93730659.974 6  22575742.250                    22575745.141
                        41.700
                  88417649.494 5  21258701.203                    21258704.742
                        33.100
 116008153.878 7  90395969.83346  22075618.750                    22075619.543
        47.000          36.100
 121490942.525 6  94668272.81144  23118956.516                    23118959.621
        40.000          25.800
 120835211.359 7  94157237.10844  22994155.281                    22994158.938
        44.100          28.600
 126175299.305 6  98318429.42944  24010360.398                    24010366.234
        38.700          24.800
 119725263.399 8  93292433.01445  22782960.164                    22782964.781
        48.200          34.900
 109565887.629 8  85376035.60746  20849695.523                    20849701.336
        48.500          40.900
 114856629.977 8  89498683.72946  21856489.828                    21856492.996
        50.500          38.800
 117156737.494 7  91291021.72945  22294195.773                    22294201.340
        42.600          33.100
 18  3 13 13 26 36.0000000  0 19G10R08R07G14G22R09R15R16R17R18R24G19
                                G11G12G28G32G24G17G01
 122084377.150 7  95130840.91444  23231916.586                    23231923.406
        43.000          27.600
                  86202451.993 6  20697046.258                    20697047.898
                        41.000
                  86678367.352 7  20818606.133                    20818607.586
                        42.000
 129095392.147 6 100593742.38343  24566018.492                    24566021.863
        38.400          19.300
 128870368.382 6 100418566.48144  24523238.078                    24523239.496
        40.800          26.200
                  87753838.188 6  21128754.000                    21128755.461
                        41.500
                  95156807.198 5  22895096.188                    22895100.066
                        33.800
                  80135492.796 6  19287686.563                    19287686.855
                        40.400
                  84048317.558 6  20193993.773                    20193995.410
                        41.100
                  93727586.376 6  22575002.836                    22575005.094
                        41.300
                  88420253.554 5  21259329.391                    21259330.512
                        33.000
 116006011.677 7  90394300.57745  22075210.289                    22075212.031
        45.600          35.600
 121493626.302 6  94670364.06244  23119466.969                    23119470.109
        39.600          25.000
 120831924.424 7  94154675.86744  22993529.531                    22993533.512
        44.100          28.300
 126178983.049 6  98321299.87644  24011063.898                    24011066.980
        40.300          25.000
 119723311.104 7  93290911.70645  22782587.852                    22782593.242
        46.900          34.800
 109566651.476 8  85376630.81046  20849840.750                    20849846.578
        48.400          40.900
 114856132.967 8  89498296.44646  21856395.570                    21856398.598
        50.000          39.200
 117157561.445 7  91291663.77745  22294352.813                    22294358.383
        43.200          33.600
 18  3 13 13 26 37.0000000  0 19G10R08R07G14G22R09R15R16R17R18R24G19
                                G11G12G28G32G24G17G01
 122087414.648 7  95133207.81244  23232494.484                    23232501.707
        44.000          29.900
                  86201445.375 6  20696804.922                    20696805.984
                        41.200
                  86680640.308 6  20819151.547                    20819153.703
                        41.600
 129092420.092 6 100591426.50643  24565452.016                    24565456.227
        38.500          19.300
 128867987.584 6 100416711.31344  24522785.039                    24522786.305
        41.100          26.400
                  87751387.669 6  21128164.047                    21128164.523
                        41.200
                  95160551.932 5  22895997.625                    22896001.305
                        34.600
                  80136392.740 6  19287902.625                    19287903.188
                        40.700
                  84047657.966 6  20193835.117                    20193836.547
                        41.300
                  93724513.009 6  22574262.883                    22574265.039
                        41.000
                  88422858.075 5  21259957.078                    21259956.180
                        32.900
 116003870.024 7  90392631.76445  22074802.516                    22074804.074
        45.300          35.400
 121496310.667 6  94672455.77344  23119977.516                    23119980.781
        39.700          24.600
 120828637.770 7  94152114.84844  22992904.219                    22992907.762
        44.200          28.900
 126182667.013 6  98324170.49744  24011762.547                    24011767.844
        38.900          25.300
 119721359.286 7  93289390.78045  22782215.031                    22782221.402
        45.400          34.100
 109567415.962 8  85377226.52046  20849986.258                    20849991.859
        48.400          40.900
 114855636.581 8  89497909.65046  21856300.797                    21856303.418
        50.200          38.900
 117158386.093 7  91292306.37945  22294509.125                    22294515.273
        43.400          33.600
 18  3 13 13 26 38.0000000  0 19G10R08R07G14G22R09R15R16R17R18R24G19
                                G11G12G28G32G24G17G01
 122090452.695 7  95135575.14944  23233072.953                    23233079.406
        43.400          29.300
                  86200439.518 6  20696562.945                    20696564.695
                        41.100
                  86682913.896 6  20819697.109                    20819699.797
                        41.600
 129089448.325 6 100589110.84742  24564887.063                    24564890.359
        38.900          17.800
 128865607.261 6 100414856.50244  24522332.656                    24522333.012
        41.000          26.200
                  87748937.590 6  21127574.078                    21127574.699
                        41.500
                  95164296.842 5  22896898.945                    22896902.586
                        35.100
                  80137293.409 6  19288118.641                    19288119.926
                        40.800
                  84046999.128 6  20193676.820                    20193677.961
                        41.500
                  93721439.947 6  22573522.914                    22573524.008
                        40.200
                  88425463.273 5  21260581.555                    21260582.891
                        32.900
 116001729.080 7  90390963.50645  22074396.164                    22074396.738
        46.400          35.500
 121498995.711 6  94674547.99844  23120488.852                    23120491.309
        40.500          25.600
 120825351.488 7  94149554.11244  22992278.836                    22992282.375
        45.100          28.600
 126186351.229 6  98327041.30944  24012465.336                    24012469.594
        40.200          24.200
 119719408.081 7  93287870.35345  22781843.711                    22781850.879
        44.500          33.800
 109568181.217 8  85377822.82446  20850131.523                    20850137.844
        48.400          40.700
 114855140.883 8  89497523.38946  21856206.594                    21856209.598
        50.100          38.600
 117159211.594 7  91292949.64245  22294666.094                    22294672.348
        43.200          33.500
 18  3 13 13 26 39.0000000  0 19G10R08R07G14G22R09R15R16R17R18R24G19
                                G11G12G28G32G24G17G01
 122093491.275 7  95137942.91044  23233650.992                    23233658.008
        43.000          27.700
                  86199434.329 6  20696321.336                    20696322.742
                        41.200
                  86685188.142 6  20820244.156                    20820245.703
                        41.400
 129086476.883 6 100586795.47342  24564321.523                    24564324.785
        37.300          17.400
 128863227.311 6 100413001.99444  24521880.211                    24521880.195
        40.600          25.300
                  87746487.920 6  21126984.586                    21126984.918
                        41.800
                  95168041.940 5  22897800.086                    22897803.406
                        34.100
                  80138194.767 6  19288336.383                    19288336.645
                        41.200
                  84046341.057 6  20193518.773                    20193520.227
                        41.200
                  93718367.164 6  22572781.875                    22572783.445
                        39.700
                  88428069.083 5  21261207.492                    21261208.945
                        32.900
 115999588.791 7  90389295.75045  22073989.023                    22073989.965
        46.300          35.700
 121501681.425 6  94676640.75243  23120999.883                    23121002.832
        41.100          22.900
 120822065.573 7  94146993.66044  22991653.680                    22991657.016
        44.600          29.100
 126190035.726 6  98329912.35143  24013165.805                    24013169.906
        40.200          23.800
 119717457.433 7  93286350.39445  22781473.258                    22781479.285
        45.800          34.400
 109568947.224 8  85378419.71146  20850277.594                    20850283.402
        48.400          40.500
 114854645.875 8  89497137.67446  21856112.219                    21856115.629
        50.100          38.600
 117160037.836 7  91293593.48545  22294822.742                    22294829.773
        42.800          34.000
 18  3 13 13 26 40.0000000  0 19G10R08R07G14G22R09R15R16R17R18R24G19
                                G11G12G28G32G24G17G01
 122096530.269 7  95140311.00144  23234229.203                    23234236.094
        43.400          29.500
                  86198429.753 6  20696080.922                    20696082.273
                        40.500
                  86687462.945 6  20820790.266                    20820792.563
                        40.900
 129083505.617 6 100584480.21942  24563755.688                    24563759.313
        37.200          17.400
 128860847.723 6 100411147.77044  24521426.477                    24521427.230
        41.100          26.200
                  87744038.556 6  21126395.445                    21126395.496
                        41.400
                  95171787.164 5  22898701.227                    22898705.223
                        33.400
                  80139096.737 6  19288553.430                    19288553.605
                        40.800
                  84045683.618 6  20193361.266                    20193361.871
                        41.000
                  93715294.570 6  22572040.961                    22572043.484
                        40.000
                  88430675.347 5  21261836.258                    21261835.832
                        32.900
 115997449.003 7  90387628.37445  22073580.227                    22073582.359
        45.300          35.800
 121504367.648 6  94678733.91844  23121511.602                    23121513.664
        40.900          25.900
 120818779.893 7  94144433.39444  22991028.133                    22991032.012
        44.500          28.400
 126193720.301 6  98332783.44544  24013868.258                    24013871.945
        40.900          25.300
 119715507.246 7  93284830.80645  22781103.633                    22781108.996
        45.000          31.100
 109569713.849 8  85379017.08246  20850423.422                    20850429.230
        48.300          40.600
 114854151.430 8  89496752.38746  21856018.086                    21856021.148
        50.600          38.800
 117160864.802 7  91294237.88345  22294979.547                    22294986.887
        42.500          34.100
 18  3 13 13 26 41.0000000  0 19G10R08R07G14G22R09R15R16R17R18R24G19
                                G11G12G28G32G24G17G01
 122099569.989 6  95142679.65643  23234807.492                    23234814.469
        39.900          21.500
                  86197425.869 6  20695839.703                    20695840.590
                        41.000
                  86689738.396 6  20821336.883                    20821338.895
                        41.500
 129080534.721 6 100582165.21743  24563190.641                    24563194.250
        36.600          18.600
 128858468.505 6 100409293.83344  24520973.766                    24520974.777
        40.800          26.500
                  87741589.572 6  21125805.508                    21125805.504
                        41.900
                  95175532.591 5  22899602.453                    22899605.641
                        32.800
                  80139999.409 6  19288769.055                    19288771.699
                        41.000
                  84045026.956 6  20193203.383                    20193204.469
                        40.900
                  93712222.315 6  22571300.227                    22571302.816
                        39.900
                  88433282.251 5  21262461.172                    21262462.832
                        33.500
 115995309.832 7  90385961.48945  22073174.273                    22073175.508
        46.100          35.700
 121507054.558 6  94680827.63844  23122022.828                    23122024.973
        40.800          25.900
 120815494.547 7  94141873.38544  22990402.859                    22990406.789
        44.500          28.300
 126197405.166 6  98335654.77144  24014568.859                    24014572.594
        41.100          25.400
 119713557.679 8  93283311.68445  22780732.828                    22780737.938
        48.600          35.900
 109570481.167 8  85379614.99746  20850569.672                    20850575.121
        48.700          41.100
 114853657.652 8  89496367.62846  21855924.750                    21855927.445
        50.400          38.600
 117161692.518 7  91294882.85445  22295137.180                    22295144.246
        42.300          34.200
 18  3 13 13 26 42.0000000  0 19G10R08R07G14G22R09R15R16R17R18R24G19
                                G11G12G28G32G24G17G01
 122102609.892 6  95145048.44743  23235385.891                    23235393.090
        41.200          22.500
                  86196422.671 6  20695599.211                    20695600.883
                        41.400
                  86692014.504 6  20821883.742                    20821885.230
                        41.100
 129077563.961 6 100579850.28543  24562625.219                    24562629.090
        36.600          19.300
 128856089.637 6 100407440.17144  24520520.961                    24520522.164
        40.400          26.500
                  87739141.013 6  21125215.898                    21125215.535
                        41.600
                  95179278.193 5  22900503.398                    22900507.156
                        32.900
                  80140902.743 6  19288987.781                    19288988.668
                        41.200
                  84044371.037 6  20193045.234                    20193047.137
                        40.900
                  93709150.290 6  22570560.477                    22570562.809
                        39.900
                  88435889.686 5  21263088.977                    21263089.059
                        32.800
 115993171.294 7  90384295.10345  22072767.578                    22072768.535
        46.800          35.800
 121509742.027 6  94682921.78844  23122533.945                    23122536.766
        40.700          27.500
 120812209.510 7  94139313.64044  22989778.023                    22989781.578
        46.000          27.400
 126201090.246 6  98338526.26344  24015269.438                    24015274.645
        40.800          26.700
 119711608.696 7  93281792.99545  22780361.305                    22780367.191
        47.700          34.000
 109571249.186 8  85380213.45646  20850715.766                    20850721.398
        48.900          40.800
 114853164.516 8  89495983.36746  21855830.320                    21855833.625
        50.100          38.600
 117162521.011 7  91295528.42145  22295295.125                    22295301.527
        42.400          34.400
 18  3 13 13 26 43.0000000  0 19G10R08R07G14G22R09R15R16R17R18R24G19
                                G11G12G28G32G24G17G01
 122105650.515 7  95147417.79144  23235964.789                    23235971.707
        43.000          29.000
                  86195420.158 6  20695358.172                    20695359.234
                        40.900
                  86694291.200 6  20822430.680                    20822432.133
                        41.400
 129074593.619 5 100577535.69943  24562059.320                    24562063.824
        32.500          18.600
 128853711.204 6 100405586.85544  24520068.633                    24520069.789
        40.100          26.600
                  87736692.855 6  21124626.688                    21124626.242
                        41.000
                  95183024.024 5  22901404.664                    22901407.531
                        33.200
                  80141806.777 6  19289205.758                    19289206.434
                        41.000
                  84043715.872 6  20192887.805                    20192890.145
                        41.000
                  93706078.626 6  22569820.555                    22569823.234
                        40.700
                  88438497.700 5  21263716.633                    21263717.148
                        33.000
 115991033.400 7  90382629.21145  22072359.820                    22072361.820
        46.200          35.000
 121512430.162 6  94685016.45844  23123045.328                    23123048.816
        40.400          25.100
 120808924.850 7  94136754.17744  22989153.258                    22989156.992
        46.800          28.300
 126204775.570 7  98341397.93344  24015971.406                    24015975.398
        42.200          25.300
 119709660.224 7  93280274.67445  22779990.422                    22779996.063
        47.000          33.300
 109572017.949 8  85380812.49546  20850861.953                    20850867.727
        49.000          40.600
 114852672.053 8  89495599.62446  21855736.234                    21855740.098
        50.500          38.700
 117163350.296 7  91296174.60745  22295453.344                    22295459.594
        42.700          34.000
 18  3 13 13 26 44.0000000  0 19G10R08R07G14G22R09R15R16R17R18R24G19
                                G11G12G28G32G24G17G01
 122108691.633 7  95149787.53344  23236543.352                    23236550.750
        43.400          29.600
                  86194418.353 6  20695117.266                    20695119.504
                        41.000
                  86696568.560 6  20822977.344                    20822979.086
                        41.400
 129071623.429 5 100575221.27143  24561494.344                    24561498.918
        35.500          18.300
 128851333.179 6 100403733.84844  24519615.773                    24519617.051
        40.300          26.600
                  87734245.108 6  21124037.164                    21124036.969
                        41.300
                  95186769.995 5  22902307.289                    22902309.516
                        33.900
                  80142711.480 6  19289422.383                    19289424.188
                        40.500
                  84043061.436 6  20192730.750                    20192732.270
                        41.300
                  93703007.231 6  22569081.078                    22569083.367
                        41.100
                  88441106.334 5  21264342.492                    21264344.094
                        32.200
 115988896.129 7  90380963.80245  22071953.148                    22071954.906
        46.700          35.400
 121515118.969 6  94687111.64044  23123555.766                    23123560.285
        39.700          25.500
 120805640.529 7  94134194.96744  22988528.102                    22988531.234
        47.200          29.300
 126208461.146 6  98344269.81544  24016671.438                    24016676.934
        41.100          24.300
 119707712.374 8  93278756.83845  22779620.141                    22779625.008
        49.000          34.400
 109572787.436 8  85381412.09446  20851008.375                    20851014.152
        49.000          40.600
 114852180.277 8  89495216.42646  21855643.219                    21855646.008
        50.200          38.700
 117164180.368 7  91296821.41345  22295611.070                    22295617.961
        43.500          34.000
 18  3 13 13 26 45.0000000  0 19G10R08R07G14G22R09R15R16R17R18R24G19
                                G11G12G28G32G24G17G01
 122111733.244 7  95152157.65444  23237122.141                    23237129.199
        43.500          29.900
                  86193417.218 6  20694877.008                    20694878.672
                        40.900
                  86698846.499 6  20823524.984                    20823526.512
                        41.600
 129068653.529 5 100572907.02842  24560929.461                    24560933.086
        33.200          17.400
 128848955.532 6 100401881.14144  24519163.320                    24519164.539
        40.200          25.900
                  87731797.719 6  21123447.398                    21123447.953
                        41.100
                  95190516.135 5  22903207.695                    22903211.789
                        33.600
                  80143616.842 6  19289640.734                    19289642.117
                        40.300
                  84042407.716 6  20192573.445                    20192575.109
                        41.400
                  93699936.107 6  22568342.203                    22568344.531
                        41.700
                  88443715.533 5  21264970.227                    21264971.090
                        31.200
 115986759.474 7  90379298.88145  22071547.414                    22071548.031
        47.600          35.700
 121517808.452 6  94689207.32744  23124068.070                    23124071.695
        39.500          25.200
 120802356.521 7  94131636.00044  22987903.523                    22987906.547
        47.100          29.800
 126212146.899 6  98347141.83144  24017374.234                    24017377.688
        41.300          24.100
 119705765.026 7  93277239.38945  22779249.273                    22779254.961
        47.600          34.200
 109573557.622 8  85382012.23646  20851155.414                    20851160.789
        49.100          40.800
 114851689.120 8  89494833.70646  21855549.820                    21855552.785
        50.600          38.600
 117165011.177 7  91297468.79845  22295769.258                    22295775.934
        43.300          33.700
 18  3 13 13 26 46.0000000  0 19G10R08R07G14G22R09R15R16R17R18R24G19
                                G11G12G28G32G24G17G01
 122114775.345 7  95154528.16844  23237701.258                    23237707.879
        43.100          28.200
                  86192416.799 6  20694636.477                    20694638.625
                        40.400
                  86701125.065 6  20824072.391                    20824073.289
                        41.400
 129065683.828 5 100570592.96442  24560364.945                    24560368.508
        33.100          16.900
 128846578.239 6 100400028.70444  24518710.570                    24518712.168
        40.200          26.200
                  87729350.709 6  21122857.961                    21122859.406
                        40.900
                  95194262.463 5  22904108.148                    22904112.453
                        32.600
                  80144522.877 6  19289859.508                    19289859.887
                        40.500
                  84041754.740 6  20192416.609                    20192418.387
                        41.100
                  93696865.254 6  22567603.219                    22567605.137
                        41.400
                  88446325.262 5  21265598.516                    21265598.590
                        32.100
 115984623.413 7  90377634.41245  22071140.227                    22071142.016
        47.000          35.400
 121520498.465 6  94691303.39544  23124581.227                    23124584.000
        40.600          26.000
 120799072.836 7  94129077.27244  22987278.188                    22987281.625
        46.800          29.600
 126215832.866 6  98350014.01344  24018074.383                    24018079.836
        39.800          24.600
 119703818.200 7  93275722.35745  22778877.141                    22778884.559
        45.200          34.000
 109574328.502 8  85382612.93146  20851302.023                    20851307.344
        49.500          40.700
 114851198.620 8  89494451.50046  21855456.242                    21855459.141
        50.300          38.300
 117165842.736 7  91298116.77545  22295927.820                    22295934.375
        43.500          33.900
 18  3 13 13 26 47.0000000  0 19G10R08R07G14G22R09R15R16R17R18R24G19
                                G11G12G28G32G24G17G01
 122117817.944 7  95156899.07544  23238279.586                    23238287.086
        43.200          27.300
                  86191417.109 6  20694396.648                    20694398.613
                        40.600
                  86703404.257 6  20824620.070                    20824620.898
                        41.500
 129062714.457 5 100568279.16942  24559800.227                    24559803.199
        33.300          16.300
 128844201.321 6 100398176.56744  24518258.961                    24518260.410
        40.500          26.200
                  87726904.094 6  21122268.664                    21122269.770
                        41.100
                  95198008.930 5  22905010.266                    22905013.590
                        32.200
                  80145429.590 6  19290077.617                    19290078.805
                        40.400
                  84041102.496 6  20192260.992                    20192261.406
                        40.900
                  93693794.674 7  22566863.898                    22566865.617
                        42.300
                  88448935.646 5  21266225.055                    21266227.016
                        32.000
 115982487.964 7  90375970.42345  22070733.234                    22070735.621
        46.100          35.300
 121523189.141 6  94693399.98644  23125093.977                    23125095.625
        41.000          26.100
 120795789.468 7  94126518.80944  22986653.477                    22986656.855
        46.600          28.700
 126219519.095 6  98352886.40843  24018778.125                    24018780.777
        41.300          23.800
 119701871.888 7  93274205.74545  22778506.320                    22778514.512
        43.000          34.400
 109575100.066 8  85383214.14646  20851448.711                    20851454.500
        49.200          40.600
 114850708.754 8  89494069.78946  21855363.211                    21855366.234
        50.500          38.800
 117166675.042 7  91298765.34545  22296085.984                    22296092.340
        43.200          33.300
 18  3 13 13 26 48.0000000  0 19G10R08R07G14G22R09R15R16R17R18R24G19
                                G11G12G28G32G24G17G01
 122120861.075 7  95159270.39044  23238858.883                    23238865.996
        43.600          29.100
                  86190418.068 6  20694156.773                    20694159.051
                        40.400
                  86705684.075 6  20825166.922                    20825168.574
                        41.300
 129059745.305 5 100565965.55542  24559234.063                    24559238.652
        33.400          14.800
 128841824.815 6 100396324.75244  24517805.844                    24517808.074
        40.400          27.200
                  87724457.837 6  21121680.766                    21121680.672
                        41.000
                  95201755.573 5  22905911.734                    22905914.691
                        32.800
                  80146336.976 6  19290295.117                    19290296.805
                        40.200
                  84040450.951 6  20192103.813                    20192104.887
                        41.000
                  93690724.332 6  22566124.188                    22566127.004
                        41.100
                  88451546.552 5  21266853.102                    21266854.121
                        32.400
 115980353.115 7  90374306.91445  22070328.203                    22070329.285
        46.600          35.400
 121525880.382 6  94695497.06044  23125605.945                    23125607.723
        41.200          24.700
 120792506.402 7  94123960.57544  22986028.703                    22986032.129
        46.000          27.900
 126223205.529 6  98355758.95944  24019477.367                    24019481.914
        39.900          24.300
 119699926.075 7  93272689.55545  22778136.695                    22778144.270
        42.900          33.700
 109575872.317 8  85383815.90446  20851595.633                    20851601.410
        48.800          40.500
 114850219.522 8  89493688.57546  21855270.320                    21855272.805
        50.800          38.700
 117167508.119 7  91299414.51445  22296244.164                    22296251.059
        43.300          33.600
 18  3 13 13 26 49.0000000  0 19G10R08R07G14G22R09R15R16R17R18R24G19
                                G11G12G28G32G24G17G01
 122123904.702 7  95161642.09544  23239438.672                    23239445.180
        43.900          29.400
                  86189419.706 6  20693917.828                    20693919.305
                        40.700
                  86707964.511 6  20825715.070                    20825716.574
                        41.200
 129056776.407 5 100563652.12742  24558668.938                    24558673.152
        33.000          14.800
 128839448.662 6 100394473.21744  24517354.516                    24517355.469
        41.300          27.900
                  87722012.012 6  21121091.188                    21121091.785
                        40.800
                  95205502.421 5  22906813.961                    22906816.563
                        34.200
                  80147245.035 6  19290514.461                    19290515.148
                        40.500
                  84039800.129 6  20191947.219                    20191948.480
                        41.200
                  93687654.277 6  22565384.125                    22565386.988
                        40.500
                  88454157.993 5  21267482.664                    21267481.797
                        31.800
 115978218.899 7  90372643.88145  22069921.922                    22069923.430
        46.500          35.400
 121528572.240 6  94697594.61844  23126118.352                    23126120.277
        41.700          25.100
 120789223.684 7  94121402.62044  22985403.977                    22985407.672
        46.200          28.100
 126226892.167 6  98358631.64744  24020180.594                    24020183.617
        41.100          25.400
 119697980.888 7  93271173.89545  22777767.969                    22777773.707
        45.800          33.900
 109576645.283 8  85384418.20846  20851742.695                    20851748.199
        48.900          40.500
 114849730.968 8  89493307.88446  21855177.141                    21855180.328
        50.800          38.800
 117168341.979 7  91300064.28345  22296402.648                    22296410.027
        42.900          33.300
 18  3 13 13 26 50.0000000  0 19G10R08R07G14G22R09R15R16R17R18R24G19
                                G11G12G28G32G24G17G01
 122126948.821 7  95164014.17944  23240017.664                    23240024.563
        43.700          29.700
                  86188421.991 6  20693677.992                    20693678.965
                        40.500
                  86710245.536 6  20826262.078                    20826264.176
                        41.200
 129053807.824 5 100561338.94642  24558105.203                    24558108.313
        32.800          14.800
 128837072.876 6 100392621.95444  24516902.586                    24516903.852
        41.100          26.700
                  87719566.530 6  21120502.508                    21120502.863
                        41.100
                  95209249.424 5  22907714.195                    22907718.070
                        34.000
                  80148153.741 6  19290732.250                    19290734.145
                        40.300
                  84039150.052 6  20191790.844                    20191792.438
                        41.200
                  93684584.537 6  22564643.641                    22564647.449
                        39.800
                  88456770.056 5  21268109.117                    21268110.133
                        31.900
 115976085.260 7  90370981.30445  22069514.961                    22069517.008
        46.400          35.200
 121531264.724 7  94699692.68844  23126630.656                    23126632.816
        42.200          26.100
 120785941.269 7  94118844.89144  22984779.523                    22984783.051
        46.000          28.500
 126230579.062 6  98361504.54544  24020880.547                    24020885.090
        40.100          24.800
 119696036.260 8  93269658.64445  22777399.391                    22777403.633
        48.100          34.700
 109577418.949 8  85385021.06346  20851889.992                    20851895.547
        49.100          40.600
 114849243.026 8  89492927.66446  21855084.086                    21855087.488
        50.200          38.900
 117169176.604 7  91300714.64345  22296561.063                    22296568.625
        42.400          33.400
