     2.11           OBSERVATION DATA    M (MIXED)           RINEX VERSION / TYPE
teqc  2018Mar15                         20180319 14:17:32UTCPGM / RUN BY / DATE
Linux 2.6.32-573.12.1.x86_64|x86_64|gcc -static|Linux 64|=+ COMMENT
END OF STATIC MODE OBSERVATION                              COMMENT
BIT 2 OF LLI FLAGS DATA COLLECTED UNDER A/S CONDITION       COMMENT
-Unknown-                                                   MARKER NAME
4625                                                        MARKER NUMBER
-Unknown-           -Unknown-                               OBSERVER / AGENCY
5127468778          TRIMBLE             4.63                REC # / TYPE / VERS
47477114                            NONE                    ANT # / TYPE
  6378137.0000        0.0000        0.0000                  APPROX POSITION XYZ
        0.0000        0.0000        0.0000                  ANTENNA: DELTA H/E/N
     1     1                                                WAVELENGTH FACT L1/2
     7    L1    L2    C1    P1    P2    S1    S2            # / TYPES OF OBSERV
    18                                                      LEAP SECONDS
 SNR is mapped to RINEX snr flag value [0-9]                COMMENT
  L1 & L2: min(max(int(snr_dBHz/6), 0), 9)                  COMMENT
  2018     3    13    12    56   14.0000000     GPS         TIME OF FIRST OBS
                                                            END OF HEADER
 18  3 13 12 56 14.0000000  0 17G10G11R08R09R07R15R16R17R23R24G24G01
                                G19G28G32G17G15
 118395635.771 7  92256374.89345  22529944.039                    22529950.738
        47.200          34.000
 118618500.244 7  92430024.41244  22572353.813                    22572357.352
        44.500          29.300
                  89811684.864 6  21563614.695                    21563616.340
                        40.900
                  93491915.793 6  22510328.039                    22510329.016
                        41.500
                  84370481.066 6  20264293.313                    20264295.941
                        41.000
                  89420935.100 5  21515026.336                    21515029.430
                        35.500
                  80343997.513 6  19337870.508                    19337871.766
                        38.900
                  87109002.702 6  20929373.391                    20929374.207
                        40.000
                  96236590.212 6  23130534.648                    23130539.828
                        37.000
                  85435233.966 5  20541627.445                    20541627.211
                        32.900
 110255054.527 8  85912923.49746  20980809.406                    20980815.266
        48.400          38.300
 117821313.822 7  91808840.42545  22420651.375                    22420659.238
        42.800          32.000
 121723187.993 7  94849270.84144  23163158.914                    23163161.203
        42.500          27.700
 120800644.910 7  94130419.35544  22987606.211                    22987610.008
        43.900          28.200
 125010865.785 7  97411007.85044  23788759.430                    23788764.918
        43.800          29.200
 117694636.417 8  91710118.08546  22396544.836                    22396548.457
        48.500          36.400
 125225009.461 7  97577948.24644  23829526.164                    23829531.297
        43.200          25.000
 18  3 13 12 56 15.0000000  0 17G10G11R08R09R07R15R16R17R23R24G24G01
                                G19G28G32G17G15
 118397640.691 7  92257937.17445  22530326.227                    22530332.496
        47.500          33.700
 118619952.311 7  92431155.89144  22572630.219                    22572633.523
        45.200          29.600
                  89809594.930 6  21563112.891                    21563115.164
                        41.200
                  93488938.821 6  22509611.336                    22509611.957
                        41.700
                  84371527.837 6  20264544.531                    20264546.828
                        41.100
                  89424238.521 5  21515821.766                    21515825.035
                        35.600
                  80343682.134 6  19337794.609                    19337796.242
                        39.400
                  87107149.928 6  20928928.070                    20928929.465
                        40.200
                  96240245.496 6  23131413.766                    23131418.734
                        36.700
                  85436666.117 5  20541970.719                    20541971.180
                        32.900
 110254573.262 8  85912548.49246  20980718.063                    20980723.477
        48.700          38.600
 117820784.609 7  91808428.04745  22420550.922                    22420558.688
        42.100          30.400
 121720132.508 7  94846889.93944  23162578.516                    23162579.848
        43.200          27.300
 120803836.784 7  94132906.51644  22988214.422                    22988217.320
        44.200          28.100
 125008098.016 7  97408851.12544  23788231.867                    23788238.039
        44.100          29.500
 117693062.360 8  91708891.55446  22396245.680                    22396248.898
        49.100          36.200
 125229024.052 7  97581076.48244  23830290.016                    23830295.305
        43.500          24.700
 18  3 13 12 56 16.0000000  0 17G10G11R08R09R07R15R16R17R23R24G24G01
                                G19G28G32G17G15
 118399646.254 7  92259499.95145  22530707.984                    22530713.602
        47.600          34.300
 118621405.098 7  92432287.94844  22572907.180                    22572910.199
        44.700          29.200
                  89807505.549 6  21562611.930                    21562613.262
                        40.500
                  93485962.056 6  22508894.172                    22508895.016
                        41.800
                  84372575.382 6  20264796.344                    20264798.906
                        41.200
                  89427542.339 5  21516615.867                    21516618.980
                        35.800
                  80343367.424 6  19337719.352                    19337720.051
                        39.000
                  87105297.796 6  20928482.563                    20928484.133
                        40.200
                  96243901.115 6  23132291.336                    23132297.258
                        36.500
                  85438098.990 5  20542315.250                    20542315.895
                        33.400
 110254092.682 8  85912174.01746  20980626.570                    20980631.957
        49.000          38.700
 117820256.200 6  91808016.29245  22420450.391                    22420458.379
        41.800          31.900
 121717077.512 7  94844509.41844  23161997.906                    23161998.285
        43.900          26.700
 120807028.986 7  94135393.93844  22988821.969                    22988824.965
        44.100          27.200
 125005330.615 7  97406694.69444  23787705.680                    23787711.590
        43.600          29.500
 117691488.902 8  91707665.48146  22395945.953                    22395949.418
        49.000          36.300
 125233038.955 7  97584204.97744  23831053.789                    23831059.469
        42.300          24.800
 18  3 13 12 56 17.0000000  0 17G10G11R08R09R07R15R16R17R23R24G24G01
                                G19G28G32G17G15
 118401652.426 8  92261063.21645  22531089.234                    22531095.992
        48.100          34.000
 118622858.613 7  92433420.58244  22573183.273                    22573186.648
        45.000          29.600
                  89805416.598 6  21562109.805                    21562111.281
                        40.600
                  93482985.460 6  22508177.078                    22508178.871
                        41.300
                  84373623.583 6  20265047.430                    20265050.156
                        41.300
                  89430846.403 5  21517411.219                    21517414.457
                        35.300
                  80343053.341 6  19337643.172                    19337644.664
                        39.100
                  87103446.236 6  20928037.430                    20928039.383
                        40.500
                  96247556.856 6  23133169.148                    23133175.066
                        36.800
                  85439532.520 5  20542659.297                    20542660.238
                        33.400
 110253612.706 8  85911800.01146  20980535.289                    20980540.766
        48.900          38.800
 117819728.428 7  91807605.01645  22420350.250                    22420357.563
        42.000          32.100
 121714022.811 7  94842129.12144  23161414.438                    23161417.008
        42.300          27.900
 120810221.443 7  94137881.55744  22989429.594                    22989432.023
        44.500          27.400
 125002563.564 7  97404538.53244  23787179.094                    23787184.809
        42.500          28.700
 117689915.930 8  91706439.78846  22395646.156                    22395649.578
        49.100          36.200
 125237054.038 6  97587333.61543  23831817.461                    23831823.215
        41.700          22.300
 18  3 13 12 56 18.0000000  0 17G10G11R08R09R07R15R16R17R23R24G24G01
                                G19G28G32G17G15
 118403659.233 7  92262626.97045  22531470.867                    22531477.742
        47.200          33.400
 118624312.870 7  92434553.78644  22573459.648                    22573463.145
        44.800          29.700
                  89803328.168 6  21561608.688                    21561609.656
                        40.000
                  93480009.104 6  22507460.328                    22507461.945
                        41.000
                  84374672.499 6  20265299.375                    20265302.246
                        41.400
                  89434150.811 5  21518205.797                    21518209.348
                        35.000
                  80342739.928 6  19337567.648                    19337569.008
                        39.200
                  87101595.295 6  20927592.789                    20927594.863
                        40.200
                  96251212.952 6  23134049.063                    23134054.449
                        36.700
                  85440966.802 5  20543004.859                    20543005.457
                        33.400
 110253133.444 8  85911426.55646  20980443.766                    20980449.484
        48.800          38.500
 117819201.377 6  91807194.29845  22420250.180                    22420257.207
        41.600          31.500
 121710968.518 7  94839749.15044  23160833.617                    23160835.805
        42.100          27.600
 120813414.285 7  94140369.48744  22990037.375                    22990040.035
        45.300          28.200
 124999796.853 7  97402382.64844  23786651.914                    23786658.324
        42.700          28.700
 117688343.501 8  91705214.52046  22395347.531                    22395350.641
        49.500          36.900
 125241069.426 6  97590462.48043  23832581.805                    23832587.355
        41.500          22.600
 18  3 13 12 56 19.0000000  0 17G10G11R08R09R07R15R16R17R23R24G24G01
                                G19G28G32G17G15
 118405666.731 7  92264191.27145  22531852.008                    22531859.398
        46.600          33.500
 118625767.896 7  92435687.58244  22573736.492                    22573740.141
        44.500          29.800
                  89801240.261 6  21561107.273                    21561108.086
                        39.800
                  93477032.968 6  22506743.258                    22506745.391
                        41.200
                  84375722.228 6  20265551.672                    20265554.109
                        41.300
                  89437455.588 5  21519000.813                    21519004.547
                        35.600
                  80342427.208 6  19337491.586                    19337493.949
                        39.300
                  87099744.980 6  20927148.414                    20927149.680
                        40.400
                  96254869.354 6  23134928.445                    23134933.063
                        36.500
                  85442401.828 5  20543350.945                    20543350.988
                        33.400
 110252654.892 8  85911053.65946  20980352.281                    20980358.719
        48.700          38.600
 117818675.111 6  91806784.19145  22420150.070                    22420156.938
        40.900          31.300
 121707914.680 7  94837369.54644  23160253.336                    23160254.691
        42.600          27.200
 120816607.495 7  94142857.71644  22990644.523                    22990647.531
        45.500          28.500
 124997030.588 6  97400227.11244  23786125.570                    23786131.645
        41.200          27.700
 117686771.661 8  91703989.70746  22395048.797                    22395051.645
        49.800          36.700
 125245085.107 7  97593591.57843  23833346.086                    23833351.453
        42.200          22.600
 18  3 13 12 56 20.0000000  0 17G10G11R08R09R07R15R16R17R23R24G24G01
                                G19G28G32G17G15
 118407674.885 7  92265756.07745  22532234.219                    22532241.797
        46.500          33.400
 118627223.689 7  92436821.96745  22574013.922                    22574016.902
        44.600          30.400
                  89799152.873 6  21560605.195                    21560606.664
                        39.100
                  93474057.075 6  22506027.500                    22506028.723
                        40.700
                  84376772.679 6  20265804.805                    20265806.910
                        41.200
                  89440760.673 5  21519795.883                    21519799.465
                        35.300
                  80342115.144 6  19337417.281                    19337418.547
                        39.200
                  87097895.202 6  20926704.094                    20926705.844
                        40.300
                  96258525.978 5  23135807.875                    23135811.570
                        35.200
                  85443837.556 5  20543695.438                    20543695.332
                        33.600
 110252177.009 8  85910681.27746  20980261.219                    20980267.602
        48.500          38.400
 117818149.596 6  91806374.68445  22420050.234                    22420056.969
        41.700          31.600
 121704861.260 7  94834990.26244  23159671.469                    23159673.785
        42.200          28.600
 120819801.059 7  94145346.22444  22991252.008                    22991255.078
        45.200          28.600
 124994264.692 6  97398071.86644  23785598.711                    23785606.371
        41.700          28.900
 117685200.367 8  91702765.32746  22394749.430                    22394752.816
        49.700          36.300
 125249101.062 7  97596720.87643  23834110.305                    23834115.477
        42.800          22.300
 18  3 13 12 56 21.0000000  0 17G10G11R08R09R07R15R16R17R23R24G24G01
                                G19G28G32G17G15
 118409683.688 7  92267321.38645  22532616.750                    22532624.082
        46.500          34.400
 118628680.195 7  92437956.89745  22574290.531                    22574294.008
        44.600          30.000
                  89797066.019 6  21560103.078                    21560104.754
                        39.300
                  93471081.375 6  22505310.727                    22505311.906
                        40.900
                  84377823.859 6  20266056.961                    20266059.074
                        41.200
                  89444066.076 5  21520592.039                    21520594.957
                        35.400
                  80341803.778 6  19337342.547                    19337343.969
                        39.100
                  87096046.020 6  20926259.609                    20926261.242
                        40.200
                  96262182.944 5  23136686.891                    23136690.559
                        35.600
                  85445274.035 5  20544040.297                    20544041.004
                        32.900
 110251699.856 8  85910309.48446  20980170.672                    20980176.684
        48.700          38.700
 117817624.813 7  91805965.75045  22419950.664                    22419957.141
        42.200          30.700
 121701808.276 7  94832611.32944  23159091.313                    23159092.504
        42.900          27.500
 120822994.954 7  94147834.97444  22991860.039                    22991862.676
        45.100          28.900
 124991499.132 6  97395916.89644  23785072.258                    23785079.234
        39.900          27.000
 117683629.629 8  91701541.38546  22394450.594                    22394453.996
        49.900          36.700
 125253117.288 7  97599850.39443  23834874.180                    23834879.516
        42.600          22.600
 18  3 13 12 56 22.0000000  0 17G10G11R08R09R07R15R16R17R23R24G24G01
                                G19G28G32G17G15
 118411693.169 7  92268887.20945  22532999.617                    22533006.172
        46.900          34.000
 118630137.494 7  92439092.44645  22574567.906                    22574571.223
        44.300          30.000
                  89794979.676 6  21559602.547                    21559603.305
                        39.300
                  93468105.924 6  22504593.688                    22504595.289
                        40.100
                  84378875.748 6  20266310.281                    20266311.824
                        41.100
                  89447371.837 5  21521388.398                    21521391.332
                        35.300
                  80341493.078 6  19337267.656                    19337269.332
                        39.000
                  87094197.456 6  20925815.398                    20925817.168
                        40.400
                  96265840.207 5  23137565.391                    23137569.875
                        35.700
                  85446711.230 5  20544386.484                    20544386.367
                        33.300
 110251223.374 8  85909938.20546  20980080.672                    20980086.035
        48.700          38.900
 117817100.843 7  91805557.46045  22419850.859                    22419857.273
        42.400          30.200
 121698755.731 7  94830232.73344  23158511.188                    23158511.996
        44.100          27.700
 120826189.229 7  94150324.02944  22992467.063                    22992470.891
        44.500          27.600
 124988733.996 6  97393762.26944  23784545.852                    23784552.973
        39.900          26.400
 117682059.482 8  91700317.90146  22394151.906                    22394155.086
        49.900          36.900
 125257133.798 7  97602980.15043  23835639.313                    23835643.953
        42.400          23.200
 18  3 13 12 56 23.0000000  0 17G10G11R08R09R07R15R16R17R23R24G24G01
                                G19G28G32G17G15
 118413703.265 7  92270453.51345  22533382.641                    22533388.996
        47.200          34.800
 118631595.520 7  92440228.57744  22574845.313                    22574848.527
        44.600          29.900
                  89792893.890 6  21559101.891                    21559102.262
                        40.100
                  93465130.674 6  22503878.141                    22503878.598
                        39.900
                  84379928.360 6  20266562.023                    20266565.285
                        41.300
                  89450677.913 5  21522182.719                    21522186.352
                        35.600
                  80341183.025 6  19337192.969                    19337194.844
                        38.900
                  87092349.450 6  20925371.750                    20925373.359
                        40.500
                  96269497.734 5  23138444.500                    23138449.203
                        35.200
                  85448149.141 5  20544731.961                    20544731.801
                        33.400
 110250747.548 8  85909567.43946  20979990.008                    20979995.117
        48.900          38.600
 117816577.555 7  91805149.68745  22419751.602                    22419757.828
        43.300          31.000
 121695703.596 7  94827854.43744  23157930.375                    23157931.543
        43.700          28.400
 120829383.854 7  94152813.33944  22993075.211                    22993078.668
        44.100          28.700
 124985969.195 6  97391607.89844  23784020.578                    23784026.648
        40.200          26.900
 117680489.848 8  91699094.80845  22393852.836                    22393856.551
        49.800          35.900
 125261150.549 7  97606110.09343  23836403.828                    23836408.395
        43.000          22.500
 18  3 13 12 56 24.0000000  0 17G10G11R08R09R07R15R16R17R23R24G24G01
                                G19G28G32G17G15
 118415713.934 7  92272020.27045  22533764.945                    22533771.793
        47.200          34.400
 118633054.225 7  92441365.24844  22575123.391                    22575126.313
        44.100          29.600
                  89790808.570 6  21558601.781                    21558601.285
                        40.100
                  93462155.590 6  22503162.688                    22503162.047
                        39.900
                  84380981.679 6  20266815.086                    20266817.242
                        41.100
                  89453984.294 5  21522977.305                    21522981.859
                        35.300
                  80340873.591 6  19337118.195                    19337119.680
                        39.100
                  87090501.959 6  20924927.070                    20924929.352
                        40.300
                  96273155.463 5  23139324.359                    23139327.922
                        35.700
                  85449587.722 5  20545077.789                    20545078.363
                        32.800
 110250272.348 8  85909197.15146  20979899.758                    20979905.023
        49.100          38.500
 117816054.952 7  91804742.44844  22419652.266                    22419657.707
        43.900          29.800
 121692651.764 7  94825476.36344  23157348.008                    23157350.723
        42.400          27.300
 120832578.761 7  94155302.87144  22993682.766                    22993686.574
        43.900          27.500
 124983204.715 6  97389453.78444  23783494.719                    23783500.699
        41.100          27.800
 117678920.722 8  91697872.11946  22393554.063                    22393557.680
        49.700          36.500
 125265167.513 7  97609240.20743  23837168.773                    23837172.824
        43.600          21.800
 18  3 13 12 56 25.0000000  0 17G10G11R08R09R07R15R16R17R23R24G24G01
                                G19G28G32G17G15
 118417725.286 7  92273587.55345  22534147.109                    22534154.059
        46.700          34.500
 118634513.705 7  92442502.51744  22575401.188                    22575404.031
        44.500          29.700
                  89788723.813 6  21558101.688                    21558101.719
                        39.800
                  93459180.742 6  22502446.156                    22502445.855
                        40.000
                  84382035.773 6  20267067.930                    20267070.629
                        41.300
                  89457291.068 5  21523772.250                    21523777.848
                        35.600
                  80340564.861 6  19337044.586                    19337045.719
                        38.700
                  87088655.116 6  20924483.547                    20924485.719
                        40.200
                  96276813.501 5  23140202.219                    23140207.238
                        35.300
                  85451027.084 5  20545423.992                    20545424.477
                        32.800
 110249797.869 8  85908827.43046  20979809.438                    20979814.781
        48.900          38.700
 117815533.041 7  91804335.73244  22419553.336                    22419558.945
        44.100          29.900
 121689600.384 7  94823098.67844  23156768.008                    23156769.594
        44.100          28.600
 120835774.021 7  94157792.68344  22994290.938                    22994294.453
        43.500          27.700
 124980440.696 7  97387300.01444  23782968.969                    23782974.871
        42.700          27.400
 117677352.199 8  91696649.89546  22393255.813                    22393259.188
        49.700          36.800
 125269184.778 7  97612370.54443  23837932.883                    23837936.645
        43.400          22.200
 18  3 13 12 56 26.0000000  0 17G10G11R08R09R07R15R16R17R23R24G24G01
                                G19G28G32G17G15
 118419737.236 7  92275155.30045  22534529.961                    22534537.070
        46.400          34.300
 118635973.873 7  92443640.32544  22575678.492                    22575681.941
        44.700          29.700
                  89786639.491 6  21557600.977                    21557601.387
                        40.200
                  93456206.078 6  22501729.836                    22501728.883
                        39.700
                  84383090.568 6  20267322.156                    20267324.277
                        41.400
                  89460598.114 5  21524569.016                    21524573.145
                        35.900
                  80340256.771 6  19336970.047                    19336971.090
                        38.400
                  87086808.780 6  20924039.852                    20924041.566
                        40.200
                  96280471.805 5  23141082.813                    23141086.828
                        35.600
                  85452467.155 5  20545770.516                    20545770.512
                        32.400
 110249323.988 8  85908458.16946  20979718.898                    20979724.500
        48.600          38.800
 117815011.911 7  91803929.61845  22419453.867                    22419459.426
        44.800          30.900
 121686549.443 7  94820721.33044  23156188.578                    23156189.266
        43.700          28.500
 120838969.604 7  94160282.73944  22994899.242                    22994902.527
        43.600          27.800
 124977676.946 7  97385146.44444  23782443.375                    23782448.664
        43.300          28.500
 117675784.153 8  91695428.04846  22392957.414                    22392960.766
        49.500          36.100
 125273202.252 7  97615501.04643  23838697.805                    23838701.180
        43.800          23.900
 18  3 13 12 56 27.0000000  0 17G10G11R08R09R07R15R16R17R23R24G24G01
                                G19G28G32G17G15
 118421749.878 7  92276723.57645  22534913.461                    22534919.977
        47.000          34.700
 118637434.864 7  92444778.77545  22575956.414                    22575960.004
        44.300          30.000
                  89784555.710 6  21557100.766                    21557101.605
                        40.900
                  93453231.654 6  22501014.672                    22501012.910
                        39.600
                  84384146.115 6  20267575.781                    20267577.793
                        41.500
                  89463905.528 6  21525365.352                    21525368.453
                        36.000
                  80339949.385 6  19336896.016                    19336897.395
                        38.900
                  87084963.092 6  20923596.531                    20923598.059
                        40.400
                  96284130.417 5  23141961.305                    23141966.219
                        35.600
                  85453907.993 5  20546116.609                    20546116.918
                        32.800
 110248850.813 8  85908089.46046  20979628.477                    20979634.672
        48.000          38.700
 117814491.549 7  91803524.09545  22419354.719                    22419359.992
        45.000          30.700
 121683498.878 6  94818344.25544  23155605.547                    23155608.813
        41.400          27.700
 120842165.567 7  94162773.10444  22995507.617                    22995510.906
        43.800          26.900
 124974913.681 7  97382993.23244  23781917.703                    23781923.031
        43.900          29.300
 117674216.717 8  91694206.67746  22392659.070                    22392662.672
        49.300          36.800
 125277220.039 7  97618631.79743  23839462.367                    23839465.820
        44.500          23.500
 18  3 13 12 56 28.0000000  0 17G10G11R08R09R07R15R16R17R23R24G24G01
                                G19G28G32G17G15
 118423763.098 7  92278292.31145  22535296.555                    22535302.926
        47.000          34.500
 118638896.500 7  92445917.72044  22576234.477                    22576238.176
        43.700          29.000
                  89782472.392 6  21556601.703                    21556602.137
                        40.400
                  93450257.426 6  22500298.008                    22500297.281
                        39.400
                  84385202.333 6  20267829.047                    20267831.727
                        41.300
                  89467213.244 5  21526160.484                    21526164.320
                        35.300
                  80339642.646 6  19336822.266                    19336823.695
                        38.900
                  87083117.978 6  20923154.195                    20923155.211
                        40.400
                  96287789.240 5  23142841.297                    23142845.227
                        34.700
                  85455349.525 5  20546462.305                    20546463.637
                        32.100
 110248378.303 8  85907721.26546  20979538.719                    20979544.652
        48.000          38.300
 117813971.870 7  91803119.11045  22419255.453                    22419261.359
        44.600          30.800
 121680448.687 7  94815967.50044  23155026.234                    23155027.996
        43.000          28.500
 120845361.850 7  94165263.70444  22996115.602                    22996119.414
        43.500          27.400
 124972150.676 7  97380840.22644  23781391.961                    23781397.180
        43.900          29.100
 117672649.781 8  91692985.69446  22392360.906                    22392364.344
        49.100          36.500
 125281238.054 7  97621762.73844  23840227.109                    23840230.473
        44.600          24.200
 18  3 13 12 56 29.0000000  0 17G10G11R08R09R07R15R16R17R23R24G24G01
                                G19G28G32G17G15
 118425776.951 7  92279861.53745  22535680.391                    22535686.102
        47.000          34.000
 118640358.855 7  92447057.20744  22576512.531                    22576516.145
        43.200          29.900
                  89780389.581 6  21556101.117                    21556101.965
                        40.200
                  93447283.395 6  22499582.281                    22499580.938
                        39.600
                  84386259.266 6  20268082.688                    20268085.266
                        41.500
                  89470521.277 5  21526957.469                    21526960.262
                        35.100
                  80339336.525 6  19336748.609                    19336750.066
                        38.700
                  87081273.415 6  20922710.563                    20922711.328
                        40.400
                  96291448.343 5  23143720.172                    23143724.770
                        34.600
                  85456791.742 5  20546809.375                    20546810.500
                        32.400
 110247906.440 8  85907353.58546  20979449.109                    20979454.738
        48.000          38.700
 117813452.909 7  91802714.68845  22419156.742                    22419162.715
        44.900          31.000
 121677398.952 7  94813591.10044  23154447.875                    23154448.121
        44.100          28.200
 120848558.438 7  94167754.55244  22996724.008                    22996727.539
        43.400          26.900
 124969388.062 7  97378687.51744  23780866.406                    23780871.605
        43.800          29.300
 117671083.365 8  91691765.11446  22392063.016                    22392066.461
        48.600          36.700
 125285256.291 7  97624893.83943  23840991.641                    23840995.078
        44.900          23.500
 18  3 13 12 56 30.0000000  0 17G10G11R08R09R07R15R16R17R23R24G24G01
                                G19G28G32G17G15
 118427791.445 7  92281431.27045  22536063.500                    22536069.691
        46.400          33.900
 118641821.992 7  92448197.29744  22576791.031                    22576794.820
        42.700          29.100
                  89778307.318 6  21555601.156                    21555602.516
                        40.500
                  93444309.570 6  22498865.414                    22498865.090
                        39.900
                  84387316.943 6  20268337.133                    20268338.879
                        41.300
                  89473829.611 5  21527752.938                    21527756.285
                        34.700
                  80339031.070 6  19336675.195                    19336676.797
                        39.100
                  87079429.463 6  20922267.945                    20922269.203
                        40.400
                  96295107.727 5  23144599.945                    23144604.668
                        34.400
                  85458234.682 5  20547157.039                    20547157.324
                        32.400
 110247435.271 8  85906986.44046  20979359.609                    20979364.867
        48.100          38.600
 117812934.670 7  91802310.84245  22419058.195                    22419064.105
        45.000          31.100
 121674349.562 6  94811214.93744  23153864.516                    23153867.957
        41.300          28.200
 120851755.369 7  94170245.65544  22997332.781                    22997336.109
        43.400          26.500
 124966625.810 7  97376535.08744  23780340.313                    23780345.844
        43.100          29.100
 117669517.498 8  91690544.96246  22391765.398                    22391768.590
        48.100          36.700
 125289274.808 7  97628025.15244  23841756.070                    23841759.449
        44.300          25.900
 18  3 13 12 56 31.0000000  0 17G10G11R08R09R07R15R16R17R23R24G24G01
                                G19G28G32G17G15
 118429806.629 7  92283001.55045  22536446.945                    22536452.934
        46.200          33.800
 118643285.883 7  92449337.97544  22577070.422                    22577072.957
        43.200          28.900
                  89776225.581 6  21555101.102                    21555102.934
                        40.100
                  93441335.969 6  22498150.141                    22498148.938
                        40.400
                  84388375.367 6  20268591.320                    20268593.832
                        41.300
                  89477138.308 5  21528549.219                    21528552.141
                        35.300
                  80338726.277 6  19336600.875                    19336603.355
                        38.700
                  87077586.099 6  20921824.336                    20921826.379
                        40.400
                  96298767.370 5  23145479.703                    23145483.914
                        34.300
                  85459678.336 5  20547503.586                    20547503.703
                        32.900
 110246964.757 8  85906619.80346  20979270.227                    20979275.578
        48.500          38.600
 117812417.177 7  91801907.58645  22418959.539                    22418965.672
        45.000          30.700
 121671300.600 7  94808839.14344  23153286.023                    23153287.359
        43.400          27.500
 120854952.646 7  94172737.03344  22997940.898                    22997944.328
        43.600          27.300
 124963863.918 7  97374382.94744  23779815.047                    23779820.449
        43.100          29.100
 117667952.174 8  91689325.22646  22391467.305                    22391470.410
        48.500          36.300
 125293293.594 7  97631156.67544  23842521.281                    23842524.477
        44.800          25.500
 18  3 13 12 56 32.0000000  0 17G10G11R08R09R07R15R16R17R23R24G24G01
                                G19G28G32G17G15
 118431822.365 7  92284572.25045  22536830.672                    22536836.617
        46.600          34.600
 118644750.433 7  92450479.17644  22577349.664                    22577351.699
        43.800          28.500
                  89774144.313 6  21554601.055                    21554603.266
                        40.700
                  93438362.560 6  22497433.945                    22497433.508
                        41.400
                  84389434.498 6  20268845.617                    20268848.254
                        41.600
                  89480447.280 5  21529345.617                    21529348.195
                        35.700
                  80338422.102 6  19336528.477                    19336529.848
                        38.500
                  87075743.265 6  20921382.039                    20921383.422
                        40.500
                  96302427.236 5  23146359.727                    23146363.801
                        34.600
                  85461122.676 5  20547850.008                    20547851.289
                        33.000
 110246494.861 8  85906253.64946  20979180.656                    20979185.984
        48.500          38.700
 117811900.458 7  91801504.93145  22418861.453                    22418867.719
        45.300          30.200
 121668252.052 7  94806463.66644  23152706.703                    23152707.031
        43.900          27.400
 120858150.212 7  94175228.62144  22998549.430                    22998552.836
        43.800          28.700
 124961102.354 7  97372231.06344  23779289.430                    23779294.875
        42.200          28.100
 117666387.354 8  91688105.88346  22391169.461                    22391172.914
        48.600          36.600
 125297312.576 7  97634288.34644  23843286.125                    23843289.141
        44.600          26.200
 18  3 13 12 56 33.0000000  0 17G10G11R08R09R07R15R16R17R23R24G24G01
                                G19G28G32G17G15
 118433838.739 7  92286143.44745  22537214.398                    22537220.219
        46.600          34.800
 118646215.657 7  92451620.92744  22577629.039                    22577630.074
        44.900          29.500
                  89772063.528 6  21554100.344                    21554102.500
                        40.000
                  93435389.328 6  22496717.336                    22496717.367
                        41.900
                  84390494.299 6  20269099.805                    20269102.813
                        41.400
                  89483756.553 5  21530141.414                    21530144.727
                        35.600
                  80338118.563 6  19336455.500                    19336457.141
                        38.500
                  87073900.996 6  20920939.469                    20920940.699
                        40.600
                  96306087.320 5  23147237.836                    23147243.348
                        35.000
                  85462567.642 5  20548198.406                    20548198.734
                        32.800
 110246025.644 8  85905888.01846  20979091.164                    20979096.910
        48.400          38.700
 117811384.402 7  91801102.81245  22418762.703                    22418769.813
        45.300          31.200
 121665203.866 6  94804088.42744  23152124.563                    23152127.859
        41.600          28.100
 120861348.065 7  94177720.45044  22999158.516                    22999161.387
        43.900          27.200
 124958341.108 6  97370079.43444  23778763.461                    23778769.520
        41.500          27.300
 117664823.032 8  91686886.91946  22390871.758                    22390875.145
        48.800          36.500
 125301331.779 7  97637420.19944  23844051.273                    23844054.125
        44.900          26.300
 18  3 13 12 56 34.0000000  0 17G10G11R08R09R07R15R16R17R23R24G24G01
                                G19G28G32G17G15
 118435855.796 7  92287715.19045  22537598.219                    22537604.348
        47.300          34.600
 118647681.726 7  92452763.35344  22577907.492                    22577909.422
        44.300          29.300
                  89769983.303 6  21553602.438                    21553602.828
                        39.400
                  93432416.338 6  22496001.180                    22496002.746
                        41.900
                  84391554.875 6  20269354.344                    20269357.215
                        41.300
                  89487066.195 5  21530937.250                    21530941.359
                        35.600
                  80337815.766 6  19336382.586                    19336384.004
                        38.700
                  87072059.391 6  20920496.211                    20920498.340
                        40.400
                  96309747.762 5  23148118.664                    23148122.969
                        34.800
                  85464013.382 5  20548546.750                    20548546.844
                        32.800
 110245557.163 8  85905522.96746  20979002.039                    20979007.746
        48.400          38.800
 117810869.073 7  91800701.26745  22418664.430                    22418671.238
        44.700          31.400
 121662156.070 7  94801713.52744  23151544.305                    23151547.129
        42.800          28.000
 120864546.335 7  94180212.60644  22999766.586                    22999770.254
        44.400          28.400
 124955580.309 6  97367928.15544  23778237.656                    23778244.355
        40.600          26.600
 117663259.328 8  91685668.44746  22390573.820                    22390577.895
        48.800          36.300
 125305351.328 7  97640552.31144  23844815.289                    23844819.000
        44.700          26.600
 18  3 13 12 56 35.0000000  0 17G10G11R08R09R07R15R16R17R23R24G24G01
                                G19G28G32G17G15
 118437873.424 7  92289287.37945  22537981.570                    22537988.285
        47.000          34.600
 118649148.483 7  92453906.31744  22578185.453                    22578188.574
        43.600          29.600
                  89767903.561 6  21553102.680                    21553102.816
                        39.300
                  93429443.551 7  22495285.453                    22495286.738
                        42.200
                  84392616.093 6  20269609.445                    20269611.684
                        41.800
                  89490376.153 5  21531733.195                    21531737.504
                        35.800
                  80337513.573 6  19336309.625                    19336311.121
                        39.000
                  87070218.352 6  20920054.328                    20920056.219
                        40.500
                  96313408.419 5  23148998.453                    23149002.980
                        34.300
                  85465459.764 5  20548893.711                    20548894.543
                        32.800
 110245089.316 8  85905158.40846  20978913.008                    20978918.699
        48.400          38.600
 117810354.455 7  91800300.25445  22418566.820                    22418573.023
        45.100          31.800
 121659108.749 7  94799339.01244  23150967.344                    23150967.762
        44.600          26.500
 120867744.892 7  94182704.98944  23000376.063                    23000378.730
        44.300          27.500
 124952819.770 6  97365777.10044  23777712.227                    23777718.965
        39.800          25.600
 117661696.128 8  91684450.36546  22390276.398                    22390280.223
        49.000          36.200
 125309371.063 7  97643684.56344  23845580.563                    23845583.543
        44.300          26.600
 18  3 13 12 56 36.0000000  0 17G10G11R08R09R07R15R16R17R23R24G24G01
                                G19G28G32G17G15
 118439891.728 7  92290860.08845  22538365.617                    22538372.602
        46.600          34.300
 118650615.963 7  92455049.83144  22578464.664                    22578468.184
        43.400          29.900
                  89765824.355 6  21552603.188                    21552603.785
                        38.900
                  93426470.986 7  22494570.133                    22494571.496
                        42.000
                  84393678.077 6  20269865.336                    20269867.188
                        41.300
                  89493686.408 5  21532529.680                    21532534.320
                        35.600
                  80337212.052 6  19336236.930                    19336238.414
                        38.800
                  87068377.872 6  20919612.633                    20919613.637
                        40.500
                  96317069.374 5  23149878.953                    23149882.688
                        34.100
                  85466906.898 5  20549241.688                    20549242.574
                        32.700
 110244622.125 8  85904794.35546  20978824.180                    20978830.063
        48.600          38.700
 117809840.544 7  91799899.78345  22418468.750                    22418474.727
        44.500          30.400
 121656061.806 7  94796964.76044  23150385.422                    23150387.973
        42.200          27.700
 120870943.806 7  94185197.65144  23000984.086                    23000987.602
        44.300          28.000
 124950059.663 6  97363626.39244  23777187.375                    23777193.617
        40.500          26.700
 117660133.459 8  91683232.69646  22389979.172                    22389983.047
        49.000          36.300
 125313391.097 7  97646817.05344  23846345.648                    23846348.582
        44.100          28.100
 18  3 13 12 56 37.0000000  0 17G10G11R08R09R07R15R16R17R23R24G24G01
                                G19G28G32G17G15
 118441910.675 7  92292433.29745  22538749.945                    22538756.719
        46.400          34.000
 118652084.170 7  92456193.88744  22578743.836                    22578747.461
        42.900          29.900
                  89763745.656 6  21552104.625                    21552103.613
                        39.100
                  93423498.606 7  22493853.898                    22493856.250
                        42.000
                  84394740.784 6  20270120.195                    20270122.035
                        41.300
                  89496996.990 5  21533326.883                    21533330.805
                        35.400
                  80336911.172 6  19336165.461                    19336165.684
                        38.700
                  87066538.002 6  20919170.461                    20919172.141
                        40.600
                  96320730.586 5  23150758.617                    23150763.316
                        33.500
                  85468354.807 5  20549589.242                    20549590.109
                        32.500
 110244155.634 8  85904430.85446  20978735.500                    20978741.125
        48.800          38.600
 117809327.424 7  91799499.92245  22418371.383                    22418377.762
        44.100          31.200
 121653015.200 7  94794590.78844  23149804.594                    23149808.199
        42.000          27.900
 120874143.031 7  94187690.54744  23001593.039                    23001596.418
        44.600          27.900
 124947299.910 6  97361475.95144  23776661.836                    23776668.402
        40.600          26.800
 117658571.335 8  91682015.45446  22389681.797                    22389685.512
        49.300          36.100
 125317411.372 7  97649949.73444  23847110.648                    23847113.965
        44.400          25.600
 18  3 13 12 56 38.0000000  0 17G10G11R08R09R07R15R16R17R23R24G24G01
                                G19G28G32G17G15
 118443930.274 7  92294007.01045  22539134.078                    22539140.980
        46.700          34.300
 118653553.162 7  92457338.54345  22579023.477                    22579026.555
        43.600          30.200
                  89761667.442 6  21551605.781                    21551605.086
                        39.200
                  93420526.466 7  22493138.188                    22493140.477
                        42.300
                  84395804.229 6  20270375.047                    20270378.109
                        41.400
                  89500307.880 5  21534123.813                    21534127.172
                        35.300
                  80336610.966 6  19336092.695                    19336094.328
                        38.700
                  87064698.744 6  20918728.047                    20918729.367
                        41.000
                  96324392.081 5  23151637.266                    23151643.195
                        33.200
                  85469803.416 5  20549936.797                    20549938.074
                        32.200
 110243689.829 8  85904067.89046  20978646.773                    20978652.234
        48.400          38.800
 117808814.966 7  91799100.59145  22418273.367                    22418280.359
        43.400          31.500
 121649969.107 7  94792217.23744  23149227.781                    23149227.922
        45.100          28.700
 120877342.646 7  94190183.73544  23002201.586                    23002205.074
        44.600          28.800
 124944540.556 7  97359325.82344  23776138.016                    23776143.563
        42.200          26.800
 117657009.799 8  91680798.67045  22389384.758                    22389388.199
        48.900          35.900
 125321431.897 7  97653082.60444  23847875.219                    23847879.129
        43.700          27.200
 18  3 13 12 56 39.0000000  0 17G10G11R08R09R07R15R16R17R23R24G24G01
                                G19G28G32G17G15
 118445950.486 7  92295581.20245  22539518.563                    22539525.301
        46.600          34.200
 118655022.813 7  92458483.69845  22579303.781                    22579306.535
        43.300          30.100
                  89759589.698 6  21551107.023                    21551106.148
                        39.400
                  93417554.519 7  22492423.148                    22492424.961
                        42.400
                  84396868.418 6  20270630.789                    20270633.715
                        41.200
                  89503619.080 5  21534920.477                    21534923.789
                        35.300
                  80336311.376 6  19336020.008                    19336021.504
                        38.600
                  87062859.985 6  20918286.234                    20918288.121
                        40.900
                  96328053.818 5  23152518.320                    23152522.773
                        32.300
                  85471252.748 5  20550286.875                    20550287.520
                        32.500
 110243224.657 8  85903705.42546  20978558.531                    20978563.914
        48.700          38.600
 117808303.265 7  91798701.87345  22418176.133                    22418182.848
        43.600          31.000
 121646923.353 7  94789843.91344  23148646.508                    23148648.832
        42.400          27.000
 120880542.526 7  94192677.13344  23002810.945                    23002814.207
        44.600          28.100
 124941781.533 7  97357175.93244  23775612.453                    23775618.395
        42.500          27.900
 117655448.736 8  91679582.24446  22389087.891                    22389091.516
        49.500          36.300
 125325452.690 7  97656215.68844  23848640.570                    23848644.535
        43.600          27.800
 18  3 13 12 56 40.0000000  0 17G10G11R08R09R07R15R16R17R23R24G24G01
                                G19G28G32G17G15
 118447971.315 7  92297155.88445  22539903.305                    22539910.043
        46.800          33.700
 118656493.203 7  92459629.43945  22579583.711                    22579586.496
        43.600          30.400
                  89757512.489 6  21550608.852                    21550607.824
                        39.900
                  93414582.778 7  22491707.664                    22491709.813
                        42.100
                  84397933.302 6  20270886.305                    20270889.355
                        41.400
                  89506930.602 5  21535716.047                    21535720.234
                        35.600
                  80336012.468 6  19335948.063                    19335949.941
                        38.700
                  87061021.808 6  20917844.953                    20917846.832
                        40.700
                  96331715.805 5  23153398.773                    23153402.840
                        32.800
                  85472702.817 5  20550634.414                    20550635.871
                        31.600
 110242760.141 8  85903343.45946  20978470.344                    20978475.473
        48.700          38.700
 117807792.300 7  91798303.73245  22418078.914                    22418085.520
        44.000          31.100
 121643877.957 7  94787470.88444  23148066.117                    23148068.996
        42.500          26.700
 120883742.774 7  94195170.83544  23003419.984                    23003423.082
        45.100          27.900
 124939022.924 7  97355026.36244  23775087.914                    23775093.875
        43.400          27.900
 117653888.258 8  91678366.28346  22388790.734                    22388794.461
        49.800          36.000
 125329473.707 7  97659348.94244  23849405.305                    23849409.961
        42.900          26.100
 18  3 13 12 56 41.0000000  0 17G10G11R08R09R07R15R16R17R23R24G24G01
                                G19G28G32G17G15
 118449992.793 7  92298731.07145  22540287.813                    22540294.609
        47.000          34.300
 118657964.334 7  92460775.77745  22579863.266                    22579866.504
        42.600          30.600
                  89755435.831 6  21550109.953                    21550110.137
                        40.100
                  93411611.275 7  22490991.711                    22490993.504
                        42.000
                  84398998.906 6  20271142.305                    20271144.898
                        41.400
                  89510242.479 5  21536513.484                    21536517.766
                        35.300
                  80335714.203 6  19335876.703                    19335877.836
                        38.900
                  87059184.233 6  20917403.156                    20917404.594
                        40.900
                  96335378.083 5  23154278.680                    23154283.230
                        33.300
                  85474153.558 5  20550984.625                    20550984.879
                        32.800
 110242296.311 8  85902982.02946  20978381.617                    20978387.590
        48.100          38.400
 117807282.025 7  91797906.12745  22417982.438                    22417988.363
        44.100          31.100
 121640833.079 7  94785098.26544  23147489.289                    23147489.367
        45.200          27.000
 120886943.354 7  94197664.78644  23004029.508                    23004031.992
        45.500          27.300
 124936264.661 7  97352877.05145  23774563.797                    23774568.746
        44.700          30.200
 117652328.334 8  91677150.75346  22388494.250                    22388497.184
        49.100          36.200
 125333495.007 7  97662482.42044  23850170.328                    23850175.219
        42.600          25.700
 18  3 13 12 56 42.0000000  0 17G10G11R08R09R07R15R16R17R23R24G24G01
                                G19G28G32G17G15
 118452014.842 7  92300306.69645  22540672.289                    22540679.242
        46.500          33.900
 118659436.172 7  92461922.66644  22580143.375                    22580146.578
        42.000          29.800
                  89753359.601 6  21549611.273                    21549612.215
                        40.300
                  93408639.904 7  22490276.305                    22490278.129
                        42.100
                  84400065.168 6  20271398.797                    20271400.973
                        41.400
                  89513554.590 5  21537311.617                    21537314.617
                        35.300
                  80335416.569 6  19335806.086                    19335806.074
                        38.900
                  87057347.195 6  20916961.602                    20916963.270
                        40.500
                  96339040.558 5  23155159.125                    23155163.594
                        31.800
                  85475604.969 5  20551332.430                    20551333.203
                        32.400
 110241833.068 8  85902621.06246  20978293.063                    20978298.883
        48.000          38.700
 117806772.479 7  91797509.07945  22417885.703                    22417891.871
        44.700          30.900
 121637788.524 7  94782725.87144  23146909.477                    23146910.527
        43.200          27.400
 120890144.190 7  94200158.94344  23004638.852                    23004641.457
        45.700          27.800
 124933506.723 7  97350727.98545  23774039.211                    23774043.742
        44.900          30.200
 117650768.892 8  91675935.59746  22388197.570                    22388200.770
        49.300          36.200
 125337516.471 7  97665616.02144  23850935.773                    23850940.746
        42.600          25.600
 18  3 13 12 56 43.0000000  0 17G10G11R08R09R07R15R16R17R23R24G24G01
                                G19G28G32G17G15
 118454037.519 7  92301882.80445  22541057.383                    22541063.988
        46.400          33.700
 118660908.721 6  92463070.09745  22580423.844                    22580426.828
        41.600          30.500
                  89751283.853 6  21549112.703                    21549114.090
                        40.000
                  93405668.765 6  22489561.602                    22489563.176
                        41.900
                  84401132.145 6  20271655.328                    20271657.848
                        41.400
                  89516867.065 5  21538107.539                    21538111.441
                        35.700
                  80335119.605 6  19335733.289                    19335734.551
                        38.900
                  87055510.738 6  20916520.797                    20916522.211
                        40.100
                  96342703.289 5  23156038.906                    23156043.852
                        32.800
                  85477057.064 5  20551682.102                    20551682.953
                        32.300
 110241370.519 7  85902260.63046  20978204.820                    20978211.316
        47.600          38.500
 117806263.658 7  91797112.60845  22417789.125                    22417795.094
        45.500          30.900
 121634744.290 6  94780353.72444  23146327.461                    23146330.945
        40.900          27.200
 120893345.354 7  94202653.36144  23005247.711                    23005250.152
        45.900          27.600
 124930749.146 7  97348579.19545  23773513.398                    23773518.617
        45.000          30.400
 117649209.995 8  91674720.86546  22387900.586                    22387904.465
        49.800          36.400
 125341538.248 7  97668749.86444  23851700.375                    23851705.895
        42.700          25.500
 18  3 13 12 56 44.0000000  0 17G10G11R08R09R07R15R16R17R23R24G24G01
                                G19G28G32G17G15
 118456060.834 7  92303459.40445  22541442.219                    22541448.855
        46.000          33.500
 118662381.989 7  92464218.08144  22580704.695                    22580707.016
        42.500          29.800
                  89749208.662 6  21548613.867                    21548616.359
                        40.100
                  93402697.816 6  22488847.047                    22488847.777
                        41.500
                  84402199.828 6  20271911.750                    20271913.344
                        41.300
                  89520179.838 5  21538904.734                    21538908.637
                        35.800
                  80334823.279 6  19335662.594                    19335664.043
                        38.600
                  87053674.862 6  20916079.414                    20916081.086
                        40.400
                  96346366.319 5  23156920.344                    23156923.977
                        34.500
                  85478509.868 5  20552030.414                    20552032.043
                        32.500
 110240908.596 7  85901900.69146  20978117.328                    20978123.344
        47.300          38.400
 117805755.567 7  91796716.70045  22417692.672                    22417698.316
        46.000          30.900
 121631700.479 7  94777981.94044  23145749.664                    23145751.523
        42.700          27.900
 120896546.845 7  94205148.03744  23005856.617                    23005859.438
        46.000          27.000
 124927991.907 7  97346430.67744  23772989.055                    23772994.473
        44.700          29.900
 117647651.613 8  91673506.53846  22387603.945                    22387607.660
        49.300          36.100
 125345560.256 7  97671883.89043  23852465.516                    23852471.164
        42.900          23.000
 18  3 13 12 56 45.0000000  0 17G10G11R08R09R07R15R16R17R23R24G24G01
                                G19G28G32G17G15
 118458084.773 7  92305036.49045  22541828.109                    22541834.570
        46.900          34.000
 118663855.988 7  92465366.63445  22580985.703                    22580987.469
        43.500          30.100
                  89747134.031 6  21548115.523                    21548118.168
                        40.200
                  93399727.081 6  22488131.656                    22488131.797
                        41.700
                  84403268.257 6  20272168.078                    20272170.332
                        41.300
                  89523492.978 5  21539700.602                    21539706.008
                        35.900
                  80334527.610 6  19335591.367                    19335592.469
                        38.400
                  87051839.561 6  20915638.406                    20915639.883
                        40.400
                  96350029.636 5  23157800.078                    23157804.762
                        33.900
                  85479963.388 5  20552379.336                    20552381.582
                        32.300
 110240447.372 7  85901541.30346  20978029.766                    20978035.582
        47.800          38.600
 117805248.229 7  91796321.37445  22417596.469                    22417601.523
        46.400          31.700
 121628657.109 7  94775610.49844  23145170.625                    23145173.004
        42.100          27.900
 120899748.695 7  94207642.99444  23006465.398                    23006468.684
        45.100          28.700
 124925235.057 7  97344282.46544  23772464.398                    23772469.719
        43.600          29.400
 117646093.782 8  91672292.64646  22387307.805                    22387311.289
        48.400          36.600
 125349582.506 7  97675018.08244  23853231.398                    23853236.379
        42.600          24.200
 18  3 13 12 56 46.0000000  0 17G10G11R08R09R07R15R16R17R23R24G24G01
                                G19G28G32G17G15
 118460109.313 7  92306614.04845  22542213.563                    22542219.719
        47.200          34.200
 118665330.688 7  92466515.75044  22581265.984                    22581268.273
        43.300          29.700
                  89745059.892 6  21547617.031                    21547620.152
                        40.000
                  93396756.512 6  22487416.766                    22487416.313
                        41.500
                  84404337.372 6  20272425.117                    20272427.816
                        41.000
                  89526806.368 5  21540498.609                    21540502.672
                        35.100
                  80334232.550 6  19335519.727                    19335521.336
                        38.500
                  87050004.848 6  20915198.406                    20915198.840
                        40.200
                  96353693.173 5  23158680.219                    23158685.168
                        33.300
                  85481417.570 5  20552729.984                    20552731.070
                        32.500
 110239986.790 8  85901182.40646  20977942.516                    20977947.668
        48.300          38.500
 117804741.589 7  91795926.59245  22417499.984                    22417505.539
        46.600          31.300
 121625614.060 7  94773239.29744  23144591.523                    23144593.152
        42.400          28.800
 120902950.844 7  94210138.18544  23007074.656                    23007077.977
        44.300          26.800
 124922478.508 7  97342134.49444  23771939.258                    23771945.320
        43.200          28.800
 117644536.453 8  91671079.14346  22387011.398                    22387014.449
        48.800          37.100
 125353604.982 7  97678152.47344  23853996.922                    23854002.020
        42.200          24.500
 18  3 13 12 56 47.0000000  0 17G10G11R08R09R07R15R16R17R23R24G24G01
                                G19G28G32G17G15
 118462134.516 7  92308192.13445  22542598.641                    22542605.043
        47.300          34.700
 118666806.127 7  92467665.45044  22581546.289                    22581549.074
        42.800          29.800
                  89742986.239 6  21547119.344                    21547121.688
                        39.600
                  93393786.159 6  22486701.102                    22486701.414
                        41.200
                  84405407.193 6  20272682.297                    20272684.012
                        41.200
                  89530120.081 5  21541297.625                    21541300.352
                        35.300
                  80333938.170 6  19335449.383                    19335451.148
                        38.500
                  87048170.723 6  20914757.156                    20914758.816
                        40.000
                  96357356.996 5  23159559.984                    23159566.164
                        34.000
                  85482872.489 5  20553079.461                    20553081.121
                        32.900
 110239526.849 8  85900824.01046  20977855.125                    20977860.246
        48.500          38.900
 117804235.623 7  91795532.34145  22417403.203                    22417409.176
        46.400          32.000
 121622571.438 7  94770868.44744  23144013.781                    23144014.258
        44.500          28.300
 120906153.319 7  94212633.61044  23007683.445                    23007687.316
        43.400          28.200
 124919722.323 6  97339986.82944  23771414.344                    23771420.141
        41.800          27.200
 117642979.673 8  91669866.06746  22386714.945                    22386718.285
        48.400          36.300
 125357627.702 6  97681287.04344  23854762.219                    23854767.531
        41.800          24.700
 18  3 13 12 56 48.0000000  0 17G10G11R08R09R07R15R16R17R23R24G24G01
                                G19G28G32G17G15
 118464160.342 7  92309770.70445  22542984.359                    22542990.219
        47.800          34.600
 118668282.304 7  92468815.74244  22581827.375                    22581829.867
        42.400          29.600
                  89740913.076 6  21546622.133                    21546623.492
                        39.300
                  93390816.043 6  22485985.914                    22485985.609
                        41.000
                  84406477.769 6  20272939.141                    20272941.246
                        41.000
                  89533434.121 5  21542094.195                    21542097.727
                        35.200
                  80333644.451 6  19335378.797                    19335380.387
                        38.600
                  87046337.180 6  20914316.641                    20914317.910
                        40.200
                  96361021.076 5  23160441.125                    23160446.430
                        34.000
                  85484328.125 5  20553430.148                    20553431.148
                        32.000
 110239067.651 8  85900466.19346  20977767.516                    20977773.082
        48.600          38.600
 117803730.390 7  91795138.65845  22417306.852                    22417313.086
        46.000          31.600
 121619529.305 7  94768497.95044  23143435.125                    23143435.816
        44.900          28.300
 120909356.144 7  94215129.30844  23008292.844                    23008296.848
        42.700          28.000
 124916966.467 6  97337839.42544  23770888.984                    23770896.117
        40.300          26.400
 117641423.422 8  91668653.39746  22386419.016                    22386422.297
        48.400          36.700
 125361650.679 7  97684421.81644  23855528.531                    23855533.129
        42.600          24.100
 18  3 13 12 56 49.0000000  0 17G10G11R08R09R07R15R16R17R23R24G24G01
                                G19G28G32G17G15
 118466186.819 7  92311349.78945  22543369.648                    22543376.336
        47.700          34.700
 118669759.236 7  92469966.60644  22582108.492                    22582111.039
        42.600          28.700
                  89738840.390 6  21546124.688                    21546125.863
                        39.300
                  93387846.093 6  22485271.148                    22485270.504
                        41.200
                  84407549.059 6  20273196.344                    20273198.855
                        41.300
                  89536748.502 5  21542891.648                    21542895.059
                        35.600
                  80333351.414 6  19335308.102                    19335309.332
                        38.600
                  87044504.231 6  20913876.063                    20913877.137
                        40.200
                  96364685.426 5  23161323.430                    23161326.910
                        34.800
                  85485784.482 5  20553780.695                    20553781.422
                        32.300
 110238609.050 8  85900108.83146  20977680.188                    20977685.859
        48.500          39.200
 117803225.921 7  91794745.55845  22417210.711                    22417217.316
        45.800          30.600
 121616487.493 7  94766127.68544  23142854.688                    23142856.793
        43.800          28.300
 120912559.309 7  94217625.26844  23008902.805                    23008906.379
        42.000          26.800
 124914211.017 6  97335692.34144  23770364.922                    23770371.859
        39.600          26.700
 117639867.744 8  91667441.17246  22386122.836                    22386126.367
        48.300          36.300
 125365673.904 7  97687556.79344  23856293.695                    23856298.738
        42.500          24.400
 18  3 13 12 56 50.0000000  0 17G10G11R08R09R07R15R16R17R23R24G24G01
                                G19G28G32G17G15
 118468213.862 7  92312929.31645  22543755.086                    22543761.910
        47.800          34.600
 118671236.836 7  92471117.97944  22582390.602                    22582391.938
        43.400          29.800
                  89736768.165 6  21545627.617                    21545627.523
                        39.200
                  93384876.361 6  22484556.547                    22484555.461
                        41.000
                  84408621.042 6  20273453.242                    20273456.211
                        41.300
                  89540063.183 5  21543688.234                    21543692.379
                        35.300
                  80333059.021 6  19335237.859                    19335239.695
                        38.900
                  87042671.872 6  20913436.211                    20913437.328
                        40.400
                  96368349.990 5  23162203.875                    23162208.313
                        35.200
                  85487241.526 5  20554131.141                    20554131.086
                        33.100
 110238151.090 8  85899751.96846  20977592.383                    20977598.695
        48.000          38.700
 117802722.124 7  91794352.98345  22417114.430                    22417121.590
        45.200          31.200
 121613446.050 7  94763757.72244  23142276.484                    23142278.117
        44.300          28.600
 120915762.799 7  94220121.46744  23009513.422                    23009515.805
        43.000          27.800
 124911455.876 6  97333545.49644  23769840.969                    23769847.301
        40.700          26.900
 117638312.568 8  91666229.34446  22385827.117                    22385830.402
        48.500          36.200
 125369697.380 7  97690691.96943  23857059.461                    23857064.457
        42.900          23.800
 18  3 13 12 56 51.0000000  0 17G10G11R08R09R07R15R16R17R23R24G24G01
                                G19G28G32G17G15
 118470241.594 7  92314509.37945  22544141.172                    22544147.816
        47.700          34.500
 118672715.171 7  92472269.91944  22582671.531                    22582673.508
        44.400          29.800
                  89734696.473 6  21545130.008                    21545129.836
                        39.100
                  93381906.850 6  22483841.594                    22483840.277
                        40.400
                  84409693.740 6  20273711.492                    20273713.164
                        41.300
                  89543378.221 5  21544486.313                    21544489.844
                        35.300
                  80332767.287 6  19335167.672                    19335168.824
                        38.700
                  87040840.132 6  20912994.945                    20912996.988
                        39.900
                  96372014.808 5  23163083.844                    23163088.688
                        34.900
                  85488699.307 5  20554481.758                    20554482.578
                        32.900
 110237693.816 7  85899395.65746  20977505.125                    20977511.586
        47.800          38.900
 117802219.040 7  91793960.97345  22417018.469                    22417025.219
        44.400          30.900
 121610405.075 7  94761388.12744  23141697.633                    23141699.047
        44.100          27.500
 120918966.607 7  94222617.92644  23010122.969                    23010125.309
        43.500          28.100
 124908701.138 6  97331398.95244  23769317.297                    23769323.258
        41.800          27.300
 117636757.956 8  91665017.95646  22385531.047                    22385534.723
        48.700          36.300
 125373721.086 7  97693827.31343  23857825.820                    23857829.688
        43.400          23.200
 18  3 13 12 56 52.0000000  0 17G10G11R08R09R07R15R16R17R23R24G24G01
                                G19G28G32G17G15
 118472269.908 7  92316089.89545  22544527.180                    22544533.664
        47.800          35.000
 118674194.249 7  92473422.45545  22582953.156                    22582955.113
        45.100          30.000
                  89732625.312 6  21544633.086                    21544632.477
                        39.000
                  93378937.523 6  22483125.875                    22483124.914
                        40.400
                  84410767.109 6  20273969.797                    20273971.695
                        41.100
                  89546693.512 5  21545284.766                    21545288.129
                        35.400
                  80332476.174 6  19335097.555                    19335098.730
                        38.700
                  87039008.957 6  20912555.625                    20912557.051
                        40.000
                  96375679.891 5  23163966.047                    23163970.645
                        35.000
                  85490157.796 5  20554831.656                    20554832.895
                        32.900
 110237237.146 7  85899039.81546  20977418.328                    20977424.773
        47.000          38.500
 117801716.688 7  91793569.53345  22416922.352                    22416930.352
        43.800          31.200
 121607364.437 7  94759018.78944  23141118.031                    23141120.723
        42.300          27.400
 120922170.729 7  94225114.62844  23010733.219                    23010735.156
        43.600          28.200
 124905946.734 7  97329252.68144  23768794.203                    23768799.145
        42.900          28.500
 117635203.851 8  91663806.96746  22385234.984                    22385238.770
        48.800          36.500
 125377745.050 7  97696962.86943  23858591.172                    23858595.777
        43.600          21.800
 18  3 13 12 56 53.0000000  0 17G10G11R08R09R07R15R16R17R23R24G24G01
                                G19G28G32G17G15
 118474298.868 7  92317670.91145  22544913.250                    22544919.879
        47.300          35.000
 118675674.024 7  92474575.54345  22583234.516                    22583236.699
        45.400          30.400
                  89730554.683 6  21544135.531                    21544135.242
                        39.000
                  93375968.405 6  22482410.375                    22482410.191
                        40.100
                  84411841.216 6  20274227.648                    20274229.414
                        41.200
                  89550009.168 5  21546081.578                    21546085.512
                        35.100
                  80332185.717 6  19335027.906                    19335028.680
                        38.700
                  87037178.335 6  20912115.914                    20912117.617
                        40.600
                  96379345.219 5  23164846.148                    23164850.613
                        34.900
                  85491616.978 5  20555182.141                    20555183.477
                        33.300
 110236781.130 7  85898684.48846  20977331.828                    20977337.848
        46.900          38.600
 117801215.034 7  91793178.64045  22416826.813                    22416834.727
        43.000          30.000
 121604324.207 7  94756649.79044  23140539.680                    23140542.508
        42.100          28.000
 120925375.188 7  94227611.59744  23011342.719                    23011344.969
        43.500          27.000
 124903192.722 7  97327106.70745  23768270.070                    23768274.949
        44.300          30.700
 117633650.324 8  91662596.43046  22384939.711                    22384943.227
        48.900          36.600
 125381769.244 7  97700098.59843  23859357.445                    23859361.727
        43.300          23.400
 18  3 13 12 56 54.0000000  0 17G10G11R08R09R07R15R16R17R23R24G24G01
                                G19G28G32G17G15
 118476328.445 7  92319252.40345  22545299.242                    22545306.426
        47.100          34.700
 118677154.523 7  92475729.18345  22583515.094                    22583518.469
        44.300          30.800
                  89728484.522 6  21543638.234                    21543638.156
                        39.400
                  93372999.490 6  22481694.945                    22481695.277
                        40.600
                  84412916.067 6  20274486.063                    20274487.605
                        41.000
                  89553325.131 5  21546879.141                    21546883.719
                        35.600
                  80331895.900 6  19334957.844                    19334958.816
                        38.600
                  87035348.300 6  20911676.547                    20911678.078
                        40.700
                  96383010.816 5  23165727.688                    23165731.609
                        35.000
                  85493076.889 5  20555534.188                    20555535.133
                        32.800
 110236325.793 7  85898329.68946  20977245.125                    20977251.188
        47.000          38.500
 117800714.028 7  91792788.25345  22416731.867                    22416739.309
        42.900          30.700
 121601284.396 7  94754281.12344  23139961.516                    23139963.715
        42.900          27.600
 120928579.951 7  94230108.80144  23011952.148                    23011955.098
        43.900          28.000
 124900439.090 7  97324961.00945  23767746.094                    23767751.406
        44.000          31.100
 117632097.292 8  91661386.27346  22384644.391                    22384647.824
        48.700          36.200
 125385793.695 7  97703234.53443  23860122.750                    23860127.535
        44.300          23.900
 18  3 13 12 56 55.0000000  0 17G10G11R08R09R07R15R16R17R23R24G24G01
                                G19G28G32G17G15
 118478358.612 7  92320834.34445  22545685.547                    22545692.340
        46.800          34.600
 118678635.732 7  92476883.37845  22583797.289                    22583800.492
        44.300          30.800
                  89726414.855 6  21543141.109                    21543141.793
                        40.200
                  93370030.744 6  22480981.148                    22480980.895
                        40.400
                  84413991.635 6  20274743.578                    20274746.109
                        41.200
                  89556641.399 6  21547675.742                    21547680.922
                        36.100
                  80331606.724 6  19334887.828                    19334889.555
                        38.900
                  87033518.824 6  20911236.320                    20911237.965
                        40.600
                  96386676.678 5  23166608.250                    23166613.313
                        35.300
                  85494537.479 5  20555885.078                    20555885.656
                        33.000
 110235871.082 7  85897975.37646  20977158.891                    20977164.418
        47.200          38.400
 117800213.801 7  91792398.46845  22416636.328                    22416644.387
        42.700          30.800
 121598244.919 7  94751912.71744  23139383.648                    23139385.074
        43.900          27.200
 120931784.998 7  94232606.23644  23012562.688                    23012565.316
        44.600          28.900
 124897685.774 7  97322815.56145  23767222.383                    23767227.672
        44.600          30.000
 117630544.795 8  91660176.53445  22384348.680                    22384352.145
        49.000          35.500
 125389818.363 7  97706370.64943  23860889.148                    23860893.043
        44.800          23.200
 18  3 13 12 56 56.0000000  0 17G10G11R08R09R07R15R16R17R23R24G24G01
                                G19G28G32G17G15
 118480389.431 7  92322416.78945  22546071.945                    22546079.145
        46.000          33.600
 118680117.693 7  92478038.15445  22584079.328                    22584082.316
        45.000          30.100
                  89724345.690 6  21542644.789                    21542645.520
                        40.400
                  93367062.217 6  22480265.711                    22480266.027
                        40.400
                  84415067.938 6  20275002.008                    20275004.332
                        41.000
                  89559957.987 6  21548473.953                    21548478.836
                        36.000
                  80331318.225 6  19334818.758                    19334820.309
                        39.100
                  87031689.968 6  20910796.984                    20910797.629
                        40.500
                  96390342.793 5  23167488.656                    23167493.918
                        35.300
                  85495998.784 5  20556236.422                    20556237.422
                        32.800
 110235417.086 7  85897621.62046  20977072.836                    20977078.055
        47.600          38.600
 117799714.300 7  91792009.25045  22416541.484                    22416549.012
        42.500          30.400
 121595205.919 7  94749544.68044  23138806.375                    23138807.094
        44.400          28.200
 120934990.399 7  94235103.96244  23013172.594                    23013175.195
        44.700          28.600
 124894932.847 7  97320670.40645  23766697.969                    23766703.734
        44.900          30.400
 117628992.818 8  91658967.20245  22384053.422                    22384056.590
        48.800          35.500
 125393843.280 7  97709506.96644  23861655.164                    23861659.035
        44.900          25.600
 18  3 13 12 56 57.0000000  0 17G10G11R08R09R07R15R16R17R23R24G24G01
                                G19G28G32G17G15
 118482420.820 7  92323999.69045  22546458.391                    22546465.191
        45.500          34.100
 118681600.295 7  92479193.43345  22584361.945                    22584364.738
        45.200          30.100
                  89722277.001 6  21542147.430                    21542149.203
                        40.400
                  93364093.876 6  22479550.227                    22479551.539
                        40.400
                  84416144.898 6  20275260.766                    20275263.121
                        41.200
                  89563274.857 6  21549272.984                    21549277.262
                        36.400
                  80331030.367 6  19334749.313                    19334750.699
                        39.200
                  87029861.602 6  20910357.469                    20910358.715
                        40.400
                  96394009.148 5  23168370.172                    23168374.938
                        35.800
                  85497460.745 5  20556588.789                    20556588.258
                        32.900
 110234963.671 8  85897268.31246  20976986.617                    20976991.813
        48.400          38.700
 117799215.456 7  91791620.54345  22416446.758                    22416454.582
        42.300          31.000
 121592167.252 7  94747176.87644  23138227.594                    23138228.625
        43.700          28.200
 120938196.092 7  94237601.89544  23013782.500                    23013785.352
        45.100          29.800
 124892180.216 7  97318525.49045  23766174.164                    23766179.785
        45.200          30.400
 117627441.378 8  91657758.29746  22383758.109                    22383761.477
        49.100          36.100
 125397868.406 7  97712643.43244  23862421.484                    23862424.914
        44.600          25.600
 18  3 13 12 56 58.0000000  0 17G10G11R08R09R07R15R16R17R23R24G24G01
                                G19G28G32G17G15
 118484452.900 7  92325583.12645  22546845.117                    22546851.949
        45.900          33.900
 118683083.659 7  92480349.30045  22584643.852                    22584646.699
        45.800          30.400
                  89720208.859 6  21541651.578                    21541652.883
                        40.000
                  93361125.764 6  22478835.344                    22478837.172
                        40.600
                  84417222.589 6  20275520.266                    20275521.660
                        41.100
                  89566592.063 5  21550072.273                    21550075.566
                        35.600
                  80330743.181 6  19334680.141                    19334681.676
                        39.200
                  87028033.840 6  20909918.445                    20909919.891
                        40.200
                  96397675.780 5  23169251.805                    23169256.426
                        35.600
                  85498923.465 5  20556939.352                    20556940.633
                        32.500
 110234511.001 8  85896915.57646  20976900.719                    20976905.805
        49.100          39.100
 117798717.358 7  91791232.41745  22416352.266                    22416359.715
        42.200          30.000
 121589129.026 7  94744809.41244  23137648.883                    23137650.910
        43.000          28.600
 120941402.142 7  94240100.10344  23014392.492                    23014395.973
        45.000          27.900
 124889428.007 7  97316380.88445  23765650.906                    23765655.980
        44.500          30.000
 117625890.493 8  91656549.81946  22383463.070                    22383466.535
        49.000          36.200
 125401893.823 7  97715780.12144  23863186.984                    23863190.680
        44.700          24.700
 18  3 13 12 56 59.0000000  0 17G10G11R08R09R07R15R16R17R23R24G24G01
                                G19G28G32G17G15
 118486485.636 7  92327167.08445  22547231.844                    22547238.852
        45.900          34.400
 118684567.736 7  92481505.72645  22584926.398                    22584929.094
        45.700          30.800
                  89718141.270 6  21541154.813                    21541156.492
                        40.200
                  93358157.892 6  22478121.641                    22478123.063
                        41.200
                  84418301.047 6  20275778.836                    20275781.145
                        41.000
                  89569909.582 5  21550870.641                    21550873.949
                        35.600
                  80330456.640 6  19334611.625                    19334612.813
                        38.900
                  87026206.645 6  20909479.039                    20909480.855
                        40.300
                  96401342.687 6  23170133.656                    23170138.129
                        36.200
                  85500386.931 5  20557290.773                    20557292.324
                        33.100
 110234058.994 8  85896563.35546  20976814.547                    20976819.754
        48.700          38.700
 117798220.017 7  91790844.89145  22416258.070                    22416265.305
        42.500          31.400
 121586091.227 7  94742442.27344  23137070.570                    23137073.016
        42.200          28.500
 120944608.541 7  94242598.58544  23015002.375                    23015005.391
        44.500          28.600
 124886676.175 7  97314236.60244  23765126.375                    23765132.543
        43.800          29.800
 117624340.161 8  91655341.76745  22383168.117                    22383171.359
        48.500          35.700
 125405919.481 7  97718917.00444  23863953.461                    23863957.008
        44.700          26.200
 18  3 13 12 57  0.0000000  0 17G10G11R08R09R07R15R16R17R23R24G24G01
                                G19G28G32G17G15
 118488518.972 7  92328751.51145  22547618.867                    22547626.016
        46.300          34.500
 118686052.526 7  92482662.70545  22585208.070                    22585211.434
        44.900          30.500
                  89716074.170 6  21540658.109                    21540660.203
                        40.200
                  93355190.189 6  22477407.086                    22477408.445
                        41.400
                  84419380.196 6  20276038.273                    20276040.141
                        40.800
                  89573227.422 5  21551668.742                    21551672.492
                        35.000
                  80330170.728 6  19334542.688                    19334544.668
                        39.200
                  87024380.000 6  20909040.742                    20909041.535
                        40.500
                  96405009.801 5  23171014.547                    23171019.527
                        35.500
                  85501851.037 5  20557643.227                    20557644.309
                        33.000
 110233607.613 8  85896211.62746  20976728.578                    20976733.586
        49.000          38.800
 117797723.401 7  91790457.92745  22416163.656                    22416170.848
        42.300          30.900
 121583053.694 6  94740075.37144  23136491.828                    23136494.617
        41.900          28.000
 120947815.217 7  94245097.28444  23015612.648                    23015615.684
        44.700          27.400
 124883924.646 7  97312092.54344  23764602.586                    23764609.352
        42.800          28.500
 117622790.319 8  91654134.10145  22382873.125                    22382876.410
        48.400          35.900
 125409945.359 7  97722054.06544  23864719.320                    23864723.008
        44.800          24.100
 18  3 13 12 57  1.0000000  0 17G10G11R08R09R07R15R16R17R23R24G24G01
                                G19G28G32G17G15
 118490552.927 7  92330336.42945  22548006.555                    22548013.230
        46.200          34.400
 118687538.059 7  92483820.25845  22585490.219                    22585494.441
        43.400          30.500
                  89714007.559 6  21540162.500                    21540163.992
                        40.000
                  93352222.697 6  22476693.258                    22476694.297
                        41.400
                  84420460.063 6  20276297.281                    20276299.738
                        41.000
                  89576545.575 5  21552466.141                    21552470.551
                        35.200
                  80329885.438 6  19334473.602                    19334475.645
                        39.100
                  87022553.907 6  20908602.031                    20908602.664
                        40.300
                  96408677.209 5  23171894.898                    23171900.902
                        35.700
                  85503315.852 5  20557995.695                    20557996.906
                        33.100
 110233156.902 8  85895860.41946  20976642.625                    20976648.277
        48.700          38.400
 117797227.422 7  91790071.44145  22416069.258                    22416076.785
        42.600          31.500
 121580016.635 7  94737708.86144  23135914.906                    23135916.410
        43.600          28.100
 120951022.213 7  94247596.22644  23016222.813                    23016226.129
        44.700          28.200
 124881173.437 6  97309948.74544  23764078.516                    23764085.238
        40.400          26.600
 117621241.032 8  91652926.86445  22382578.320                    22382581.457
        48.900          35.600
 125413971.484 7  97725191.31344  23865485.563                    23865489.074
        43.400          24.500
 18  3 13 12 57  2.0000000  0 17G10G11R08R09R07R15R16R17R23R24G24G01
                                G19G28G32G17G15
 118492587.458 7  92331921.79545  22548393.641                    22548400.199
        46.400          33.800
 118689024.294 7  92484978.36245  22585773.016                    22585777.055
        43.200          30.200
                  89711941.422 6  21539666.758                    21539667.777
                        40.200
                  93349255.383 6  22475979.172                    22475980.414
                        41.300
                  84421540.629 6  20276556.031                    20276558.711
                        41.100
                  89579863.994 5  21553265.641                    21553269.074
                        35.300
                  80329600.810 6  19334405.492                    19334406.844
                        39.300
                  87020728.365 6  20908162.836                    20908164.125
                        40.600
                  96412344.847 5  23172777.031                    23172782.605
                        35.600
                  85504781.374 5  20558347.734                    20558348.938
                        32.600
 110232706.826 8  85895509.70346  20976556.836                    20976562.527
        48.900          38.500
 117796732.205 6  91789685.57045  22415974.586                    22415982.422
        41.600          30.200
 121576979.990 7  94735342.66144  23135337.633                    23135338.867
        43.500          28.400
 120954229.514 7  94250095.41644  23016833.023                    23016836.340
        45.300          27.500
 124878422.609 6  97307805.25244  23763554.391                    23763561.883
        39.800          26.700
 117619692.244 8  91651720.02145  22382283.633                    22382286.867
        48.700          35.500
 125417997.823 7  97728328.73644  23866251.375                    23866254.992
        43.800          25.600
 18  3 13 12 57  3.0000000  0 17G10G11R08R09R07R15R16R17R23R24G24G01
                                G19G28G32G17G15
 118494622.619 7  92333507.63545  22548780.227                    22548787.516
        47.000          34.500
 118690511.279 7  92486137.04144  22586055.586                    22586059.980
        42.900          29.800
                  89709875.776 6  21539171.023                    21539171.539
                        39.600
                  93346288.313 6  22475265.000                    22475266.094
                        41.500
                  84422621.902 6  20276815.391                    20276819.293
                        41.100
                  89583182.735 5  21554063.023                    21554066.938
                        35.300
                  80329316.854 6  19334336.477                    19334338.914
                        39.200
                  87018903.420 6  20907724.445                    20907725.777
                        40.600
                  96416012.723 6  23173658.750                    23173663.848
                        36.400
                  85506247.604 5  20558699.656                    20558701.527
                        32.800
 110232257.456 8  85895159.53946  20976470.797                    20976476.953
        48.800          38.400
 117796237.701 7  91789300.24145  22415880.664                    22415888.203
        42.000          31.600
 121573943.691 7  94732976.70944  23134758.375                    23134760.988
        42.500          28.400
 120957437.146 7  94252594.87144  23017443.117                    23017446.988
        44.700          27.400
 124875672.103 6  97305662.02144  23763030.859                    23763038.297
        39.800          26.700
 117618144.004 7  91650513.60245  22381988.805                    22381992.332
        47.900          35.900
 125422024.429 7  97731466.35644  23867017.297                    23867021.355
        43.300          25.800
 18  3 13 12 57  4.0000000  0 17G10G11R08R09R07R15R16R17R23R24G24G01
                                G19G28G32G17G15
 118496658.325 7  92335093.89545  22549167.781                    22549174.352
        46.300          33.800
 118691998.942 7  92487296.25345  22586339.484                    22586342.668
        43.000          30.000
                  89707810.584 6  21538675.328                    21538674.773
                        39.400
                  93343321.410 6  22474551.078                    22474551.641
                        41.800
                  84423703.833 6  20277076.313                    20277078.824
                        41.200
                  89586501.782 5  21554860.844                    21554865.625
                        35.300
                  80329033.513 6  19334269.055                    19334270.793
                        39.100
                  87017079.040 6  20907286.320                    20907286.891
                        40.600
                  96419680.876 6  23174541.039                    23174545.273
                        36.400
                  85507714.475 5  20559053.117                    20559054.391
                        32.700
 110231808.683 8  85894809.84446  20976384.945                    20976391.512
        48.900          38.300
 117795743.898 7  91788915.46345  22415786.695                    22415794.051
        42.200          30.500
 121570907.761 7  94730611.04844  23134181.047                    23134182.766
        43.900          28.300
 120960645.099 7  94255094.56444  23018053.523                    23018057.051
        44.600          27.300
 124872921.912 6  97303519.04244  23762508.125                    23762515.016
        40.400          26.000
 117616596.294 8  91649307.60546  22381694.344                    22381697.426
        48.800          36.100
 125426051.278 7  97734604.17143  23867784.297                    23867787.516
        43.400          23.500
 18  3 13 12 57  5.0000000  0 17G10G11R08R09R07R15R16R17R23R24G24G01
                                G19G28G32G17G15
 118498694.682 7  92336680.63845  22549555.297                    22549561.914
        46.100          33.700
 118693487.334 7  92488456.03145  22586622.492                    22586626.020
        43.200          30.400
                  89705745.922 6  21538179.055                    21538179.172
                        39.300
                  93340354.691 6  22473836.719                    22473836.984
                        41.600
                  84424786.515 6  20277335.977                    20277338.809
                        41.100
                  89589821.133 5  21555660.203                    21555665.180
                        35.700
                  80328750.825 6  19334200.086                    19334202.102
                        39.000
                  87015255.212 6  20906848.008                    20906848.953
                        40.500
                  96423349.282 6  23175422.570                    23175428.016
                        36.400
                  85509182.053 5  20559406.375                    20559407.398
                        33.100
 110231360.573 8  85894460.67046  20976299.969                    20976306.477
        48.300          38.900
 117795250.825 6  91788531.25345  22415693.289                    22415700.438
        41.800          31.000
 121567872.308 7  94728245.76844  23133606.063                    23133605.078
        45.500          29.200
 120963853.380 7  94257594.51544  23018664.117                    23018667.520
        43.900          27.300
 124870172.132 6  97301376.38044  23761985.570                    23761991.441
        41.000          27.900
 117615049.104 8  91648102.01145  22381400.063                    22381402.984
        48.800          35.700
 125430078.339 7  97737742.13843  23868549.883                    23868553.469
        43.500          23.600
 18  3 13 12 57  6.0000000  0 17G10G11R08R09R07R15R16R17R23R24G24G01
                                G19G28G32G17G15
 118500731.738 7  92338267.93445  22549942.781                    22549949.254
        45.800          34.300
 118694976.487 7  92489616.41344  22586906.508                    22586909.867
        42.900          29.600
                  89703681.837 6  21537683.969                    21537682.809
                        39.000
                  93337388.220 6  22473122.578                    22473122.863
                        41.500
                  84425869.972 6  20277597.375                    20277599.363
                        41.000
                  89593140.866 5  21556459.352                    21556462.938
                        35.600
                  80328468.875 6  19334133.422                    19334134.566
                        38.600
                  87013431.973 6  20906410.188                    20906411.238
                        40.600
                  96427017.967 6  23176303.883                    23176309.355
                        36.300
                  85510650.368 5  20559758.844                    20559759.949
                        33.300
 110230913.186 7  85894112.05646  20976215.352                    20976221.375
        47.900          38.200
 117794758.555 7  91788147.67945  22415599.438                    22415606.672
        42.100          31.200
 121564837.271 7  94725880.78444  23133025.656                    23133027.895
        43.400          29.100
 120967062.021 7  94260094.73744  23019274.719                    23019278.234
        44.100          27.700
 124867422.770 7  97299234.02344  23761462.703                    23761468.363
        43.000          28.500
 117613502.535 8  91646896.90146  22381105.297                    22381108.438
        49.000          36.100
 125434105.751 7  97740880.37644  23869316.172                    23869320.344
        43.200          24.900
 18  3 13 12 57  7.0000000  0 17G10G11R08R09R07R15R16R17R23R24G24G01
                                G19G28G32G17G15
 118502769.379 7  92339855.68845  22550330.906                    22550337.387
        46.000          34.200
 118696466.355 7  92490777.34745  22587189.656                    22587192.793
        42.500          30.200
                  89701618.226 6  21537187.086                    21537187.383
                        39.100
                  93334421.963 6  22472408.031                    22472409.344
                        41.800
                  84426954.106 6  20277856.859                    20277859.531
                        41.000
                  89596460.821 5  21557258.320                    21557261.965
                        35.300
                  80328187.506 6  19334065.672                    19334067.109
                        38.900
                  87011609.284 6  20905972.266                    20905972.613
                        40.700
                  96430686.912 6  23177185.891                    23177191.234
                        36.100
                  85512119.385 5  20560112.461                    20560113.059
                        33.300
 110230466.395 8  85893763.91846  20976130.469                    20976136.055
        48.200          38.300
 117794266.902 7  91787764.60045  22415505.984                    22415513.223
        42.100          30.400
 121561802.561 7  94723516.07044  23132448.820                    23132450.234
        43.200          28.600
 120970270.946 7  94262595.18244  23019885.273                    23019888.680
        43.600          26.300
 124864673.745 7  97297091.90944  23760940.234                    23760944.871
        43.800          29.100
 117611956.426 8  91645692.14346  22380811.477                    22380814.504
        49.300          36.500
 125438133.307 7  97744018.72044  23870082.641                    23870086.379
        42.900          24.900
 18  3 13 12 57  8.0000000  0 17G10G11R08R09R07R15R16R17R23R24G24G01
                                G19G28G32G17G15
 118504807.652 7  92341443.94745  22550718.555                    22550725.199
        46.500          34.300
 118697956.957 7  92491938.84944  22587473.563                    22587476.824
        42.100          29.400
                  89699555.121 6  21536690.938                    21536691.781
                        39.100
                  93331455.895 6  22471693.648                    22471694.777
                        41.600
                  84428038.993 6  20278117.383                    20278119.023
                        41.200
                  89599781.120 5  21558057.891                    21558060.742
                        35.600
                  80327906.788 6  19333997.516                    19333999.164
                        38.800
                  87009787.244 6  20905534.109                    20905535.383
                        40.400
                  96434356.077 6  23178068.234                    23178073.172
                        36.500
                  85513589.109 5  20560465.945                    20560466.598
                        32.000
 110230020.303 8  85893416.31746  20976045.555                    20976051.230
        48.900          38.700
 117793775.997 7  91787382.07745  22415412.750                    22415419.566
        42.100          30.600
 121558768.332 7  94721151.74344  23131872.836                    23131872.738
        44.900          27.800
 120973480.192 7  94265095.87144  23020496.406                    23020499.496
        43.700          25.500
 124861925.057 7  97294950.05644  23760416.875                    23760422.031
        43.900          29.700
 117610410.887 8  91644487.82545  22380517.617                    22380520.707
        49.700          35.900
 125442161.182 7  97747157.31643  23870849.180                    23870853.211
        42.400          23.400
 18  3 13 12 57  9.0000000  0 17G10G11R08R09R07R15R16R17R23R24G24G01
                                G19G28G32G17G15
 118506846.560 7  92343032.69945  22551106.391                    22551113.281
        46.400          34.200
 118699448.289 6  92493100.91944  22587757.766                    22587760.641
        41.700          29.200
                  89697492.575 6  21536196.648                    21536196.445
                        38.700
                  93328490.041 6  22470980.203                    22470980.152
                        41.900
                  84429124.537 6  20278378.594                    20278380.141
                        41.000
                  89603101.745 5  21558856.891                    21558859.586
                        35.400
                  80327626.754 6  19333930.820                    19333931.465
                        38.500
                  87007965.786 6  20905096.750                    20905097.156
                        40.500
                  96438025.525 6  23178950.391                    23178955.262
                        36.600
                  85515059.557 5  20560819.742                    20560820.895
                        32.200
 110229574.883 8  85893069.23746  20975960.922                    20975966.203
        48.900          38.500
 117793285.865 6  91787000.16045  22415319.070                    22415326.719
        41.100          30.200
 121555734.450 6  94718787.67244  23131292.547                    23131295.711
        41.400          28.300
 120976689.812 7  94267596.86544  23021107.305                    23021110.129
        43.600          25.800
 124859176.815 7  97292808.54145  23759894.625                    23759899.336
        44.100          30.400
 117608865.898 8  91643283.94746  22380223.781                    22380227.012
        49.400          36.200
 125446189.291 7  97750296.09543  23871615.422                    23871619.613
        42.700          23.400
 18  3 13 12 57 10.0000000  0 17G10G11R08R09R07R15R16R17R23R24G24G01
                                G19G28G32G17G15
 118508886.154 7  92344621.98945  22551494.617                    22551501.461
        46.000          33.600
 118700940.383 7  92494263.58144  22588041.898                    22588044.152
        42.300          29.900
                  89695430.543 6  21535702.297                    21535702.754
                        39.500
                  93325524.438 6  22470265.117                    22470266.215
                        41.700
                  84430210.780 6  20278638.813                    20278641.391
                        41.100
                  89606422.729 6  21559654.891                    21559658.930
                        36.000
                  80327347.390 6  19333862.719                    19333864.578
                        38.600
                  87006144.871 6  20904659.242                    20904660.273
                        40.300
                  96441695.251 5  23179832.109                    23179836.734
                        35.600
                  85516530.711 5  20561173.672                    20561174.148
                        32.500
 110229130.141 8  85892722.68746  20975876.625                    20975882.180
        49.600          38.700
 117792796.433 6  91786618.78445  22415225.539                    22415233.203
        40.500          30.300
 121552701.009 7  94716423.97144  23130717.313                    23130718.191
        43.800          28.500
 120979899.765 7  94270098.10744  23021718.000                    23021720.684
        43.900          26.700
 124856428.927 7  97290667.31045  23759371.250                    23759376.082
        44.500          30.800
 117607321.471 8  91642080.49846  22379929.719                    22379932.625
        49.500          36.200
 125450217.681 7  97753435.09844  23872381.266                    23872386.023
        42.000          25.600
 18  3 13 12 57 11.0000000  0 17G10G11R08R09R07R15R16R17R23R24G24G01
                                G19G28G32G17G15
 118510926.343 7  92346211.73045  22551882.914                    22551888.875
        46.000          33.600
 118702433.146 7  92495426.77445  22588325.727                    22588328.051
        42.400          30.200
                  89693369.032 6  21535207.477                    21535207.734
                        39.600
                  93322558.997 6  22469551.156                    22469552.191
                        41.800
                  84431297.739 6  20278900.617                    20278902.367
                        40.900
                  89609744.012 5  21560454.125                    21560458.137
                        35.700
                  80327068.665 6  19333795.984                    19333797.719
                        38.500
                  87004324.500 6  20904221.836                    20904222.547
                        40.400
                  96445365.198 6  23180714.359                    23180718.383
                        36.500
                  85518002.565 5  20561527.156                    20561527.938
                        33.100
 110228686.017 8  85892376.61246  20975792.219                    20975797.215
        49.400          38.400
 117792307.663 6  91786237.93745  22415132.625                    22415140.070
        40.200          30.800
 121549667.999 7  94714060.60144  23130141.328                    23130141.086
        45.300          29.100
 120983110.028 7  94272599.59644  23022329.141                    23022332.016
        43.800          28.100
 124853681.371 7  97288526.34745  23758848.414                    23758853.820
        43.300          30.700
 117605777.541 8  91640877.43946  22379635.508                    22379638.914
        48.300          36.100
 125454246.252 7  97756574.23044  23873148.242                    23873153.008
        42.200          24.300
 18  3 13 12 57 12.0000000  0 17G10G11R08R09R07R15R16R17R23R24G24G01
                                G19G28G32G17G15
 118512967.167 7  92347801.98445  22552271.625                    22552278.238
        46.700          34.400
 118703926.617 7  92496590.52144  22588610.367                    22588613.066
        42.700          29.300
                  89691307.970 6  21534712.953                    21534713.023
                        40.400
                  93319593.738 6  22468836.398                    22468838.055
                        41.600
                  84432385.398 6  20279161.250                    20279164.047
                        40.800
                  89613065.567 5  21561252.742                    21561257.199
                        35.800
                  80326790.576 6  19333729.445                    19333730.617
                        38.400
                  87002504.695 6  20903784.813                    20903785.641
                        40.100
                  96449035.369 6  23181596.211                    23181601.176
                        36.100
                  85519475.084 5  20561880.383                    20561881.848
                        32.900
 110228242.533 8  85892031.03746  20975707.563                    20975713.309
        49.100          38.600
 117791819.632 6  91785857.68144  22415039.695                    22415046.930
        40.600          29.800
 121546635.328 7  94711697.45444  23129562.313                    23129564.883
        42.500          29.300
 120986320.564 7  94275101.30144  23022940.039                    23022942.641
        43.900          27.500
 124850934.143 7  97286385.64844  23758325.344                    23758331.066
        43.000          29.700
 117604234.119 8  91639674.77846  22379341.930                    22379345.277
        48.500          36.300
 125458275.065 6  97759713.56444  23873915.430                    23873919.629
        41.700          24.100
 18  3 13 12 57 13.0000000  0 17G10G11R08R09R07R15R16R17R23R24G24G01
                                G19G28G32G17G15
 118515008.622 7  92349392.74645  22552660.898                    22552666.641
        46.900          34.100
 118705420.821 7  92497754.83744  22588894.820                    22588896.957
        42.800          28.800
                  89689247.427 6  21534217.117                    21534218.594
                        40.500
                  93316628.683 6  22468122.695                    22468123.934
                        41.100
                  84433473.854 6  20279422.211                    20279424.750
                        40.900
                  89616387.460 5  21562052.875                    21562056.551
                        35.300
                  80326513.142 6  19333662.445                    19333663.703
                        38.700
                  87000685.509 6  20903346.961                    20903348.895
                        40.300
                  96452705.861 5  23182478.352                    23182483.594
                        35.900
                  85520948.340 5  20562234.859                    20562236.125
                        32.500
 110227799.742 8  85891685.99146  20975623.352                    20975628.816
        49.300          38.800
 117791332.320 6  91785478.00144  22414948.148                    22414954.246
        41.300          29.900
 121543603.005 7  94709334.60444  23128984.703                    23128987.137
        43.000          28.300
 120989531.462 7  94277603.28344  23023550.828                    23023553.598
        43.600          27.200
 124848187.351 6  97284245.30044  23757802.344                    23757808.402
        41.300          28.900
 117602691.242 8  91638472.53646  22379048.273                    22379051.629
        48.300          36.100
 125462304.159 7  97762853.11143  23874682.328                    23874686.430
        42.100          23.000
 18  3 13 12 57 14.0000000  0 17G10G11R08R09R07R15R16R17R23R24G24G01
                                G19G28G32G17G15
 118517050.656 7  92350983.97645  22553048.953                    22553055.266
        46.700          34.700
 118706915.705 7  92498919.67244  22589179.516                    22589181.703
        43.100          29.100
                  89687187.335 6  21533723.305                    21533724.355
                        39.900
                  93313663.826 6  22467408.648                    22467409.445
                        40.600
                  84434562.974 6  20279685.117                    20279686.246
                        40.800
                  89619709.638 5  21562850.906                    21562855.535
                        35.000
                  80326236.334 6  19333595.375                    19333597.363
                        38.700
                  86998866.874 6  20902910.148                    20902911.453
                        40.400
                  96456376.559 5  23183360.461                    23183365.426
                        35.800
                  85522422.266 5  20562589.320                    20562590.070
                        32.100
 110227357.563 8  85891341.42346  20975538.797                    20975544.383
        49.300          38.700
 117790845.697 7  91785098.84744  22414855.797                    22414861.496
        42.100          29.700
 121540571.136 7  94706972.12744  23128409.164                    23128409.832
        44.700          28.900
 120992742.652 7  94280105.49944  23024161.891                    23024164.824
        43.800          27.500
 124845440.773 6  97282105.11144  23757279.391                    23757285.707
        40.400          27.400
 117601148.869 8  91637270.68546  22378754.570                    22378757.910
        48.800          36.400
 125466333.416 7  97765992.77244  23875448.797                    23875453.207
        42.100          24.100
 18  3 13 12 57 15.0000000  0 17G10G11R08R09R07R15R16R17R23R24G24G01
                                G19G28G32G17G15
 118519093.296 7  92352575.67745  22553436.734                    22553443.621
        46.900          34.900
 118708411.311 7  92500085.08344  22589464.242                    22589465.973
        43.400          29.600
                  89685127.731 6  21533228.938                    21533229.629
                        39.800
                  93310699.154 6  22466694.523                    22466695.391
                        40.300
                  84435652.823 6  20279946.539                    20279948.363
                        41.100
                  89623032.102 5  21563650.758                    21563655.152
                        35.000
                  80325960.166 6  19333528.742                    19333531.156
                        38.500
                  86997048.790 6  20902473.875                    20902474.594
                        40.400
                  96460047.523 6  23184243.875                    23184247.992
                        36.500
                  85523896.893 5  20562944.484                    20562944.930
                        32.400
 110226916.046 8  85890997.37546  20975454.430                    20975460.754
        49.100          38.700
 117790359.754 7  91784720.20244  22414763.234                    22414768.930
        42.600          29.700
 121537539.661 7  94704609.93644  23127831.453                    23127833.688
        42.800          28.700
 120995954.121 7  94282607.94044  23024773.367                    23024775.887
        44.500          27.300
 124842694.592 6  97279965.24344  23756755.727                    23756763.277
        39.300          26.400
 117599607.026 8  91636069.24546  22378461.609                    22378464.688
        48.900          36.300
 125470362.960 6  97769132.66543  23876215.195                    23876219.664
        41.300          23.900
 18  3 13 12 57 16.0000000  0 17G10G11R08R09R07R15R16R17R23R24G24G01
                                G19G28G32G17G15
 118521136.552 7  92354167.84045  22553825.758                    22553832.754
        46.700          35.700
 118709907.641 7  92501251.06344  22589748.805                    22589750.973
        44.100          28.800
                  89683068.636 6  21532734.766                    21532735.676
                        40.800
                  93307734.675 6  22465980.281                    22465981.563
                        40.700
                  84436743.336 6  20280208.219                    20280210.508
                        40.900
                  89626354.853 5  21564450.727                    21564454.633
                        35.300
                  80325684.623 6  19333462.961                    19333463.879
                        38.800
                  86995231.273 6  20902037.016                    20902037.855
                        40.500
                  96463718.715 6  23185125.727                    23185129.988
                        36.700
                  85525372.220 5  20563298.203                    20563299.512
                        32.700
 110226475.200 8  85890653.86446  20975370.750                    20975376.945
        49.100          38.600
 117789874.578 7  91784342.15045  22414671.047                    22414676.395
        44.400          31.100
 121534508.502 7  94702248.00344  23127254.477                    23127256.012
        43.400          28.700
 120999165.923 7  94285110.63044  23025384.508                    23025387.066
        43.900          28.800
 124839948.746 6  97277825.64744  23756233.023                    23756240.605
        40.100          28.700
 117598065.729 8  91634868.24046  22378168.250                    22378171.211
        48.800          36.300
 125474392.698 7  97772272.71544  23876982.391                    23876986.602
        42.100          25.000
 18  3 13 12 57 17.0000000  0 17G10G11R08R09R07R15R16R17R23R24G24G01
                                G19G28G32G17G15
 118523180.391 7  92355760.43045  22554214.555                    22554221.930
        46.600          35.400
 118711404.675 7  92502417.58944  22590033.859                    22590035.781
        44.700          29.600
                  89681010.047 6  21532240.211                    21532240.730
                        39.200
                  93304770.412 6  22465266.914                    22465267.563
                        40.500
                  84437834.557 6  20280470.320                    20280472.777
                        41.100
                  89629677.937 5  21565250.367                    21565254.359
                        35.200
                  80325409.737 6  19333396.398                    19333398.215
                        39.000
                  86993414.329 6  20901600.602                    20901601.355
                        40.500
                  96467390.167 5  23186008.156                    23186013.074
                        35.900
                  85526848.247 5  20563653.117                    20563654.293
                        33.000
 110226034.980 8  85890310.83746  20975286.867                    20975293.086
        49.400          38.600
 117789390.118 7  91783964.64545  22414579.180                    22414584.172
        44.800          30.900
 121531477.812 7  94699886.44444  23126679.789                    23126679.770
        44.900          28.900
 121002378.022 7  94287613.56244  23025995.875                    23025998.469
        44.600          27.100
 124837203.216 6  97275686.29844  23755710.375                    23755717.992
        40.400          28.100
 117596524.913 8  91633667.61646  22377875.219                    22377878.242
        48.400          36.400
 125478422.678 7  97775412.95444  23877749.156                    23877753.809
        42.600          25.100
 18  3 13 12 57 18.0000000  0 17G10G11R08R09R07R15R16R17R23R24G24G01
                                G19G28G32G17G15
 118525224.883 7  92357353.53645  22554603.875                    22554611.047
        46.500          34.900
 118712902.409 7  92503584.66145  22590318.484                    22590320.512
        44.300          30.000
                  89678952.021 6  21531745.172                    21531746.453
                        38.900
                  93301806.325 6  22464553.156                    22464553.844
                        40.800
                  84438926.478 6  20280732.648                    20280734.281
                        40.900
                  89633001.327 5  21566050.023                    21566053.988
                        35.900
                  80325135.522 6  19333330.766                    19333332.199
                        38.900
                  86991597.975 6  20901163.609                    20901164.738
                        40.500
                  96471061.885 6  23186890.391                    23186895.633
                        36.200
                  85528324.997 5  20564007.211                    20564009.516
                        32.400
 110225595.438 8  85889968.34746  20975203.133                    20975209.199
        48.800          38.700
 117788906.351 7  91783587.68845  22414485.672                    22414492.305
        45.200          30.300
 121528447.510 7  94697525.16044  23126102.086                    23126103.648
        43.300          28.300
 121005590.452 7  94290116.74844  23026607.102                    23026610.074
        44.900          28.100
 124834458.029 6  97273547.20844  23755188.555                    23755195.449
        40.600          27.700
 117594984.658 8  91632467.42346  22377581.813                    22377585.242
        48.400          36.300
 125482452.911 7  97778553.39844  23878516.766                    23878520.766
        43.200          24.700
 18  3 13 12 57 19.0000000  0 17G10G11R08R09R07R15R16R17R23R24G24G01
                                G19G28G32G17G15
 118527269.957 7  92358947.09045  22554992.453                    22555000.004
        45.900          34.600
 118714400.828 7  92504752.26144  22590603.461                    22590605.680
        44.900          29.400
                  89676894.462 6  21531251.070                    21531251.539
                        38.400
                  93298842.462 6  22463838.883                    22463840.359
                        41.500
                  84440019.092 6  20280994.945                    20280997.148
                        40.900
                  89636324.971 5  21566850.305                    21566853.195
                        35.400
                  80324861.970 6  19333264.734                    19333266.398
                        39.100
                  86989782.163 6  20900728.164                    20900728.227
                        40.300
                  96474733.811 5  23187773.633                    23187777.906
                        35.700
                  85529802.396 5  20564363.664                    20564364.375
                        32.600
 110225156.500 8  85889626.32646  20975120.047                    20975125.770
        49.000          38.800
 117788423.304 7  91783211.29944  22414393.617                    22414400.199
        45.500          29.900
 121525417.498 7  94695164.10644  23125523.805                    23125526.566
        42.300          28.900
 121008803.183 7  94292620.17144  23027218.305                    23027221.480
        45.000          29.100
 124831713.248 7  97271408.44644  23754667.031                    23754673.109
        42.100          27.900
 117593444.900 8  91631267.60746  22377289.180                    22377292.016
        48.700          36.300
 125486483.304 7  97781693.95444  23879283.297                    23879287.555
        43.500          25.300
 18  3 13 12 57 20.0000000  0 17G10G11R08R09R07R15R16R17R23R24G24G01
                                G19G28G32G17G15
 118529315.642 7  92360541.11545  22555382.125                    22555389.301
        45.900          34.500
 118715899.978 7  92505920.42644  22590888.672                    22590890.953
        44.900          29.600
                  89674837.407 6  21530756.359                    21530757.371
                        38.900
                  93295878.785 6  22463126.664                    22463126.844
                        40.600
                  84441112.427 6  20281257.375                    20281259.410
                        41.100
                  89639648.928 5  21567649.930                    21567653.410
                        35.600
                  80324589.050 6  19333199.648                    19333201.016
                        39.000
                  86987966.926 6  20900291.539                    20900292.613
                        40.400
                  96478405.979 5  23188655.219                    23188660.387
                        34.700
                  85531280.516 5  20564717.805                    20564720.191
                        32.400
 110224718.225 8  85889284.81246  20975036.711                    20975042.121
        49.000          38.500
 117787940.949 7  91782835.44344  22414301.547                    22414308.129
        45.100          29.800
 121522387.990 7  94692803.46344  23124950.359                    23124949.945
        45.400          29.000
 121012016.242 7  94295123.83344  23027829.641                    23027832.645
        45.300          28.800
 124828968.795 7  97269269.91244  23754145.391                    23754151.004
        43.500          28.700
 117591905.681 8  91630068.21746  22376996.094                    22376998.984
        48.900          36.700
 125490513.992 7  97784834.74144  23880050.695                    23880054.438
        43.700          26.100
 18  3 13 12 57 21.0000000  0 17G10G11R08R09R07R15R16R17R23R24G24G01
                                G19G28G32G17G15
 118531362.006 7  92362135.67845  22555771.922                    22555778.746
        46.000          34.500
 118717399.920 7  92507089.20745  22591173.922                    22591176.422
        44.900          30.600
                  89672780.859 6  21530262.883                    21530263.027
                        38.500
                  93292915.327 6  22462413.102                    22462413.734
                        41.000
                  84442206.486 6  20281520.469                    20281522.301
                        40.900
                  89642973.239 5  21568448.586                    21568453.516
                        35.800
                  80324316.779 6  19333133.977                    19333135.402
                        39.300
                  86986152.299 6  20899855.500                    20899856.801
                        40.300
                  96482078.411 5  23189537.688                    23189543.031
                        34.700
                  85532759.367 5  20565074.484                    20565075.535
                        32.500
 110224280.650 8  85888943.84946  20974953.352                    20974959.113
        49.500          38.700
 117787459.358 7  91782460.18945  22414209.766                    22414216.352
        45.100          30.200
 121519358.904 7  94690443.11944  23124372.305                    23124374.168
        42.400          29.300
 121015229.627 7  94297627.75444  23028440.781                    23028444.895
        45.000          28.300
 124826224.764 7  97267131.69844  23753623.320                    23753628.625
        43.400          28.700
 117590367.027 8  91628869.26646  22376703.008                    22376706.168
        48.800          36.500
 125494544.952 7  97787975.74444  23880818.109                    23880822.047
        43.600          25.700
 18  3 13 12 57 22.0000000  0 17G10G11R08R09R07R15R16R17R23R24G24G01
                                G19G28G32G17G15
 118533408.994 7  92363730.72445  22556161.750                    22556168.156
        46.600          34.800
 118718900.557 7  92508258.53444  22591459.539                    22591462.070
        45.100          29.100
                  89670724.787 6  21529769.922                    21529769.375
                        38.900
                  93289952.074 6  22461700.961                    22461700.512
                        41.700
                  84443301.261 6  20281783.539                    20281785.703
                        40.900
                  89646297.845 5  21569247.883                    21569253.547
                        35.800
                  80324045.177 6  19333066.930                    19333069.734
                        39.200
                  86984338.217 6  20899419.281                    20899420.711
                        40.000
                  96485751.138 5  23190421.172                    23190425.785
                        35.700
                  85534238.911 5  20565429.445                    20565430.824
                        33.100
 110223843.724 8  85888603.38646  20974870.414                    20974875.828
        49.700          38.400
 117786978.472 7  91782085.48145  22414118.000                    22414124.625
        45.800          30.300
 121516330.111 7  94688083.01744  23123794.578                    23123797.348
        42.300          28.100
 121018443.358 7  94300131.95244  23029052.148                    23029056.227
        44.700          28.100
 124823481.100 7  97264993.74144  23753101.422                    23753106.691
        43.700          29.800
 117588828.889 8  91627670.71046  22376410.656                    22376413.492
        48.900          36.300
 125498576.135 7  97791116.92244  23881585.383                    23881588.563
        44.000          26.400
 18  3 13 12 57 23.0000000  0 17G10G11R08R09R07R15R16R17R23R24G24G01
                                G19G28G32G17G15
 118535456.539 7  92365326.22045  22556551.555                    22556558.105
        46.300          34.400
 118720401.885 7  92509428.42444  22591745.344                    22591747.754
        45.000          29.300
                  89668669.147 6  21529276.695                    21529275.625
                        39.000
                  93286989.016 6  22460987.078                    22460987.777
                        41.400
                  84444396.713 6  20282046.297                    20282048.277
                        40.900
                  89649622.770 6  21570048.297                    21570052.766
                        36.000
                  80323774.166 6  19333002.258                    19333004.441
                        39.500
                  86982524.686 6  20898984.008                    20898984.676
                        40.100
                  96489424.063 5  23191304.125                    23191308.656
                        35.000
                  85535719.096 5  20565785.805                    20565787.148
                        32.700
 110223407.414 8  85888263.40546  20974787.383                    20974792.902
        49.900          38.500
 117786498.251 7  91781711.28544  22414026.758                    22414033.117
        45.600          29.700
 121513301.756 7  94685723.26944  23123220.961                    23123220.684
        45.000          28.100
 121021657.359 7  94302636.37144  23029663.719                    23029667.766
        44.400          27.100
 124820737.734 7  97262856.03044  23752579.188                    23752584.305
        43.400          29.100
 117587291.244 8  91626472.53946  22376117.875                    22376121.043
        49.100          36.300
 125502607.496 7  97794258.23844  23882352.281                    23882356.152
        43.900          26.000
 18  3 13 12 57 24.0000000  0 17G10G11R08R09R07R15R16R17R23R24G24G01
                                G19G28G32G17G15
 118537504.725 7  92366922.21545  22556941.117                    22556947.672
        45.800          35.500
 118721903.960 7  92510598.89644  22592030.773                    22592033.637
        44.700          29.300
                  89666614.023 6  21528783.672                    21528783.027
                        39.600
                  93284026.176 7  22460273.617                    22460274.289
                        42.000
                  84445492.866 6  20282309.438                    20282311.434
                        40.900
                  89652947.963 5  21570849.195                    21570853.242
                        35.800
                  80323503.817 6  19332937.422                    19332939.559
                        39.100
                  86980711.772 6  20898548.461                    20898549.309
                        40.200
                  96493097.273 5  23192187.117                    23192191.574
                        35.600
                  85537200.025 5  20566142.125                    20566143.293
                        33.300
 110222971.762 8  85887923.92646  20974704.539                    20974709.875
        50.000          39.000
 117786018.770 7  91781337.67745  22413935.133                    22413942.102
        44.600          30.200
 121510273.850 7  94683363.85944  23122643.859                    23122645.125
        43.700          28.900
 121024871.688 7  94305141.03944  23030275.656                    23030279.563
        44.300          28.300
 124817994.771 7  97260718.64744  23752057.641                    23752062.273
        43.000          29.700
 117585754.158 8  91625274.79746  22375825.039                    22375828.402
        48.900          36.000
 125506639.156 7  97797399.79744  23883119.594                    23883123.273
        43.900          25.000
 18  3 13 12 57 25.0000000  0 17G10G11R08R09R07R15R16R17R23R24G24G01
                                G19G28G32G17G15
 118539553.568 7  92368518.72245  22557331.242                    22557337.414
        46.400          34.700
 118723406.761 7  92511769.93345  22592316.398                    22592320.340
        43.700          30.100
                  89664559.459 6  21528290.141                    21528289.551
                        39.400
                  93281063.560 6  22459560.344                    22459561.328
                        41.600
                  84446589.786 6  20282573.031                    20282575.566
                        40.900
                  89656273.483 5  21571649.938                    21571652.563
                        35.100
                  80323234.162 6  19332873.648                    19332874.590
                        38.800
                  86978899.447 6  20898112.891                    20898113.957
                        39.900
                  96496770.775 5  23193069.039                    23193074.543
                        35.100
                  85538681.701 5  20566497.953                    20566499.676
                        32.900
 110222536.779 8  85887584.97546  20974621.867                    20974627.391
        50.000          38.600
 117785540.029 7  91780964.65244  22413844.055                    22413850.656
        44.500          29.900
 121507246.284 7  94681004.71844  23122067.023                    23122068.676
        44.100          27.600
 121028086.382 7  94307645.98744  23030886.922                    23030891.586
        43.900          26.800
 124815252.186 7  97258581.55544  23751534.820                    23751541.027
        43.200          29.900
 117584217.648 8  91624077.50845  22375533.133                    22375536.129
        48.900          35.800
 125510671.040 7  97800541.52944  23883886.641                    23883890.785
        44.100          25.100
 18  3 13 12 57 26.0000000  0 17G10G11R08R09R07R15R16R17R23R24G24G01
                                G19G28G32G17G15
 118541602.993 7  92370115.68145  22557721.250                    22557727.387
        46.800          34.900
 118724910.281 7  92512941.52244  22592601.945                    22592605.691
        43.200          29.900
                  89662505.428 6  21527796.516                    21527797.211
                        39.800
                  93278101.137 6  22458847.180                    22458848.250
                        41.600
                  84447687.422 6  20282836.984                    20282839.086
                        41.100
                  89659599.312 5  21572450.234                    21572453.289
                        35.000
                  80322965.154 6  19332809.008                    19332809.660
                        39.100
                  86977087.682 6  20897677.719                    20897678.383
                        40.000
                  96500444.497 5  23193952.383                    23193957.324
                        34.300
                  85540164.062 5  20566853.586                    20566855.496
                        33.300
 110222102.505 8  85887246.57446  20974539.133                    20974544.723
        49.600          38.600
 117785061.969 7  91780592.15545  22413753.258                    22413760.148
        44.600          30.100
 121504219.183 7  94678645.93744  23121491.578                    23121492.766
        44.300          28.300
 121031301.368 7  94310151.15644  23031498.969                    23031503.043
        43.300          27.700
 124812509.919 7  97256444.72044  23751013.016                    23751018.820
        42.500          29.500
 117582681.661 8  91622880.63145  22375240.578                    22375243.547
        48.500          35.100
 125514703.181 7  97803683.46843  23884654.375                    23884658.262
        43.800          23.900
 18  3 13 12 57 27.0000000  0 17G10G11R08R09R07R15R16R17R23R24G24G01
                                G19G28G32G17G15
 118543653.091 7  92371713.15545  22558111.813                    22558117.457
        47.300          35.000
 118726414.520 7  92514113.65844  22592888.141                    22592892.293
        43.100          29.700
                  89660451.973 6  21527304.477                    21527305.102
                        39.800
                  93275138.942 6  22458133.406                    22458134.855
                        41.800
                  84448785.780 6  20283101.094                    20283102.645
                        40.900
                  89662925.487 5  21573249.336                    21573252.957
                        34.900
                  80322696.833 6  19332743.656                    19332745.914
                        39.000
                  86975276.527 6  20897242.188                    20897243.652
                        40.200
                  96504118.498 5  23194835.523                    23194840.441
                        34.300
                  85541647.196 5  20567211.023                    20567212.012
                        33.400
 110221668.924 8  85886908.71946  20974456.570                    20974462.219
        49.900          38.400
 117784584.629 7  91780220.19645  22413662.688                    22413668.398
        45.100          31.100
 121501192.482 7  94676287.45444  23120915.445                    23120917.180
        42.500          27.300
 121034516.726 7  94312656.61644  23032110.953                    23032114.902
        43.400          27.500
 124809768.051 6  97254308.18944  23750490.984                    23750497.039
        41.900          28.900
 117581146.219 8  91621684.17845  22374948.289                    22374951.227
        48.800          35.600
 125518735.570 7  97806825.58844  23885421.031                    23885424.941
        43.900          24.700
 18  3 13 12 57 28.0000000  0 17G10G11R08R09R07R15R16R17R23R24G24G01
                                G19G28G32G17G15
 118545703.789 8  92373311.10545  22558502.180                    22558508.039
        48.000          34.200
 118727919.483 7  92515286.35944  22593174.508                    22593178.605
        43.400          29.700
                  89658399.002 6  21526811.320                    21526812.359
                        39.900
                  93272176.947 6  22457420.570                    22457421.605
                        41.700
                  84449884.816 6  20283364.461                    20283366.434
                        41.200
                  89666251.978 5  21574049.422                    21574052.668
                        35.200
                  80322429.104 6  19332679.000                    19332681.008
                        39.200
                  86973465.924 6  20896806.742                    20896808.844
                        39.700
                  96507792.736 5  23195718.664                    23195723.582
                        34.300
                  85543131.002 5  20567569.359                    20567569.996
                        32.400
 110221236.006 8  85886571.37746  20974373.820                    20974379.457
        49.900          38.600
 117784108.033 7  91779848.79645  22413572.289                    22413578.297
        45.700          30.800
 121498166.093 7  94673929.22944  23120336.961                    23120340.473
        42.200          27.900
 121037732.417 7  94315162.34644  23032722.977                    23032727.094
        43.800          27.200
 124807026.504 6  97252171.92044  23749969.102                    23749975.672
        41.400          28.500
 117579611.321 8  91620488.14745  22374656.531                    22374659.703
        49.100          35.900
 125522768.214 7  97809967.91344  23886188.953                    23886192.703
        44.100          24.300
 18  3 13 12 57 29.0000000  0 17G10G11R08R09R07R15R16R17R23R24G24G01
                                G19G28G32G17G15
 118547755.094 7  92374909.52145  22558891.992                    22558897.934
        47.900          34.100
 118729425.209 7  92516459.66345  22593461.422                    22593464.961
        42.900          30.400
                  89656346.514 6  21526317.383                    21526319.543
                        39.800
                  93269215.141 6  22456707.406                    22456708.934
                        41.900
                  84450984.604 6  20283628.211                    20283631.063
                        41.000
                  89669578.758 6  21574849.359                    21574853.844
                        36.000
                  80322162.036 6  19332614.344                    19332616.719
                        39.000
                  86971655.902 6  20896372.141                    20896373.879
                        39.900
                  96511467.197 5  23196601.695                    23196607.352
                        34.100
                  85544615.567 5  20567925.609                    20567926.355
                        32.500
 110220803.742 8  85886234.54946  20974291.750                    20974297.602
        50.000          38.600
 117783632.174 7  91779477.97745  22413481.766                    22413487.516
        45.000          30.500
 121495140.202 7  94671571.41744  23119764.195                    23119764.863
        44.100          28.500
 121040948.407 7  94317668.30044  23033335.344                    23033339.000
        43.100          27.400
 124804285.321 6  97250035.94944  23749446.789                    23749453.879
        40.900          27.400
 117578076.952 8  91619292.52946  22374364.484                    22374367.805
        48.800          36.000
 125526801.089 7  97813110.41844  23886955.680                    23886959.641
        43.700          24.400
 18  3 13 12 57 30.0000000  0 17G10G11R08R09R07R15R16R17R23R24G24G01
                                G19G28G32G17G15
 118549807.037 7  92376508.43945  22559281.969                    22559288.668
        47.700          34.200
 118730931.673 7  92517633.53544  22593748.195                    22593751.863
        43.100          29.600
                  89654294.525 6  21525824.906                    21525826.422
                        39.700
                  93266253.587 6  22455994.383                    22455995.805
                        41.800
                  84452085.108 6  20283892.672                    20283894.988
                        41.200
                  89672905.858 6  21575650.188                    21575654.168
                        36.400
                  80321895.656 6  19332551.023                    19332551.738
                        39.300
                  86969846.483 6  20895937.320                    20895938.727
                        40.100
                  96515141.913 5  23197484.648                    23197489.527
                        33.600
                  85546100.826 5  20568282.445                    20568283.191
                        32.600
 110220372.135 8  85885898.22746  20974209.438                    20974215.441
        50.500          38.300
 117783157.048 7  91779107.74245  22413391.594                    22413396.973
        45.500          31.000
 121492114.738 7  94669213.91644  23119188.703                    23119189.477
        44.700          27.400
 121044164.752 7  94320174.53944  23033947.227                    23033951.258
        43.400          27.500
 124801544.530 6  97247900.29044  23748925.719                    23748932.148
        40.600          26.800
 117576543.162 8  91618097.36845  22374072.781                    22374076.359
        48.900          35.900
 125530834.183 7  97816253.09743  23887723.727                    23887727.582
        44.100          23.600
 18  3 13 12 57 31.0000000  0 17G10G11R08R09R07R15R16R17R23R24G24G01
                                G19G28G32G17G15
 118551859.650 7  92378107.87245  22559672.250                    22559679.391
        47.400          34.200
 118732438.866 7  92518807.98644  22594035.344                    22594038.371
        43.000          29.200
                  89652243.074 6  21525331.469                    21525333.578
                        39.300
                  93263292.252 7  22455280.719                    22455282.590
                        42.100
                  84453186.335 6  20284157.516                    20284159.895
                        40.900
                  89676233.295 5  21576452.297                    21576454.910
                        35.600
                  80321629.937 6  19332487.352                    19332488.539
                        38.500
                  86968037.705 6  20895503.398                    20895504.422
                        39.900
                  96518816.900 5  23198367.734                    23198372.852
                        34.000
                  85547586.808 5  20568639.727                    20568641.168
                        32.500
 110219941.199 8  85885562.42846  20974127.438                    20974133.461
        50.000          38.300
 117782682.682 7  91778738.10345  22413301.344                    22413306.969
        45.400          31.200
 121489089.651 7  94666856.69644  23118611.156                    23118613.445
        43.500          28.300
 121047381.422 7  94322681.04044  23034559.930                    23034563.051
        43.500          26.000
 124798804.131 6  97245764.94544  23748404.234                    23748410.895
        40.700          28.200
 117575009.924 8  91616902.64246  22373780.781                    22373784.211
        48.800          36.000
 125534867.623 7  97819396.04543  23888490.820                    23888494.945
        44.100          22.500
 18  3 13 12 57 32.0000000  0 17G10G11R08R09R07R15R16R17R23R24G24G01
                                G19G28G32G17G15
 118553912.893 7  92379707.78645  22560062.523                    22560069.754
        47.000          34.600
 118733946.711 7  92519982.94145  22594322.523                    22594325.535
        42.900          30.100
                  89650192.137 6  21524838.500                    21524841.461
                        39.000
                  93260331.104 6  22454566.922                    22454569.586
                        41.800
                  84454288.224 6  20284422.516                    20284424.035
                        41.200
                  89679561.013 6  21577252.531                    21577256.031
                        36.500
                  80321364.867 6  19332422.414                    19332424.926
                        39.100
                  86966229.465 6  20895068.117                    20895069.273
                        40.100
                  96522492.138 5  23199251.375                    23199256.590
                        32.700
                  85549073.467 5  20568996.625                    20568998.250
                        32.600
 110219510.933 8  85885227.15746  20974044.992                    20974051.457
        50.000          38.500
 117782209.008 7  91778369.00545  22413210.742                    22413216.840
        44.900          30.700
 121486064.971 7  94664499.80444  23118036.234                    23118037.891
        43.300          27.600
 121050598.411 7  94325187.77544  23035171.813                    23035175.207
        43.800          26.200
 124796064.055 6  97243629.85044  23747882.539                    23747889.559
        41.300          27.300
 117573477.188 8  91615708.29746  22373489.141                    22373492.781
        49.300          36.100
 125538901.217 7  97822539.11143  23889258.250                    23889262.656
        44.100          22.600
 18  3 13 12 57 33.0000000  0 17G10G11R08R09R07R15R16R17R23R24G24G01
                                G19G28G32G17G15
 118555966.738 7  92381308.18945  22560453.500                    22560460.691
        47.200          35.100
 118735455.322 7  92521158.49045  22594609.438                    22594613.004
        42.600          30.200
                  89648141.749 6  21524347.672                    21524347.906
                        38.200
                  93257370.183 6  22453854.211                    22453855.816
                        41.600
                  84455390.829 6  20284687.008                    20284689.035
                        41.000
                  89682889.098 5  21578051.875                    21578056.910
                        35.800
                  80321100.451 6  19332359.734                    19332360.859
                        39.200
                  86964421.826 6  20894634.070                    20894635.227
                        40.300
                  96526167.651 5  23200134.883                    23200139.715
                        33.100
                  85550560.819 5  20569354.461                    20569355.469
                        32.400
 110219081.338 8  85884892.40846  20973962.922                    20973969.613
        49.700          38.400
 117781736.044 7  91778000.46344  22413119.828                    22413126.770
        43.600          29.900
 121483040.705 7  94662143.22944  23117460.648                    23117462.598
        42.800          27.500
 121053815.713 7  94327694.77044  23035783.641                    23035787.188
        44.200          27.200
 124793324.407 7  97241495.07044  23747361.914                    23747368.031
        42.300          28.300
 117571945.013 8  91614514.39445  22373197.508                    22373201.039
        49.300          35.600
 125542935.086 7  97825682.40943  23890026.094                    23890030.531
        43.600          22.800
 18  3 13 12 57 34.0000000  0 17G10G11R08R09R07R15R16R17R23R24G24G01
                                G19G28G32G17G15
 118558021.182 7  92382909.04245  22560845.086                    22560851.613
        47.300          35.400
 118736964.598 7  92522334.53344  22594896.641                    22594899.383
        42.600          29.300
                  89646091.811 6  21523855.617                    21523855.703
                        38.100
                  93254409.444 6  22453140.695                    22453143.273
                        41.400
                  84456494.180 6  20284951.148                    20284953.809
                        41.100
                  89686217.456 5  21578854.117                    21578857.844
                        35.900
                  80320836.682 6  19332296.484                    19332297.598
                        39.100
                  86962614.725 6  20894200.109                    20894201.641
                        40.400
                  96529843.407 5  23201018.055                    23201023.074
                        32.800
                  85552048.842 5  20569712.805                    20569713.699
                        32.500
 110218652.367 8  85884558.15046  20973881.328                    20973887.906
        49.000          38.200
 117781263.790 7  91777632.48045  22413029.508                    22413037.160
        43.400          30.200
 121480016.774 7  94659786.92744  23116884.422                    23116886.969
        42.500          27.600
 121057033.359 7  94330202.03344  23036396.023                    23036399.375
        44.100          27.900
 124790585.039 7  97239360.50044  23746840.922                    23746846.434
        42.400          29.000
 117570413.351 8  91613320.88646  22372906.039                    22372909.340
        49.200          36.300
 125546969.197 7  97828825.86743  23890793.695                    23890797.883
        43.100          23.000
 18  3 13 12 57 35.0000000  0 17G10G11R08R09R07R15R16R17R23R24G24G01
                                G19G28G32G17G15
 118560076.234 7  92384510.37145  22561235.773                    22561242.758
        46.900          35.500
 118738474.633 7  92523511.17744  22595183.586                    22595187.492
        42.100          29.400
                  89644042.392 6  21523363.805                    21523363.699
                        37.800
                  93251448.901 6  22452428.461                    22452430.512
                        41.300
                  84457598.244 6  20285217.336                    20285219.586
                        40.800
                  89689546.106 6  21579656.477                    21579658.289
                        36.200
                  80320573.575 6  19332232.758                    19332234.508
                        38.800
                  86960808.212 6  20893766.008                    20893767.574
                        40.500
                  96533519.432 5  23201901.930                    23201906.781
                        32.300
                  85553537.572 5  20570070.383                    20570071.688
                        32.400
 110218224.031 8  85884224.39946  20973800.438                    20973806.434
        49.200          38.300
 117780792.232 7  91777265.04845  22412940.063                    22412946.992
        43.500          30.500
 121476993.317 7  94657431.00444  23116310.852                    23116311.691
        43.900          28.300
 121060251.299 7  94332709.53044  23037008.555                    23037011.484
        44.000          27.600
 124787846.085 7  97237226.23444  23746319.734                    23746325.242
        42.800          28.000
 117568882.226 8  91612127.80046  22372614.867                    22372617.898
        48.900          36.200
 125551003.543 7  97831969.51543  23891561.055                    23891565.711
        42.900          22.300
 18  3 13 12 57 36.0000000  0 17G10G11R08R09R07R15R16R17R23R24G24G01
                                G19G28G32G17G15
 118562131.955 7  92386112.21845  22561626.898                    22561634.020
        46.700          35.300
 118739985.439 7  92524688.41544  22595471.344                    22595474.602
        42.500          29.700
                  89641993.495 6  21522872.055                    21522871.254
                        37.900
                  93248488.602 6  22451716.391                    22451717.668
                        41.500
                  84458703.011 6  20285482.727                    20285484.445
                        41.000
                  89692875.071 5  21580456.859                    21580459.660
                        35.800
                  80320311.128 6  19332169.742                    19332171.641
                        38.700
                  86959002.272 6  20893331.914                    20893333.891
                        40.400
                  96537195.734 5  23202785.039                    23202789.793
                        32.300
                  85555027.019 5  20570428.531                    20570429.688
                        32.900
 110217796.381 8  85883891.18646  20973719.680                    20973725.137
        50.200          38.300
 117780321.411 7  91776898.19945  22412850.672                    22412857.469
        43.200          30.800
 121473970.234 7  94655075.35344  23115734.375                    23115736.867
        43.200          28.500
 121063469.580 7  94335217.28244  23037620.758                    23037623.945
        44.200          27.900
 124785107.488 7  97235092.24544  23745798.508                    23745803.895
        42.500          26.800
 117567351.647 8  91610935.13745  22372323.805                    22372326.914
        49.100          35.500
 125555038.135 7  97835113.34643  23892328.836                    23892333.262
        42.700          22.800
 18  3 13 12 57 37.0000000  0 17G10G11R08R09R07R15R16R17R23R24G24G01
                                G19G28G32G17G15
 118564188.288 7  92387714.55145  22562018.320                    22562025.262
        46.700          35.000
 118741496.878 7  92525866.14544  22595759.813                    22595762.125
        43.000          29.600
                  89639945.091 6  21522380.063                    21522379.223
                        38.500
                  93245528.469 6  22451004.016                    22451004.188
                        41.600
                  84459808.499 6  20285748.047                    20285750.340
                        41.000
                  89696204.375 5  21581256.945                    21581260.707
                        35.600
                  80320049.305 6  19332106.875                    19332107.801
                        38.900
                  86957196.885 6  20892898.500                    20892899.652
                        40.300
                  96540872.272 5  23203669.234                    23203673.672
                        31.400
                  85556517.143 5  20570786.523                    20570787.926
                        32.500
 110217369.363 8  85883558.45546  20973639.102                    20973643.926
        51.000          38.600
 117779851.320 7  91776531.90544  22412761.602                    22412768.313
        44.000          29.700
 121470947.516 7  94652720.00144  23115158.992                    23115161.336
        43.900          27.700
 121066688.162 7  94337725.28044  23038233.641                    23038236.590
        43.900          26.800
 124782369.230 7  97232958.51344  23745277.688                    23745282.332
        42.800          27.500
 117565821.594 8  91609742.88146  22372032.258                    22372035.609
        49.500          36.400
 125559072.957 7  97838257.36244  23893096.641                    23893101.172
        42.200          24.100
 18  3 13 12 57 38.0000000  0 17G10G11R08R09R07R15R16R17R23R24G24G01
                                G19G28G32G17G15
 118566245.219 7  92389317.34845  22562410.383                    22562416.781
        47.200          35.000
 118743009.041 7  92527044.44244  22596048.086                    22596050.008
        43.800          29.600
                  89637897.188 6  21521888.703                    21521888.059
                        39.200
                  93242568.548 6  22450291.203                    22450291.438
                        41.500
                  84460914.687 6  20286013.891                    20286016.453
                        40.900
                  89699533.973 5  21582056.313                    21582061.293
                        35.600
                  80319788.158 6  19332044.320                    19332045.543
                        38.400
                  86955392.086 6  20892464.773                    20892466.023
                        40.300
                  96544549.074 5  23204552.695                    23204557.473
                        32.300
                  85558007.974 5  20571144.914                    20571146.297
                        33.300
 110216943.023 8  85883226.23946  20973557.898                    20973562.316
        51.000          38.600
 117779381.963 7  91776166.19345  22412672.766                    22412678.840
        45.000          30.100
 121467925.265 7  94650364.99744  23114585.422                    23114586.273
        44.600          27.700
 121069907.091 7  94340233.52944  23038845.555                    23038848.863
        43.700          28.100
 124779631.326 7  97230825.06344  23744756.398                    23744761.891
        42.400          29.300
 117564292.096 8  91608551.06446  22371741.359                    22371744.383
        49.000          36.600
 125563108.015 7  97841401.55443  23893864.711                    23893868.727
        42.200          22.300
 18  3 13 12 57 39.0000000  0 17G10G11R08R09R07R15R16R17R23R24G24G01
                                G19G28G32G17G15
 118568302.776 7  92390920.62545  22562802.352                    22562808.504
        47.000          34.700
 118744521.917 7  92528223.30745  22596336.523                    22596338.215
        44.300          30.000
                  89635849.751 6  21521397.023                    21521396.820
                        40.400
                  93239608.800 6  22449578.328                    22449578.770
                        41.200
                  84462021.591 6  20286279.961                    20286281.516
                        41.000
                  89702863.890 5  21582857.773                    21582862.703
                        35.600
                  80319527.643 6  19331981.508                    19331982.332
                        38.900
                  86953587.868 6  20892031.523                    20892032.477
                        40.400
                  96548226.074 5  23205436.211                    23205441.535
                        32.600
                  85559499.477 5  20571504.633                    20571504.930
                        32.100
 110216517.324 8  85882894.50846  20973476.719                    20973481.480
        50.800          38.700
 117778913.303 7  91775801.02145  22412583.992                    22412589.578
        45.800          31.300
 121464903.341 7  94648010.24744  23114009.180                    23114011.168
        43.700          28.300
 121073126.299 7  94342741.99744  23039458.445                    23039461.551
        43.800          27.900
 124776893.758 7  97228691.87544  23744235.266                    23744240.633
        42.100          29.300
 117562763.128 8  91607359.66946  22371450.359                    22371453.516
        48.900          36.400
 125567143.299 7  97844545.92543  23894632.000                    23894636.461
        42.500          22.900
 18  3 13 12 57 40.0000000  0 17G10G11R08R09R07R15R16R17R23R24G24G01
                                G19G28G32G17G15
 118570360.969 7  92392524.40645  22563194.000                    22563200.031
        47.400          34.600
 118746035.538 7  92529402.76545  22596623.938                    22596625.910
        44.900          31.100
                  89633802.859 6  21520904.422                    21520905.758
                        40.000
                  93236649.330 6  22448866.492                    22448865.746
                        41.200
                  84463129.225 6  20286546.086                    20286547.672
                        40.900
                  89706194.112 5  21583660.469                    21583664.309
                        34.900
                  80319267.798 6  19331918.734                    19331920.254
                        38.700
                  86951784.268 6  20891596.984                    20891598.840
                        40.400
                  96551903.383 5  23206321.180                    23206324.746
                        33.300
                  85560991.730 5  20571861.281                    20571863.625
                        31.300
 110216092.334 8  85882563.32746  20973395.500                    20973400.676
        50.800          38.800
 117778445.413 7  91775436.43745  22412494.992                    22412500.473
        45.800          31.400
 121461881.898 7  94645655.87444  23113434.453                    23113435.992
        43.700          27.100
 121076345.864 7  94345250.74744  23040071.063                    23040074.285
        44.500          27.200
 124774156.595 6  97226559.02544  23743713.719                    23743720.121
        40.600          25.200
 117561234.738 8  91606168.71846  22371159.297                    22371162.902
        48.900          36.500
 125571178.841 7  97847690.50844  23895400.297                    23895404.789
        42.100          24.700
 18  3 13 12 57 41.0000000  0 17G10G11R08R09R07R15R16R17R23R24G24G01
                                G19G28G32G17G15
 118572419.775 7  92394128.66945  22563585.594                    22563592.098
        47.600          35.400
 118747549.922 7  92530582.81344  22596911.375                    22596913.949
        44.500          29.800
                  89631756.510 6  21520412.789                    21520415.359
                        40.000
                  93233690.044 6  22448153.539                    22448153.145
                        41.000
                  84464237.574 6  20286812.492                    20286813.852
                        40.900
                  89709524.595 5  21584463.625                    21584465.242
                        35.000
                  80319008.610 6  19331856.641                    19331857.387
                        38.800
                  86949981.257 6  20891164.938                    20891166.188
                        40.400
                  96555580.922 5  23207204.836                    23207209.422
                        31.200
                  85562484.671 5  20572221.469                    20572222.531
                        31.900
 110215668.013 8  85882232.66946  20973314.273                    20973320.184
        50.700          38.700
 117777978.258 7  91775072.43545  22412405.898                    22412411.445
        45.800          31.900
 121458860.870 7  94643301.81344  23112860.492                    23112861.559
        42.900          27.300
 121079565.759 7  94347759.76344  23040684.047                    23040687.398
        44.700          26.900
 124771419.797 6  97224426.46344  23743193.891                    23743199.379
        41.600          27.700
 117559706.873 8  91604978.18646  22370868.344                    22370871.742
        48.600          36.600
 125575214.666 7  97850835.29243  23896168.641                    23896172.406
        42.100          22.900
 18  3 13 12 57 42.0000000  0 17G10G11R08R09R07R15R16R17R23R24G24G01
                                G19G28G32G17G15
 118574479.259 7  92395733.43845  22563977.984                    22563983.965
        47.900          34.900
 118749065.041 7  92531763.44845  22597199.609                    22597202.805
        44.300          30.600
                  89629710.728 6  21519922.375                    21519924.250
                        40.100
                  93230730.991 6  22447441.805                    22447440.598
                        41.000
                  84465346.691 6  20287078.352                    20287080.324
                        41.000
                  89712855.450 5  21585263.000                    21585267.176
                        35.300
                  80318750.108 6  19331793.766                    19331795.461
                        38.700
                  86948178.849 6  20890731.375                    20890732.859
                        40.100
                  96559258.765 5  23208088.563                    23208092.629
                        31.400
                  85563978.349 5  20572580.281                    20572581.664
                        32.300
 110215244.370 8  85881902.54746  20973233.547                    20973239.441
        50.300          38.500
 117777511.848 7  91774709.00745  22412316.977                    22412323.160
        45.700          31.700
 121455840.215 6  94640948.05444  23112282.375                    23112286.449
        40.600          27.100
 121082786.010 7  94350269.05544  23041297.133                    23041300.164
        45.000          28.700
 124768683.425 7  97222294.22945  23742672.859                    23742678.680
        42.100          30.100
 117558179.612 8  91603788.12346  22370577.922                    22370581.445
        48.900          36.600
 125579250.718 7  97853980.26244  23896936.398                    23896940.461
        42.500          24.500
 18  3 13 12 57 43.0000000  0 17G10G11R08R09R07R15R16R17R23R24G24G01
                                G19G28G32G17G15
 118576539.370 8  92397338.70645  22564369.438                    22564376.160
        48.100          34.700
 118750580.895 7  92532944.65244  22597487.422                    22597491.043
        43.800          29.000
                  89627665.438 6  21519431.563                    21519433.262
                        40.000
                  93227772.164 6  22446728.969                    22446728.980
                        41.400
                  84466456.493 6  20287344.656                    20287347.020
                        41.000
                  89716186.642 5  21586063.539                    21586068.359
                        34.800
                  80318492.256 6  19331731.797                    19331733.414
                        38.800
                  86946377.038 6  20890298.766                    20890299.598
                        40.400
                  96562936.841 5  23208973.047                    23208976.871
                        31.700
                  85565472.749 5  20572939.750                    20572940.988
                        32.600
 110214821.398 8  85881572.96046  20973152.789                    20973159.375
        49.500          38.500
 117777046.108 7  91774346.09645  22412227.453                    22412234.395
        45.200          30.700
 121452819.956 7  94638594.63744  23111710.773                    23111711.582
        43.600          27.700
 121086006.554 7  94352778.57744  23041909.289                    23041912.918
        45.000          27.600
 124765947.357 6  97220162.23144  23742152.641                    23742158.164
        41.400          28.700
 117556652.886 8  91602598.47946  22370287.711                    22370290.902
        49.000          36.400
 125583287.030 7  97857125.43444  23897704.148                    23897708.586
        42.200          24.600
 18  3 13 12 57 44.0000000  0 17G10G11R08R09R07R15R16R17R23R24G24G01
                                G19G28G32G17G15
 118578600.053 7  92398944.43745  22564761.289                    22564768.027
        47.900          35.300
 118752097.491 7  92534126.42745  22597776.148                    22597779.797
        44.600          30.400
                  89625620.625 6  21518941.031                    21518942.184
                        40.000
                  93224813.512 6  22446016.766                    22446017.031
                        41.400
                  84467567.026 6  20287611.375                    20287613.387
                        40.900
                  89719518.114 5  21586866.602                    21586869.012
                        35.000
                  80318235.063 6  19331670.109                    19331671.656
                        39.200
                  86944575.808 6  20889866.438                    20889867.598
                        40.200
                  96566615.178 5  23209856.367                    23209861.016
                        31.900
                  85566967.851 5  20573299.109                    20573300.598
                        32.700
 110214399.067 8  85881243.87446  20973072.117                    20973078.598
        48.800          38.700
 117776581.129 7  91773983.78045  22412139.531                    22412145.984
        45.200          30.900
 121449800.175 7  94636241.57344  23111136.789                    23111137.117
        44.400          27.800
 121089227.423 7  94355288.36344  23042521.555                    23042525.875
        44.600          27.500
 124763211.695 7  97218030.56344  23741631.570                    23741637.922
        42.800          29.400
 117555126.660 8  91601409.22146  22369997.344                    22370000.453
        48.900          36.000
 125587323.566 7  97860270.78444  23898473.125                    23898477.008
        42.800          25.600
 18  3 13 12 57 45.0000000  0 17G10G11R08R09R07R15R16R17R23R24G24G01
                                G19G28G32G17G15
 118580661.363 7  92400550.65945  22565153.086                    22565160.793
        46.800          34.400
 118753614.713 7  92535308.68745  22598065.141                    22598068.422
        44.800          30.900
                  89623576.281 6  21518449.992                    21518451.445
                        39.700
                  93221855.080 6  22445304.102                    22445304.793
                        41.900
                  84468678.244 6  20287877.586                    20287880.695
                        41.000
                  89722849.821 5  21587668.445                    21587670.953
                        35.600
                  80317978.482 6  19331607.977                    19331609.520
                        38.900
                  86942775.105 6  20889433.586                    20889434.652
                        40.200
                  96570293.750 5  23210740.367                    23210745.039
                        30.800
                  85568463.644 5  20573659.117                    20573660.258
                        31.900
 110213977.407 8  85880915.31646  20972991.922                    20972998.484
        48.800          38.600
 117776116.772 7  91773621.95945  22412050.781                    22412057.637
        44.500          31.800
 121446780.710 7  94633888.74344  23110559.906                    23110562.465
        42.900          29.300
 121092448.624 7  94357798.40744  23043134.039                    23043138.785
        43.600          27.800
 124760476.340 7  97215899.12244  23741111.406                    23741117.137
        43.000          29.700
 117553600.948 8  91600220.35746  22369706.945                    22369710.148
        49.200          36.700
 125591360.322 7  97863416.30644  23899240.828                    23899245.273
        43.500          26.000
 18  3 13 12 57 46.0000000  0 17G10G11R08R09R07R15R16R17R23R24G24G01
                                G19G28G32G17G15
 118582723.327 7  92402157.38645  22565545.406                    22565552.996
        46.400          33.700
 118755132.720 7  92536491.53944  22598354.180                    22598357.527
        44.600          29.700
                  89621532.489 6  21517958.500                    21517960.375
                        39.400
                  93218896.877 6  22444592.180                    22444593.152
                        41.900
                  84469790.199 6  20288144.727                    20288147.680
                        40.800
                  89726181.860 5  21588470.570                    21588473.043
                        35.100
                  80317722.582 6  19331546.172                    19331548.188
                        38.700
                  86940975.000 6  20889000.570                    20889002.090
                        40.400
                  96573972.604 5  23211625.047                    23211629.547
                        30.300
                  85569960.116 5  20574019.656                    20574019.652
                        32.100
 110213556.402 8  85880587.28046  20972912.297                    20972918.223
        48.300          38.400
 117775653.206 7  91773260.74445  22411962.625                    22411969.832
        44.100          30.900
 121443761.700 7  94631536.27044  23109986.742                    23109987.945
        44.600          28.100
 121095670.153 7  94360308.69244  23043747.219                    23043752.023
        42.900          28.500
 124757741.412 7  97213768.01344  23740590.930                    23740596.582
        43.300          29.900
 117552075.799 8  91599031.93846  22369416.617                    22369419.715
        49.200          36.300
 125595397.313 7  97866562.00644  23900009.414                    23900013.156
        43.400          26.200
 18  3 13 12 57 47.0000000  0 17G10G11R08R09R07R15R16R17R23R24G24G01
                                G19G28G32G17G15
 118584785.984 7  92403764.65845  22565937.242                    22565945.309
        46.200          34.400
 118756651.445 7  92537674.95844  22598642.930                    22598646.246
        44.600          29.700
                  89619489.227 6  21517468.211                    21517469.605
                        39.500
                  93215938.885 7  22443879.461                    22443880.730
                        42.100
                  84470902.892 6  20288412.289                    20288414.551
                        41.100
                  89729514.236 5  21589271.742                    21589275.340
                        35.600
                  80317467.344 6  19331485.109                    19331486.590
                        38.700
                  86939175.498 6  20888568.719                    20888569.672
                        40.500
                  96577651.721 4  23212508.711                    23212513.629
                        29.900
                  85571457.348 5  20574379.773                    20574380.004
                        32.900
 110213136.083 8  85880259.77346  20972832.367                    20972838.328
        49.200          38.400
 117775190.357 7  91772900.08845  22411874.477                    22411881.555
        44.100          31.600
 121440743.119 7  94629184.12144  23109412.289                    23109413.199
        44.100          28.400
 121098892.019 7  94362819.22644  23044360.547                    23044365.574
        42.100          28.400
 124755006.868 7  97211637.19644  23740070.750                    23740076.453
        43.000          29.900
 117550551.207 8  91597843.94246  22369126.234                    22369129.527
        49.400          36.300
 125599434.610 7  97869707.94544  23900777.617                    23900781.531
        43.500          27.300
 18  3 13 12 57 48.0000000  0 17G10G11R08R09R07R15R16R17R23R24G24G01
                                G19G28G32G17G15
 118586849.230 7  92405372.39745  22566329.695                    22566337.938
        46.000          34.000
 118758170.882 7  92538858.93744  22598932.172                    22598935.305
        44.600          29.300
                  89617446.440 6  21516977.898                    21516978.977
                        39.100
                  93212981.057 7  22443166.734                    22443169.219
                        42.000
                  84472016.211 6  20288679.844                    20288682.723
                        40.900
                  89732846.910 5  21590072.852                    21590077.563
                        34.900
                  80317212.692 6  19331423.938                    19331425.895
                        38.900
                  86937376.548 6  20888136.172                    20888137.438
                        40.500
                  96581331.026 5  23213393.586                    23213398.336
                        30.700
                  85572955.228 5  20574738.359                    20574740.121
                        32.900
 110212716.359 8  85879932.72146  20972753.000                    20972758.590
        49.100          38.700
 117774728.164 7  91772539.93845  22411786.617                    22411793.875
        43.800          31.400
 121437724.813 6  94626832.18144  23108836.094                    23108839.301
        41.100          27.500
 121102114.140 6  94365329.95844  23044973.781                    23044978.543
        41.900          28.300
 124752272.586 7  97209506.58644  23739550.203                    23739555.988
        42.600          29.300
 117549027.083 8  91596656.32246  22368836.672                    22368839.676
        49.400          36.500
 125603472.070 7  97872854.01244  23901546.219                    23901549.641
        43.900          26.500
 18  3 13 12 57 49.0000000  0 17G10G11R08R09R07R15R16R17R23R24G24G01
                                G19G28G32G17G15
 118588913.049 7  92406980.60245  22566722.406                    22566730.242
        45.700          34.300
 118759690.985 7  92540043.45044  22599221.359                    22599224.531
        44.100          29.500
                  89615404.099 6  21516487.805                    21516487.652
                        39.000
                  93210023.425 7  22442454.625                    22442457.301
                        42.500
                  84473130.208 6  20288947.883                    20288949.844
                        40.800
                  89736179.858 5  21590874.172                    21590878.965
                        35.300
                  80316958.651 6  19331362.391                    19331364.613
                        39.100
                  86935578.156 6  20887704.148                    20887704.898
                        40.000
                  96585010.557 5  23214277.539                    23214282.402
                        31.600
                  85574453.785 5  20575099.203                    20575100.199
                        32.400
 110212297.262 8  85879606.15246  20972673.602                    20972678.570
        49.200          38.900
 117774266.622 7  91772180.30545  22411698.625                    22411706.152
        43.900          31.700
 121434706.910 7  94624480.60244  23108264.164                    23108264.340
        45.300          28.200
 121105336.548 7  94367840.90644  23045587.563                    23045591.926
        42.500          26.900
 124749538.649 7  97207376.25944  23739030.094                    23739035.684
        42.400          28.300
 117547503.448 8  91595469.08346  22368546.391                    22368549.551
        48.800          37.000
 125607509.729 7  97876000.22944  23902315.102                    23902318.227
        44.100          26.600
 18  3 13 12 57 50.0000000  0 17G10G11R08R09R07R15R16R17R23R24G24G01
                                G19G28G32G17G15
 118590977.514 7  92408589.31345  22567115.945                    22567123.262
        46.000          34.800
 118761211.816 7  92541228.51444  22599510.875                    22599513.641
        44.200          29.600
                  89613362.295 6  21515997.633                    21515997.367
                        38.900
                  93207066.021 7  22441741.594                    22441745.125
                        42.600
                  84474244.957 6  20289215.234                    20289217.738
                        40.900
                  89739513.144 5  21591676.797                    21591680.477
                        35.200
                  80316705.321 6  19331301.914                    19331303.238
                        38.900
                  86933780.360 6  20887272.430                    20887273.613
                        40.100
                  96588690.368 4  23215162.883                    23215167.184
                        29.800
                  85575953.073 5  20575460.047                    20575460.875
                        32.400
 110211878.857 8  85879280.12046  20972593.680                    20972598.832
        49.500          38.900
 117773805.880 7  91771821.28845  22411611.531                    22411618.602
        44.600          31.600
 121431689.499 7  94622129.37744  23107690.750                    23107690.574
        45.800          29.100
 121108559.312 7  94370352.14044  23046201.594                    23046205.020
        43.300          26.700
 124746805.104 7  97205246.24044  23738509.914                    23738515.648
        42.300          27.300
 117545980.402 8  91594282.29746  22368256.625                    22368259.855
        49.200          37.000
 125611547.639 7  97879146.64844  23903083.055                    23903086.340
        44.300          27.300
 18  3 13 12 57 51.0000000  0 17G10G11R08R09R07R15R16R17R23R24G24G01
                                G19G28G32G17G15
 118593042.622 7  92410198.52245  22567509.148                    22567516.219
        45.900          34.200
 118762733.372 7  92542414.14845  22599801.039                    22599803.512
        45.000          30.200
                  89611320.976 6  21515507.930                    21515507.180
                        39.100
                  93204108.832 7  22441029.586                    22441033.391
                        43.000
                  84475360.430 6  20289483.070                    20289485.219
                        40.700
                  89742846.696 5  21592480.070                    21592482.789
                        35.600
                  80316452.653 6  19331241.109                    19331243.109
                        38.700
                  86931983.102 6  20886840.586                    20886841.672
                        39.900
                  96592370.423 4  23216046.781                    23216051.551
                        29.900
                  85577453.047 5  20575821.063                    20575821.297
                        32.600
 110211461.130 8  85878954.60946  20972514.281                    20972519.895
        49.800          38.600
 117773345.820 7  91771462.79745  22411523.969                    22411530.746
        44.600          30.900
 121428672.433 7  94619778.39944  23107113.734                    23107116.641
        42.500          27.200
 121111782.380 7  94372863.61144  23046815.172                    23046818.617
        43.800          26.200
 124744071.904 6  97203116.47944  23737989.500                    23737995.285
        41.400          26.700
 117544457.895 8  91593095.92546  22367966.914                    22367969.855
        48.900          36.400
 125615585.803 7  97882293.27744  23903851.797                    23903855.453
        44.700          28.300
 18  3 13 12 57 52.0000000  0 17G10G11R08R09R07R15R16R17R23R24G24G01
                                G19G28G32G17G15
 118595108.381 7  92411808.23145  22567902.500                    22567909.379
        46.200          34.600
 118764255.684 7  92543600.37145  22600090.609                    22600093.020
        44.500          30.000
                  89609280.187 6  21515017.492                    21515016.820
                        39.200
                  93201151.897 7  22440318.633                    22440321.090
                        42.600
                  84476476.646 6  20289750.773                    20289753.602
                        40.800
                  89746180.622 5  21593281.000                    21593284.605
                        35.800
                  80316200.662 6  19331179.734                    19331181.980
                        38.500
                  86930186.461 6  20886408.031                    20886409.402
                        40.000
                  96596050.771 4  23216931.008                    23216936.352
                        29.700
                  85578953.780 5  20576182.094                    20576182.684
                        32.300
 110211044.104 8  85878629.65046  20972434.797                    20972440.109
        50.000          38.700
 117772886.548 7  91771104.92045  22411436.695                    22411443.500
        44.700          31.300
 121425655.818 7  94617427.80944  23106541.563                    23106542.180
        45.800          28.200
 121115005.813 7  94375375.37244  23047428.516                    23047431.879
        44.200          26.300
 124741339.127 6  97200987.05444  23737469.555                    23737474.844
        40.800          25.700
 117542935.988 8  91591910.02546  22367677.133                    22367680.504
        48.900          36.400
 125619624.259 7  97885440.12944  23904619.922                    23904623.961
        44.600          27.800
 18  3 13 12 57 53.0000000  0 17G10G11R08R09R07R15R16R17R23R24G24G01
                                G19G28G32G17G15
 118597174.726 7  92413418.39545  22568296.000                    22568302.348
        45.800          34.700
 118765778.704 7  92544787.15044  22600380.367                    22600382.758
        44.900          29.600
                  89607239.933 6  21514526.461                    21514527.715
                        39.400
                  93198195.135 7  22439606.734                    22439609.672
                        42.800
                  84477593.571 6  20290019.375                    20290021.957
                        40.900
                  89749514.853 5  21594083.016                    21594086.992
                        35.600
                  80315949.303 6  19331119.766                    19331121.246
                        38.500
                  86928390.394 6  20885976.742                    20885978.168
                        39.900
                  96599731.340 5  23217816.477                    23217820.922
                        31.500
                  85580455.169 5  20576541.992                    20576543.371
                        33.100
 110210627.711 8  85878305.18446  20972355.766                    20972361.461
        50.300          38.800
 117772427.964 7  91770747.57545  22411349.086                    22411356.285
        44.000          31.200
 121422639.670 7  94615077.55944  23105968.438                    23105968.684
        45.700          28.500
 121118229.550 7  94377887.38944  23048041.984                    23048045.410
        44.500          26.600
 124738606.669 6  97198857.86244  23736948.977                    23736954.902
        41.000          25.300
 117541414.568 8  91590724.50845  22367387.578                    22367391.016
        48.800          35.900
 125623662.918 7  97888587.13044  23905388.336                    23905392.410
        45.200          26.600
 18  3 13 12 57 54.0000000  0 17G10G11R08R09R07R15R16R17R23R24G24G01
                                G19G28G32G17G15
 118599241.739 7  92415029.07545  22568689.375                    22568695.523
        46.200          34.800
 118767302.513 7  92545974.55845  22600669.359                    22600672.547
        44.400          30.200
                  89605200.268 6  21514037.383                    21514038.152
                        39.900
                  93195238.646 7  22438895.039                    22438896.742
                        42.700
                  84478711.255 6  20290287.969                    20290290.473
                        41.100
                  89752849.448 5  21594885.805                    21594889.336
                        35.500
                  80315698.669 6  19331059.523                    19331061.320
                        38.700
                  86926594.975 6  20885545.148                    20885547.156
                        40.400
                  96603412.218 5  23218700.422                    23218705.352
                        32.200
                  85581957.318 5  20576902.438                    20576904.586
                        32.100
 110210212.041 8  85877981.27446  20972276.523                    20972282.145
        50.200          38.600
 117771970.194 7  91770390.86745  22411261.836                    22411269.258
        43.000          31.900
 121419623.913 7  94612727.58644  23105391.703                    23105395.398
        42.400          27.200
 121121453.665 7  94380399.69044  23048654.883                    23048658.668
        44.300          26.200
 124735874.685 6  97196729.04044  23736429.422                    23736434.840
        41.400          26.700
 117539893.759 8  91589539.46146  22367098.484                    22367101.363
        48.700          36.100
 125627701.887 7  97891734.37944  23906157.063                    23906161.109
        45.900          26.600
 18  3 13 12 57 55.0000000  0 17G10G11R08R09R07R15R16R17R23R24G24G01
                                G19G28G32G17G15
 118601309.346 7  92416640.20745  22569082.516                    22569089.066
        46.200          34.800
 118768826.990 7  92547162.47344  22600959.773                    22600963.367
        43.800          29.600
                  89603161.110 6  21513547.398                    21513548.871
                        40.000
                  93192282.352 7  22438183.695                    22438184.820
                        42.200
                  84479829.634 6  20290556.836                    20290558.484
                        41.000
                  89756184.348 5  21595687.516                    21595692.027
                        35.300
                  80315448.661 6  19330998.773                    19331001.203
                        38.500
                  86924800.144 6  20885114.281                    20885115.039
                        40.400
                  96607093.353 5  23219584.531                    23219590.477
                        30.700
                  85583460.138 5  20577264.367                    20577265.871
                        32.400
 110209797.019 8  85877657.87346  20972197.695                    20972202.996
        50.500          38.400
 117771513.106 7  91770034.70545  22411174.781                    22411182.438
        43.100          30.500
 121416608.497 7  94610377.93944  23104819.211                    23104820.418
        45.000          28.700
 121124678.066 7  94382912.21544  23049268.508                    23049272.297
        44.100          26.200
 124733143.032 7  97194600.47544  23735909.859                    23735915.203
        42.300          27.000
 117538373.470 8  91588354.82045  22366809.133                    22366812.258
        48.700          35.700
 125631741.102 7  97894881.82344  23906925.531                    23906929.680
        45.800          26.200
 18  3 13 12 57 56.0000000  0 17G10G11R08R09R07R15R16R17R23R24G24G01
                                G19G28G32G17G15
 118603377.570 7  92418251.80445  22569476.523                    22569482.258
        46.400          34.900
 118770352.238 7  92548350.98544  22601249.672                    22601253.004
        43.900          29.700
                  89601122.481 6  21513059.016                    21513059.895
                        39.900
                  93189326.257 6  22437471.414                    22437472.750
                        41.800
                  84480948.757 6  20290825.570                    20290827.684
                        40.900
                  89759519.540 5  21596490.055                    21596494.289
                        35.300
                  80315199.295 6  19330939.352                    19330941.008
                        38.900
                  86923005.902 6  20884683.156                    20884683.895
                        40.200
                  96610774.736 5  23220471.539                    23220474.820
                        30.400
                  85584963.695 5  20577626.516                    20577627.414
                        32.600
 110209382.667 8  85877334.99246  20972118.188                    20972124.234
        50.100          38.300
 117771056.764 7  91769679.13445  22411088.273                    22411095.766
        43.500          31.100
 121413593.607 7  94608028.68544  23104246.031                    23104247.039
        44.900          28.900
 121127902.838 7  94385425.02844  23049881.469                    23049885.652
        43.400          27.600
 124730411.755 7  97192472.18844  23735390.133                    23735395.465
        42.600          27.200
 117536853.741 8  91587170.61646  22366520.172                    22366522.973
        49.400          36.200
 125635780.514 7  97898029.41744  23907693.789                    23907698.340
        45.600          26.800
 18  3 13 12 57 57.0000000  0 17G10G11R08R09R07R15R16R17R23R24G24G01
                                G19G28G32G17G15
 118605446.434 7  92419863.90145  22569869.914                    22569876.188
        46.800          35.400
 118771878.186 7  92549540.02745  22601540.258                    22601543.559
        43.600          30.000
                  89599084.313 6  21512568.930                    21512570.457
                        39.900
                  93186370.401 6  22436760.320                    22436761.551
                        41.900
                  84482068.572 6  20291094.813                    20291097.031
                        41.000
                  89762855.055 5  21597293.492                    21597296.930
                        35.500
                  80314950.595 6  19330879.414                    19330881.070
                        39.100
                  86921212.204 6  20884252.086                    20884253.445
                        40.500
                  96614456.370 5  23221355.133                    23221360.074
                        31.000
                  85586467.976 5  20577988.641                    20577989.324
                        32.500
 110208968.986 8  85877012.63446  20972039.102                    20972045.523
        49.600          38.700
 117770601.132 7  91769324.11545  22411001.867                    22411009.207
        43.400          31.400
 121410579.016 7  94605679.65444  23103670.078                    23103673.926
        42.100          27.900
 121131127.902 7  94387938.05844  23050495.164                    23050499.219
        43.500          27.800
 124727680.858 7  97190344.21244  23734870.844                    23734875.816
        43.100          28.900
 117535334.562 8  91585986.84846  22366230.844                    22366234.398
        49.700          36.800
 125639820.194 7  97901177.20344  23908462.422                    23908467.082
        44.900          24.300
 18  3 13 12 57 58.0000000  0 17G10G11R08R09R07R15R16R17R23R24G24G01
                                G19G28G32G17G15
 118607515.876 7  92421476.45545  22570264.070                    22570270.395
        47.200          34.900
 118773404.848 7  92550729.62545  22601830.570                    22601834.195
        44.000          30.100
                  89597046.632 6  21512079.961                    21512081.750
                        39.700
                  93183414.693 6  22436049.516                    22436049.430
                        41.600
                  84483189.104 6  20291363.742                    20291365.727
                        40.800
                  89766190.871 5  21598096.109                    21598099.832
                        35.200
                  80314702.525 6  19330819.195                    19330821.191
                        39.000
                  86919419.103 6  20883821.273                    20883822.406
                        40.200
                  96618138.263 5  23222240.336                    23222244.734
                        31.000
                  85587972.963 5  20578350.016                    20578351.082
                        32.500
 110208555.945 8  85876690.77446  20971960.297                    20971967.090
        49.100          38.400
 117770146.205 7  91768969.64645  22410915.180                    22410922.500
        42.300          30.700
 121407564.888 7  94603331.00744  23103099.016                    23103099.523
        46.100          28.600
 121134353.279 7  94390451.33144  23051109.453                    23051113.172
        43.900          25.800
 124724950.282 7  97188216.48845  23734351.539                    23734356.277
        43.300          30.000
 117533815.911 8  91584803.49046  22365941.625                    22365945.105
        49.300          36.100
 125643860.105 7  97904325.19144  23909231.555                    23909236.020
        44.600          25.200
 18  3 13 12 57 59.0000000  0 17G10G11R08R09R07R15R16R17R23R24G24G01
                                G19G28G32G17G15
 118609585.979 7  92423089.52345  22570658.078                    22570664.328
        47.000          34.900
 118774932.245 7  92551919.80544  22602121.539                    22602124.594
        43.700          29.700
                  89595009.507 6  21511591.266                    21511592.473
                        39.700
                  93180459.229 6  22435337.883                    22435337.512
                        41.500
                  84484310.357 6  20291632.875                    20291635.484
                        40.800
                  89769527.024 5  21598898.469                    21598902.750
                        35.300
                  80314455.154 6  19330759.375                    19330761.461
                        39.100
                  86917626.604 6  20883390.711                    20883392.066
                        40.200
                  96621820.395 5  23223125.648                    23223129.906
                        31.500
                  85589478.636 5  20578712.117                    20578712.668
                        32.400
 110208143.584 8  85876369.45846  20971881.648                    20971888.445
        48.500          38.000
 117769692.047 7  91768615.77345  22410828.773                    22410836.121
        43.400          30.600
 121404551.220 7  94600982.69444  23102527.078                    23102526.316
        46.400          28.300
 121137578.980 7  94392964.85444  23051723.820                    23051726.664
        44.200          26.400
 124722220.134 7  97186089.08944  23733831.813                    23733837.156
        43.600          29.600
 117532297.807 8  91583620.56346  22365652.617                    22365655.977
        49.200          36.000
 125647900.271 7  97907473.35743  23910000.625                    23910004.637
        43.700          23.900
 18  3 13 12 58  0.0000000  0 17G10G11R08R09R07R15R16R17R23R24G24G01
                                G19G28G32G17G15
 118611656.734 7  92424703.11245  22571051.570                    22571058.648
        46.600          34.700
 118776460.362 7  92553110.55044  22602411.922                    22602415.719
        42.800          28.800
                  89592972.919 6  21511102.031                    21511103.133
                        39.400
                  93177503.984 6  22434626.086                    22434625.590
                        41.000
                  84485432.341 6  20291902.461                    20291904.410
                        41.000
                  89772863.521 5  21599700.375                    21599705.688
                        35.500
                  80314208.467 6  19330700.531                    19330702.703
                        38.900
                  86915834.688 6  20882960.234                    20882961.746
                        40.200
                  96625502.781 5  23224010.313                    23224014.844
                        32.200
                  85590985.047 5  20579074.195                    20579074.773
                        32.200
 110207731.899 7  85876048.67246  20971803.164                    20971810.305
        47.800          38.300
 117769238.634 7  91768262.47445  22410743.266                    22410750.098
        44.000          31.100
 121401537.945 7  94598634.66044  23101950.633                    23101953.742
        43.600          28.600
 121140805.055 7  94395478.66944  23052337.039                    23052340.273
        44.100          25.800
 124719490.325 7  97183961.95044  23733312.398                    23733317.875
        43.300          29.800
 117530780.291 8  91582438.08846  22365363.859                    22365367.305
        49.100          36.000
 125651940.699 7  97910621.74044  23910769.125                    23910773.660
        43.200          25.800
 18  3 13 12 58  1.0000000  0 17G10G11R08R09R07R15R16R17R23R24G24G01
                                G19G28G32G17G15
 118613728.059 7  92426317.15045  22571445.461                    22571452.789
        46.600          34.200
 118777989.170 7  92554301.83444  22602702.586                    22602706.297
        42.200          29.900
                  89590936.829 6  21510613.211                    21510613.699
                        39.100
                  93174548.935 6  22433914.508                    22433914.004
                        41.200
                  84486554.965 6  20292172.172                    20292174.047
                        40.800
                  89776200.231 5  21600503.523                    21600507.688
                        35.200
                  80313962.370 6  19330641.445                    19330643.191
                        38.700
                  86914043.307 6  20882529.500                    20882531.383
                        40.200
                  96629185.396 5  23224895.391                    23224900.172
                        32.700
                  85592492.105 5  20579436.258                    20579437.266
                        33.200
 110207320.833 7  85875728.37746  20971725.516                    20971732.031
        47.400          38.000
 117768785.860 7  91767909.67345  22410657.305                    22410663.930
        44.500          31.200
 121398524.934 7  94596286.85544  23101378.039                    23101379.211
        44.400          28.700
 121144031.346 7  94397992.65444  23052951.578                    23052954.594
        43.900          26.900
 124716760.863 7  97181835.09145  23732792.445                    23732798.445
        42.200          30.000
 117529263.223 8  91581255.96645  22365075.281                    22365078.402
        48.700          35.700
 125655981.278 7  97913770.25443  23911538.234                    23911542.586
        43.200          22.300
 18  3 13 12 58  2.0000000  0 17G10G11R08R09R07R15R16R17R23R24G24G01
                                G19G28G32G17G15
 118615800.066 7  92427931.71745  22571839.703                    22571846.680
        46.700          34.500
 118779518.772 6  92555493.72744  22602993.375                    22602997.270
        41.700          28.500
                  89588901.249 6  21510124.563                    21510124.957
                        39.100
                  93171594.127 6  22433202.859                    22433202.617
                        41.400
                  84487678.320 6  20292441.977                    20292443.914
                        40.900
                  89779537.338 5  21601306.484                    21601310.367
                        35.100
                  80313716.983 6  19330582.031                    19330583.637
                        38.900
                  86912252.589 6  20882099.602                    20882100.996
                        40.200
                  96632868.280 5  23225780.820                    23225784.832
                        31.300
                  85593999.895 5  20579798.805                    20579799.840
                        32.200
 110206910.513 8  85875408.66246  20971648.180                    20971653.680
        48.300          38.000
 117768333.916 7  91767557.51845  22410570.625                    22410577.613
        44.200          31.600
 121395512.556 7  94593939.55144  23100805.750                    23100806.961
        44.600          28.700
 121147258.050 7  94400506.97944  23053565.227                    23053568.270
        44.100          26.800
 124714031.762 6  97179708.53044  23732272.938                    23732279.457
        41.200          28.700
 117527746.790 8  91580074.33845  22364786.734                    22364789.648
        48.700          35.800
 125660022.218 7  97916919.03143  23912307.055                    23912311.332
        43.300          22.600
 18  3 13 12 58  3.0000000  0 17G10G11R08R09R07R15R16R17R23R24G24G01
                                G19G28G32G17G15
 118617872.680 7  92429546.74545  22572233.922                    22572241.191
        46.700          34.800
 118781049.125 7  92556686.20444  22603285.023                    22603288.328
        42.100          29.100
                  89586866.166 6  21509635.266                    21509636.234
                        38.800
                  93168639.501 6  22432492.523                    22432490.992
                        40.800
                  84488802.383 6  20292711.875                    20292714.066
                        40.700
                  89782874.707 5  21602109.492                    21602112.957
                        34.600
                  80313472.217 6  19330523.891                    19330525.867
                        39.000
                  86910462.423 6  20881669.445                    20881671.070
                        40.400
                  96636551.420 5  23226666.227                    23226670.313
                        32.500
                  85595508.347 5  20580161.281                    20580162.555
                        32.000
 110206500.825 8  85875089.43346  20971570.883                    20971575.840
        49.700          38.400
 117767882.634 7  91767205.88245  22410484.898                    22410491.773
        44.600          30.700
 121392500.445 6  94591592.44944  23100230.547                    23100233.438
        41.800          28.900
 121150485.010 7  94403021.49244  23054178.977                    23054182.465
        44.200          26.700
 124711303.070 6  97177582.30144  23731753.227                    23731760.203
        40.300          27.200
 117526230.834 8  91578893.08246  22364498.445                    22364501.469
        49.000          36.100
 125664063.336 7  97920067.94343  23913075.930                    23913080.199
        43.400          22.500
 18  3 13 12 58  4.0000000  0 17G10G11R08R09R07R15R16R17R23R24G24G01
                                G19G28G32G17G15
 118619945.881 7  92431162.22945  22572628.203                    22572635.930
        46.800          35.200
 118782580.139 7  92557879.19444  22603577.867                    22603579.723
        42.700          29.600
                  89584831.567 6  21509146.695                    21509147.332
                        38.400
                  93165685.050 6  22431781.047                    22431779.363
                        40.700
                  84489927.184 6  20292981.750                    20292984.328
                        40.700
                  89786212.372 5  21602913.094                    21602916.496
                        35.600
                  80313228.126 6  19330465.148                    19330466.484
                        38.700
                  86908672.853 6  20881239.555                    20881241.141
                        40.500
                  96640234.790 5  23227551.344                    23227555.934
                        31.500
                  85597017.515 5  20580524.773                    20580525.008
                        32.000
 110206091.823 8  85874770.72646  20971492.703                    20971497.891
        50.200          38.400
 117767432.073 7  91766854.80145  22410399.008                    22410405.891
        44.900          30.900
 121389488.718 7  94589245.67144  23099658.609                    23099659.855
        43.900          28.500
 121153712.325 7  94405536.28644  23054792.602                    23054796.453
        43.800          26.800
 124708574.651 6  97175456.27644  23731232.891                    23731241.020
        40.200          26.300
 117524715.446 8  91577712.26646  22364209.813                    22364213.023
        49.100          36.000
 125668104.689 7  97923217.05344  23913844.609                    23913849.660
        43.700          24.700
 18  3 13 12 58  5.0000000  0 17G10G11R08R09R07R15R16R17R23R24G24G01
                                G19G28G32G17G15
 118622019.771 7  92432778.24645  22573022.648                    22573030.586
        46.200          34.600
 118784111.895 7  92559072.75644  22603869.828                    22603871.074
        43.400          29.100
                  89582797.556 6  21508658.953                    21508658.238
                        38.500
                  93162730.892 6  22431068.672                    22431068.660
                        40.900
                  84491052.759 6  20293251.914                    20293254.867
                        40.900
                  89789550.388 5  21603716.438                    21603719.637
                        35.400
                  80312984.694 6  19330406.398                    19330407.977
                        38.800
                  86906883.870 6  20880809.398                    20880811.352
                        40.300
                  96643918.429 5  23228436.422                    23228441.027
                        32.100
                  85598527.427 5  20580888.000                    20580888.535
                        32.300
 110205683.521 8  85874452.55446  20971414.805                    20971420.195
        50.300          38.300
 117766982.286 7  91766504.31845  22410313.492                    22410320.758
        45.100          31.700
 121386477.498 7  94586899.28544  23099086.992                    23099087.754
        44.100          28.900
 121156940.014 7  94408051.37444  23055407.117                    23055410.590
        43.600          27.300
 124705846.712 6  97173330.62044  23730714.508                    23730721.840
        39.900          26.000
 117523200.626 8  91576531.89446  22363921.688                    22363924.926
        49.300          36.400
 125672146.322 7  97926366.38243  23914614.023                    23914618.363
        43.300          22.300
 18  3 13 12 58  6.0000000  0 17G10G11R08R09R07R15R16R17R23R24G24G01
                                G19G28G32G17G15
 118624094.237 7  92434394.71045  22573417.695                    22573424.535
        46.000          34.800
 118785644.328 7  92560266.85644  22604161.359                    22604162.492
        43.900          28.400
                  89580764.017 6  21508170.297                    21508170.031
                        38.800
                  93159776.898 6  22430357.703                    22430357.523
                        41.500
                  84492178.996 6  20293522.984                    20293524.836
                        40.800
                  89792888.699 5  21604519.117                    21604522.406
                        35.000
                  80312741.950 6  19330347.625                    19330349.707
                        38.900
                  86905095.470 6  20880379.945                    20880381.559
                        40.200
                  96647602.324 5  23229322.180                    23229326.543
                        32.500
                  85600038.025 5  20581250.727                    20581251.727
                        33.300
 110205275.830 8  85874134.86646  20971336.930                    20971342.465
        50.200          38.600
 117766533.174 7  91766154.36645  22410226.844                    22410235.078
        45.100          30.600
 121383466.628 7  94584553.16344  23098512.156                    23098514.492
        43.000          27.500
 121160168.001 7  94410566.67744  23056021.125                    23056024.949
        43.000          27.900
 124703119.064 6  97171205.20244  23730196.078                    23730202.605
        40.700          26.000
 117521686.321 8  91575351.92245  22363633.570                    22363636.242
        49.100          35.600
 125676188.189 7  97929515.90843  23915383.352                    23915387.875
        42.900          22.300
 18  3 13 12 58  7.0000000  0 17G10G11R08R09R07R15R16R17R23R24G24G01
                                G19G28G32G17G15
 118626169.332 7  92436011.66445  22573813.180                    22573819.715
        46.400          35.000
 118787177.468 7  92561461.51244  22604453.086                    22604454.293
        44.300          29.000
                  89578731.013 6  21507681.789                    21507682.152
                        38.900
                  93156823.139 6  22429645.070                    22429646.703
                        41.700
                  84493305.912 6  20293793.281                    20293796.102
                        40.900
                  89796227.319 5  21605322.305                    21605326.191
                        35.600
                  80312499.825 6  19330289.305                    19330291.156
                        38.900
                  86903307.643 6  20879950.531                    20879951.719
                        40.100
                  96651286.453 5  23230207.344                    23230212.324
                        33.100
                  85601549.360 5  20581613.461                    20581615.000
                        32.900
 110204868.796 8  85873817.68646  20971259.031                    20971265.203
        49.800          38.200
 117766084.822 7  91765804.99745  22410142.039                    22410149.637
        45.000          30.900
 121380456.163 7  94582207.35844  23097939.492                    23097940.746
        44.700          27.700
 121163396.280 7  94413082.20544  23056635.953                    23056639.613
        42.500          26.400
 124700391.811 6  97169080.07144  23729677.859                    23729683.285
        41.600          27.600
 117520172.561 8  91574172.37245  22363345.047                    22363348.605
        49.100          35.100
 125680230.262 7  97932665.58743  23916152.023                    23916156.746
        43.300          22.900
 18  3 13 12 58  8.0000000  0 17G10G11R08R09R07R15R16R17R23R24G24G01
                                G19G28G32G17G15
 118628245.034 7  92437629.08445  22574208.523                    22574214.461
        46.800          34.200
 118788711.382 7  92562656.76744  22604744.328                    22604746.418
        45.000          29.400
                  89576698.530 6  21507194.508                    21507194.531
                        39.400
                  93153869.622 7  22428934.023                    22428935.922
                        42.100
                  84494433.552 6  20294063.961                    20294066.578
                        40.900
                  89799566.244 5  21606126.242                    21606129.539
                        35.300
                  80312258.368 6  19330231.695                    19330233.023
                        38.500
                  86901520.420 6  20879521.125                    20879522.023
                        40.200
                  96654970.874 5  23231093.305                    23231097.531
                        33.400
                  85603061.382 5  20581977.195                    20581978.363
                        32.000
 110204462.438 8  85873501.04246  20971181.859                    20971187.688
        49.900          38.600
 117765637.153 7  91765456.17545  22410056.672                    22410064.336
        45.000          31.100
 121377446.195 7  94579861.93344  23097368.898                    23097368.867
        45.600          28.700
 121166624.910 7  94415598.01144  23057250.234                    23057253.848
        42.400          26.800
 124697664.975 7  97166955.26644  23729159.148                    23729164.379
        42.200          26.700
 117518659.344 8  91572993.24745  22363057.219                    22363060.469
        48.500          35.900
 125684272.628 7  97935815.49043  23916921.086                    23916926.047
        43.100          22.900
 18  3 13 12 58  9.0000000  0 17G10G11R08R09R07R15R16R17R23R24G24G01
                                G19G28G32G17G15
 118630321.460 7  92439247.06645  22574603.922                    22574609.859
        46.200          34.300
 118790246.090 7  92563852.64145  22605036.453                    22605038.141
        45.400          30.000
                  89574666.651 6  21506706.086                    21506707.594
                        39.300
                  93150916.360 7  22428222.984                    22428225.324
                        42.400
                  84495561.987 6  20294336.406                    20294337.820
                        41.000
                  89802905.541 5  21606929.539                    21606933.262
                        35.800
                  80312017.621 6  19330173.578                    19330174.957
                        38.900
                  86899733.830 6  20879092.008                    20879093.324
                        40.000
                  96658655.578 5  23231979.352                    23231983.023
                        33.300
                  85604574.148 5  20582341.391                    20582341.977
                        32.600
 110204056.834 8  85873184.99346  20971104.664                    20971110.293
        49.900          38.500
 117765190.317 7  91765107.99545  22409971.898                    22409979.234
        44.400          31.400
 121374436.675 7  94577516.82544  23096793.977                    23096796.160
        44.000          28.700
 121169853.957 7  94418114.13944  23057864.953                    23057868.539
        42.100          26.700
 124694938.601 7  97164830.80944  23728640.328                    23728645.188
        42.900          26.700
 117517146.736 8  91571814.59746  22362769.586                    22362772.703
        48.500          36.500
 125688315.276 7  97938965.61143  23917690.734                    23917695.180
        43.000          22.500
 18  3 13 12 58 10.0000000  0 17G10G11R08R09R07R15R16R17R23R24G24G01
                                G19G28G32G17G15
 118632398.512 7  92440865.53745  22574998.789                    22575005.047
        46.700          34.000
 118791781.529 7  92565049.09444  22605328.625                    22605330.324
        45.700          29.400
                  89572635.272 6  21506219.055                    21506220.414
                        39.300
                  93147963.341 7  22427511.250                    22427514.227
                        42.700
                  84496691.124 6  20294606.961                    20294608.734
                        41.000
                  89806245.181 5  21607732.633                    21607737.406
                        35.200
                  80311777.521 6  19330115.008                    19330117.676
                        38.800
                  86897947.813 6  20878663.047                    20878664.480
                        39.900
                  96662340.543 5  23232865.063                    23232869.039
                        33.200
                  85606087.577 5  20582705.570                    20582706.293
                        32.100
 110203651.907 8  85872869.46746  20971027.852                    20971033.328
        49.800          38.400
 117764744.178 7  91764760.35845  22409886.578                    22409894.668
        43.700          31.000
 121371427.525 7  94575172.02644  23096220.359                    23096223.066
        42.900          28.800
 121173083.301 7  94420630.49544  23058479.695                    23058483.211
        43.100          27.900
 124692212.576 7  97162706.62144  23728122.141                    23728126.719
        43.800          26.900
 117515634.694 8  91570636.38846  22362482.047                    22362485.543
        49.000          36.100
 125692358.177 7  97942115.91043  23918460.219                    23918464.469
        42.700          22.500
 18  3 13 12 58 11.0000000  0 17G10G11R08R09R07R15R16R17R23R24G24G01
                                G19G28G32G17G15
 118634476.191 7  92442484.50245  22575394.289                    22575400.621
        46.800          34.600
 118793317.671 7  92566246.09544  22605620.539                    22605622.762
        45.000          29.700
                  89570604.411 6  21505731.094                    21505733.129
                        39.200
                  93145010.512 7  22426800.094                    22426803.352
                        42.900
                  84497820.983 6  20294877.586                    20294880.059
                        40.800
                  89809585.118 5  21608537.313                    21608540.285
                        35.600
                  80311538.086 6  19330057.789                    19330059.227
                        38.700
                  86896162.394 6  20878233.523                    20878235.238
                        40.200
                  96666025.767 5  23233750.375                    23233755.035
                        33.400
                  85607601.744 5  20583069.906                    20583070.332
                        32.000
 110203247.651 8  85872554.46246  20970951.094                    20970956.691
        49.600          38.400
 117764298.725 7  91764413.24745  22409801.406                    22409809.469
        43.000          31.200
 121368418.854 7  94572827.61544  23095649.773                    23095650.270
        44.000          27.300
 121176313.013 7  94423147.14244  23059094.352                    23059097.820
        43.200          26.500
 124689486.910 7  97160582.70544  23727603.008                    23727607.559
        43.900          28.300
 117514123.184 8  91569458.58246  22362194.383                    22362197.594
        49.000          36.200
 125696401.335 7  97945266.42743  23919229.484                    23919233.902
        43.100          21.500
 18  3 13 12 58 12.0000000  0 17G10G11R08R09R07R15R16R17R23R24G24G01
                                G19G28G32G17G15
 118636554.487 7  92444103.95445  22575789.734                    22575796.012
        47.600          34.600
 118794854.540 7  92567443.67345  22605913.203                    22605915.352
        45.000          30.500
                  89568574.022 6  21505244.133                    21505245.402
                        39.500
                  93142057.937 7  22426089.758                    22426093.137
                        42.600
                  84498951.542 6  20295149.734                    20295151.566
                        40.800
                  89812925.356 5  21609338.797                    21609343.949
                        34.800
                  80311299.289 6  19330000.148                    19330001.863
                        38.400
                  86894377.555 6  20877804.484                    20877806.180
                        40.000
                  96669711.228 5  23234635.914                    23234640.273
                        33.500
                  85609116.597 5  20583434.461                    20583433.949
                        32.700
 110202844.052 8  85872239.97146  20970873.922                    20970879.699
        49.000          38.400
 117763854.010 7  91764066.72545  22409717.109                    22409725.102
        43.200          31.100
 121365410.531 7  94570483.46744  23095075.734                    23095077.887
        42.900          28.900
 121179542.999 7  94425663.99644  23059709.328                    23059712.660
        42.800          26.700
 124686761.564 7  97158459.03044  23727084.875                    23727089.035
        43.700          28.700
 117512612.215 8  91568281.20646  22361906.781                    22361909.922
        49.400          36.100
 125700444.720 7  97948417.11643  23919998.945                    23920002.762
        43.200          22.600
 18  3 13 12 58 13.0000000  0 17G10G11R08R09R07R15R16R17R23R24G24G01
                                G19G28G32G17G15
 118638633.349 7  92445723.85345  22576185.523                    22576191.477
        47.300          34.900
 118796392.112 7  92568641.79744  22606205.406                    22606207.688
        44.700          29.300
                  89566544.140 6  21504755.844                    21504757.652
                        39.800
                  93139105.465 7  22425379.141                    22425382.383
                        43.100
                  84500082.780 6  20295421.367                    20295423.180
                        40.700
                  89816265.904 5  21610143.555                    21610148.063
                        34.600
                  80311061.135 6  19329942.977                    19329944.461
                        38.500
                  86892593.274 6  20877376.297                    20877377.211
                        40.200
                  96673396.896 5  23235522.297                    23235526.406
                        33.500
                  85610632.127 5  20583798.813                    20583798.523
                        32.600
 110202441.054 8  85871925.94946  20970796.914                    20970803.250
        48.600          38.100
 117763409.992 7  91763720.75145  22409632.813                    22409640.234
        43.900          30.800
 121362402.570 7  94568139.61444  23094503.492                    23094505.641
        43.400          28.600
 121182773.279 7  94428181.09644  23060324.008                    23060327.543
        43.000          27.900
 124684036.546 7  97156335.60344  23726565.719                    23726570.496
        43.000          27.500
 117511101.732 8  91567104.20646  22361619.117                    22361622.520
        49.100          36.500
 125704488.293 7  97951567.96143  23920768.711                    23920772.582
        43.200          23.400
 18  3 13 12 58 14.0000000  0 17G10G11R08R09R07R15R16R17R23R24G24G01
                                G19G28G32G17G15
 118640712.861 7  92447344.26445  22576581.383                    22576587.266
        47.400          34.100
 118797930.427 7  92569840.50744  22606497.727                    22606500.684
        44.200          28.400
                  89564514.787 6  21504268.719                    21504270.965
                        39.300
                  93136153.287 7  22424669.055                    22424671.035
                        43.100
                  84501214.763 6  20295694.125                    20295695.355
                        40.900
                  89819606.752 5  21610947.320                    21610951.520
                        35.100
                  80310823.666 6  19329886.656                    19329887.770
                        38.500
                  86890809.619 6  20876947.672                    20876949.063
                        40.300
                  96677082.858 5  23236408.070                    23236412.523
                        33.500
                  85612148.387 5  20584163.648                    20584163.266
                        32.300
 110202038.742 8  85871612.45646  20970720.547                    20970726.633
        48.200          38.000
 117762966.758 7  91763375.39645  22409549.172                    22409555.988
        44.500          30.800
 121359395.105 7  94565796.14244  23093932.695                    23093933.172
        44.300          29.000
 121186003.909 7  94430698.46744  23060938.734                    23060942.383
        43.300          27.300
 124681311.949 7  97154212.51344  23726046.781                    23726052.059
        42.300          27.900
 117509591.854 8  91565927.67446  22361331.977                    22361335.289
        49.200          36.600
 125708532.146 7  97954719.01544  23921538.578                    23921541.785
        43.300          25.000
 18  3 13 12 58 15.0000000  0 17G10G11R08R09R07R15R16R17R23R24G24G01
                                G19G28G32G17G15
 118642793.007 7  92448965.15545  22576977.031                    22576983.168
        47.800          35.100
 118799469.487 7  92571039.77844  22606789.789                    22606793.293
        43.400          29.300
                  89562485.979 6  21503781.633                    21503783.250
                        39.000
                  93133201.324 7  22423959.727                    22423960.504
                        42.800
                  84502347.490 6  20295965.219                    20295967.387
                        40.800
                  89822947.919 5  21611750.836                    21611755.574
                        35.200
                  80310586.896 6  19329829.711                    19329830.598
                        38.500
                  86889026.539 6  20876519.203                    20876521.035
                        40.200
                  96680769.085 5  23237294.047                    23237298.539
                        33.800
                  85613665.385 5  20584526.578                    20584527.863
                        32.200
 110201637.109 7  85871299.50046  20970643.734                    20970650.531
        47.900          38.500
 117762524.255 7  91763030.60245  22409465.406                    22409471.387
        44.600          31.000
 121356388.035 7  94563452.97044  23093358.797                    23093360.887
        42.900          29.400
 121189234.903 7  94433216.12544  23061553.820                    23061557.031
        43.600          26.700
 124678587.694 6  97152089.70644  23725527.883                    23725533.832
        41.100          27.900
 117508082.502 8  91564751.55246  22361044.672                    22361047.531
        48.500          36.400
 125712576.259 7  97957870.27344  23922307.945                    23922311.539
        43.400          26.200
 18  3 13 12 58 16.0000000  0 17G10G11R08R09R07R15R16R17R23R24G24G01
                                G19G28G32G17G15
 118644873.829 7  92450586.57745  22577372.563                    22577379.457
        47.200          34.100
 118801009.347 7  92572239.66344  22607082.414                    22607086.285
        43.100          29.900
                  89560457.742 6  21503295.164                    21503296.301
                        38.500
                  93130249.616 7  22423248.672                    22423249.984
                        43.200
                  84503480.984 6  20296237.227                    20296239.836
                        41.100
                  89826289.429 5  21612555.469                    21612559.344
                        34.900
                  80310350.790 6  19329772.219                    19329773.730
                        38.400
                  86887244.091 6  20876090.469                    20876092.473
                        40.200
                  96684455.588 5  23238179.742                    23238184.641
                        33.600
                  85615183.129 5  20584890.867                    20584893.379
                        32.400
 110201236.191 8  85870987.11046  20970567.867                    20970573.871
        48.500          38.300
 117762082.514 7  91762686.39645  22409381.125                    22409387.508
        45.500          31.500
 121353381.438 7  94561110.16744  23092787.758                    23092788.977
        43.700          28.400
 121192466.241 7  94435734.04744  23062168.461                    23062172.031
        44.100          27.200
 124675863.913 6  97149967.28544  23725008.828                    23725015.961
        40.400          27.500
 117506573.740 8  91563575.88946  22360757.727                    22360760.805
        48.800          36.400
 125716620.660 7  97961021.76044  23923076.922                    23923081.402
        43.200          25.400
 18  3 13 12 58 17.0000000  0 17G10G11R08R09R07R15R16R17R23R24G24G01
                                G19G28G32G17G15
 118646955.256 7  92452208.46545  22577768.602                    22577775.430
        46.900          34.400
 118802549.892 7  92573440.07444  22607376.031                    22607379.285
        43.200          29.900
                  89558430.058 6  21502807.852                    21502809.078
                        38.500
                  93127298.106 7  22422538.898                    22422538.898
                        42.800
                  84504615.188 6  20296509.945                    20296512.473
                        41.000
                  89829631.235 5  21613359.516                    21613363.699
                        35.300
                  80310115.348 6  19329715.320                    19329717.664
                        38.500
                  86885462.232 6  20875663.102                    20875664.734
                        40.300
                  96688142.342 5  23239066.133                    23239070.656
                        33.300
                  85616701.527 5  20585256.305                    20585258.719
                        32.200
 110200835.958 8  85870675.24146  20970492.227                    20970497.766
        49.300          38.600
 117761641.518 7  91762342.76045  22409296.922                    22409303.496
        46.200          31.900
 121350375.222 7  94558767.66044  23092215.578                    23092216.395
        44.000          28.100
 121195697.887 7  94438252.21444  23062783.477                    23062787.184
        44.600          26.400
 124673140.500 6  97147845.16844  23724490.828                    23724497.484
        40.200          28.100
 117505065.506 8  91562400.62546  22360470.516                    22360473.504
        49.100          36.300
 125720665.284 7  97964173.40944  23923847.148                    23923851.293
        43.300          25.300
 18  3 13 12 58 18.0000000  0 17G10G11R08R09R07R15R16R17R23R24G24G01
                                G19G28G32G17G15
 118649037.356 7  92453830.86745  22578164.359                    22578171.551
        46.600          34.900
 118804091.236 7  92574641.10244  22607670.117                    22607672.898
        43.000          29.900
                  89556402.880 6  21502320.422                    21502321.988
                        38.300
                  93124346.847 7  22421827.766                    22421828.414
                        42.700
                  84505750.136 6  20296783.148                    20296784.836
                        40.700
                  89832973.393 5  21614163.344                    21614167.914
                        35.300
                  80309880.569 6  19329658.852                    19329661.000
                        38.700
                  86883680.984 6  20875235.172                    20875236.195
                        40.400
                  96691829.381 5  23239952.266                    23239956.410
                        34.200
                  85618220.656 5  20585622.805                    20585624.070
                        31.700
 110200436.434 8  85870363.93346  20970416.516                    20970421.504
        50.000          38.400
 117761201.294 7  91761999.72245  22409213.500                    22409219.664
        45.200          31.600
 121347369.478 7  94556425.51744  23091643.977                    23091645.039
        44.000          29.600
 121198929.910 7  94440770.66844  23063398.859                    23063402.199
        44.600          26.600
 124670417.457 6  97145723.35644  23723972.820                    23723979.539
        39.900          26.900
 117503557.864 8  91561225.82246  22360183.820                    22360186.742
        48.500          36.400
 125724710.190 7  97967325.26844  23924616.844                    23924620.637
        43.500          25.800
 18  3 13 12 58 19.0000000  0 17G10G11R08R09R07R15R16R17R23R24G24G01
                                G19G28G32G17G15
 118651120.146 7  92455453.79445  22578560.570                    22578568.336
        46.300          35.100
 118805633.286 7  92575842.70544  22607963.063                    22607966.410
        42.800          29.100
                  89554376.225 6  21501834.414                    21501835.297
                        38.000
                  93121395.851 7  22421117.438                    22421118.191
                        42.100
                  84506885.851 6  20297055.469                    20297057.938
                        40.700
                  89836315.894 5  21614968.688                    21614971.871
                        35.300
                  80309646.498 6  19329602.883                    19329604.445
                        38.600
                  86881900.354 6  20874807.430                    20874808.500
                        40.500
                  96695516.726 5  23240838.500                    23240843.625
                        33.400
                  85619740.522 5  20585986.813                    20585988.500
                        32.200
 110200037.631 8  85870053.17446  20970340.773                    20970345.605
        50.500          38.200
 117760761.831 7  91761657.26845  22409129.766                    22409135.973
        45.100          31.200
 121344364.203 7  94554083.73944  23091072.047                    23091073.121
        44.700          29.100
 121202162.290 7  94443289.41444  23064013.258                    23064017.098
        44.700          26.200
 124667694.882 6  97143601.91044  23723454.727                    23723461.266
        40.900          27.800
 117502050.842 8  91560051.51346  22359896.953                    22359900.324
        48.800          36.600
 125728755.407 7  97970477.38344  23925386.820                    23925390.246
        43.600          26.800
 18  3 13 12 58 20.0000000  0 17G10G11R08R09R07R15R16R17R23R24G24G01
                                G19G28G32G17G15
 118653203.517 7  92457077.18345  22578956.492                    22578964.070
        46.300          35.000
 118807176.071 7  92577044.88044  22608257.438                    22608260.082
        43.000          28.900
                  89552350.082 6  21501348.727                    21501348.250
                        38.500
                  93118445.037 7  22420407.016                    22420407.176
                        42.100
                  84508022.215 6  20297327.453                    20297330.910
                        40.900
                  89839658.664 5  21615772.641                    21615776.324
                        34.800
                  80309413.059 6  19329546.766                    19329548.426
                        38.900
                  86880120.299 6  20874379.797                    20874381.414
                        40.200
                  96699204.282 5  23241724.523                    23241729.375
                        34.200
                  85621261.067 5  20586353.141                    20586354.965
                        32.200
 110199639.462 8  85869742.90046  20970265.211                    20970270.215
        50.500          38.600
 117760323.098 7  91761315.38745  22409046.195                    22409052.598
        45.300          31.300
 121341359.244 7  94551742.20244  23090498.633                    23090501.383
        43.200          29.200
 121205394.996 7  94445808.41744  23064628.352                    23064632.371
        44.600          26.000
 124664972.640 6  97141480.69844  23722937.563                    23722943.664
        41.800          29.000
 117500544.344 8  91558877.61346  22359610.695                    22359613.520
        48.600          36.600
 125732800.843 7  97973629.66644  23926156.383                    23926160.582
        43.200          27.000
 18  3 13 12 58 21.0000000  0 17G10G11R08R09R07R15R16R17R23R24G24G01
                                G19G28G32G17G15
 118655287.515 7  92458701.04745  22579353.758                    22579361.012
        46.300          35.200
 118808719.595 7  92578247.61644  22608551.188                    22608553.840
        42.900          28.400
                  89550324.440 6  21500862.297                    21500861.824
                        38.600
                  93115494.445 6  22419696.328                    22419695.781
                        41.800
                  84509159.323 6  20297600.641                    20297603.703
                        40.800
                  89843001.738 5  21616577.258                    21616579.996
                        34.900
                  80309180.274 6  19329490.547                    19329492.457
                        38.800
                  86878340.854 6  20873951.570                    20873953.199
                        40.100
                  96702892.108 5  23242610.953                    23242615.809
                        33.700
                  85622782.364 5  20586717.680                    20586719.988
                        31.800
 110199242.009 8  85869433.18646  20970189.125                    20970194.590
        50.000          38.400
 117759885.083 7  91760974.08145  22408962.570                    22408969.047
        45.400          30.600
 121338354.774 7  94549401.06844  23089928.289                    23089929.617
        44.100          28.800
 121208628.010 7  94448327.65844  23065242.984                    23065247.758
        43.700          25.400
 124662250.780 7  97139359.78544  23722419.781                    23722425.813
        42.400          28.500
 117499038.389 8  91557704.14146  22359324.070                    22359327.172
        48.700          36.500
 125736846.495 7  97976782.11744  23926926.648                    23926930.180
        43.800          26.400
 18  3 13 12 58 22.0000000  0 17G10G11R08R09R07R15R16R17R23R24G24G01
                                G19G28G32G17G15
 118657372.064 7  92460325.34045  22579750.328                    22579757.477
        45.900          34.700
 118810263.810 7  92579450.90844  22608844.742                    22608847.516
        42.700          28.700
                  89548299.303 6  21500375.781                    21500376.059
                        39.400
                  93112544.048 6  22418985.141                    22418985.762
                        41.500
                  84510297.117 6  20297875.305                    20297877.324
                        40.900
                  89846345.133 5  21617382.031                    21617385.203
                        35.100
                  80308948.125 6  19329433.773                    19329436.078
                        38.700
                  86876561.961 6  20873524.102                    20873525.805
                        40.200
                  96706580.160 5  23243497.344                    23243502.637
                        33.100
                  85624304.324 5  20587085.719                    20587086.563
                        32.600
 110198845.150 8  85869123.93246  20970113.227                    20970118.965
        49.900          38.400
 117759447.756 7  91760633.32145  22408878.633                    22408885.449
        45.200          31.200
 121335350.678 7  94547060.21244  23089356.438                    23089357.707
        44.200          28.100
 121211861.325 7  94450847.12744  23065858.391                    23065862.754
        43.500          27.300
 124659529.260 7  97137239.10344  23721902.102                    23721908.051
        42.700          27.600
 117497532.929 8  91556531.05946  22359037.344                    22359040.680
        48.700          36.100
 125740892.363 7  97979934.73544  23927696.258                    23927700.555
        44.000          27.600
 18  3 13 12 58 23.0000000  0 17G10G11R08R09R07R15R16R17R23R24G24G01
                                G19G28G32G17G15
 118659457.301 7  92461950.16845  22580146.828                    22580154.539
        45.300          34.700
 118811808.733 7  92580654.75444  22609138.969                    22609141.387
        43.000          29.800
                  89546274.681 6  21499889.664                    21499890.484
                        39.600
                  93109593.849 6  22418274.414                    22418274.500
                        41.300
                  84511435.642 6  20298148.570                    20298150.414
                        40.900
                  89849688.834 5  21618186.484                    21618189.355
                        35.400
                  80308716.653 6  19329378.539                    19329380.445
                        38.600
                  86874783.648 6  20873097.086                    20873098.465
                        40.000
                  96710268.482 5  23244384.109                    23244388.699
                        32.800
                  85625827.015 5  20587451.406                    20587451.727
                        32.400
 110198448.979 8  85868815.22346  20970037.391                    20970043.367
        49.400          38.400
 117759011.173 7  91760293.14445  22408795.703                    22408803.082
        43.900          30.000
 121332346.938 7  94544719.63744  23088783.930                    23088786.020
        43.400          29.100
 121215094.944 7  94453366.81644  23066474.141                    23066477.977
        42.900          26.400
 124656808.153 7  97135118.72944  23721384.469                    23721390.016
        42.900          26.700
 117496028.004 8  91555358.38645  22358750.938                    22358754.246
        49.000          35.900
 125744938.488 7  97983087.55944  23928466.258                    23928470.359
        43.800          27.100
 18  3 13 12 58 24.0000000  0 17G10G11R08R09R07R15R16R17R23R24G24G01
                                G19G28G32G17G15
 118661543.112 7  92463575.44745  22580544.406                    22580551.352
        45.200          34.100
 118813354.370 7  92581859.14044  22609433.242                    22609435.848
        42.900          29.600
                  89544250.579 6  21499402.883                    21499404.941
                        39.800
                  93106643.849 6  22417564.156                    22417564.832
                        40.700
                  84512574.874 6  20298422.117                    20298424.543
                        40.900
                  89853032.839 5  21618990.453                    21618994.277
                        35.100
                  80308485.849 6  19329323.516                    19329325.609
                        38.600
                  86873005.902 6  20872670.734                    20872671.301
                        40.100
                  96713957.019 5  23245270.430                    23245275.113
                        31.900
                  85627350.412 5  20587816.078                    20587817.828
                        32.700
 110198053.425 8  85868506.99746  20969961.742                    20969968.348
        49.000          38.300
 117758575.266 7  91759953.49145  22408712.594                    22408719.855
        43.800          30.000
 121329343.652 7  94542379.42444  23088214.336                    23088214.168
        45.000          29.200
 121218328.887 7  94455886.75844  23067088.984                    23067093.094
        43.100          27.100
 124654087.375 7  97132998.62744  23720867.109                    23720872.641
        42.800          27.300
 117494523.631 8  91554186.13846  22358464.742                    22358467.824
        49.100          36.400
 125748984.826 7  97986240.54344  23929236.625                    23929240.617
        44.000          26.900
 18  3 13 12 58 25.0000000  0 17G10G11R08R09R07R15R16R17R23R24G24G01
                                G19G28G32G17G15
 118663629.626 7  92465201.27645  22580941.414                    22580948.629
        45.500          35.100
 118814900.791 7  92583064.13845  22609727.680                    22609729.844
        43.900          30.000
                  89542227.039 6  21498917.852                    21498919.684
                        39.700
                  93103694.142 6  22416853.008                    22416853.789
                        40.600
                  84513714.858 6  20298695.516                    20298697.617
                        40.900
                  89856377.187 5  21619794.906                    21619798.953
                        35.600
                  80308255.737 6  19329267.477                    19329269.035
                        38.400
                  86871228.805 6  20872243.172                    20872244.172
                        40.000
                  96717645.846 5  23246157.555                    23246161.512
                        32.600
                  85628874.526 5  20588184.586                    20588184.488
                        32.300
 110197658.587 8  85868199.33146  20969886.313                    20969893.406
        48.400          38.400
 117758140.114 7  91759614.41645  22408629.570                    22408637.027
        43.300          30.000
 121326340.833 7  94540039.56444  23087642.352                    23087643.344
        44.700          29.700
 121221563.224 7  94458407.02344  23067704.711                    23067708.559
        42.600          25.400
 124651366.995 7  97130878.82844  23720349.672                    23720354.441
        42.500          28.200
 117493019.853 8  91553014.35246  22358178.484                    22358181.879
        49.200          36.000
 125753031.479 7  97989393.77444  23930006.117                    23930010.656
        44.100          27.400
 18  3 13 12 58 26.0000000  0 17G10G11R08R09R07R15R16R17R23R24G24G01
                                G19G28G32G17G15
 118665716.775 7  92466827.60745  22581338.961                    22581345.523
        45.700          34.900
 118816447.952 7  92584269.72244  22610022.750                    22610024.582
        44.000          29.100
                  89540204.054 6  21498431.617                    21498434.074
                        40.200
                  93100744.599 6  22416142.930                    22416143.441
                        39.700
                  84514855.543 6  20298969.742                    20298971.238
                        40.700
                  89859721.827 5  21620599.641                    21620603.391
                        35.400
                  80308026.299 6  19329213.031                    19329214.605
                        38.700
                  86869452.302 6  20871816.102                    20871817.973
                        40.200
                  96721334.960 5  23247044.016                    23247048.535
                        32.600
                  85630399.362 5  20588550.813                    20588551.484
                        32.500
 110197264.396 7  85867892.17946  20969811.063                    20969817.984
        47.900          38.100
 117757705.674 7  91759275.89645  22408547.195                    22408554.219
        43.200          31.100
 121323338.403 7  94537700.00644  23087069.688                    23087072.313
        43.900          28.900
 121224797.847 7  94460927.50244  23068320.109                    23068324.148
        42.900          24.900
 124648647.006 6  97128759.34544  23719831.242                    23719837.020
        41.800          27.200
 117491516.595 8  91551842.96046  22357892.414                    22357895.473
        49.200          36.400
 125757078.340 7  97992547.16144  23930776.047                    23930780.828
        43.900          27.400
 18  3 13 12 58 27.0000000  0 17G10G11R08R09R07R15R16R17R23R24G24G01
                                G19G28G32G17G15
 118667804.567 7  92468454.44845  22581736.430                    22581742.629
        46.100          34.700
 118817995.806 7  92585475.84844  22610317.055                    22610318.969
        44.000          28.800
                  89538181.548 6  21497946.773                    21497948.141
                        39.800
                  93097795.321 6  22415432.523                    22415433.047
                        39.900
                  84515996.965 6  20299243.789                    20299245.910
                        40.800
                  89863066.816 5  21621404.320                    21621408.520
                        35.300
                  80307797.495 6  19329157.859                    19329159.340
                        39.200
                  86867676.382 6  20871389.094                    20871390.789
                        40.100
                  96725024.313 5  23247930.703                    23247935.090
                        32.400
                  85631924.905 5  20588917.211                    20588917.965
                        32.400
 110196870.884 7  85867585.56346  20969736.836                    20969743.301
        47.500          38.100
 117757272.002 7  91758937.97145  22408465.063                    22408471.367
        42.600          30.900
 121320336.400 7  94535360.79544  23086500.414                    23086500.574
        45.800          29.200
 121228032.836 7  94463448.27144  23068935.570                    23068939.371
        42.600          25.700
 124645927.411 6  97126640.16744  23719313.055                    23719319.105
        41.300          27.000
 117490013.905 8  91550672.01646  22357606.602                    22357609.715
        49.100          36.300
 125761125.467 7  97995700.74844  23931546.289                    23931550.930
        43.900          27.300
 18  3 13 12 58 28.0000000  0 17G10G11R08R09R07R15R16R17R23R24G24G01
                                G19G28G32G17G15
 118669893.001 7  92470081.79845  22582133.750                    22582140.402
        46.100          34.500
 118819544.428 7  92586682.57244  22610611.914                    22610613.570
        44.300          29.800
                  89536159.587 6  21497461.508                    21497462.902
                        39.300
                  93094846.243 6  22414723.242                    22414723.438
                        40.400
                  84517139.133 6  20299518.055                    20299520.074
                        40.800
                  89866412.111 5  21622209.438                    21622213.434
                        35.900
                  80307569.369 6  19329103.156                    19329104.371
                        38.800
                  86865901.049 6  20870962.484                    20870964.313
                        40.200
                  96728713.931 5  23248817.555                    23248822.195
                        32.200
                  85633451.188 5  20589284.219                    20589284.910
                        32.800
 110196478.050 8  85867279.46946  20969662.359                    20969668.328
        48.000          38.200
 117756839.070 7  91758600.61845  22408383.398                    22408389.168
        43.100          31.700
 121317334.866 7  94533021.92744  23085928.953                    23085929.957
        44.500          28.800
 121231268.172 7  94465969.30844  23069551.617                    23069555.148
        42.300          26.300
 124643208.152 6  97124521.26944  23718794.539                    23718801.660
        40.400          25.500
 117488511.790 8  91549501.51745  22357320.625                    22357323.902
        49.100          35.900
 125765172.865 7  97998854.56544  23932316.828                    23932321.211
        43.900          26.300
 18  3 13 12 58 29.0000000  0 17G10G11R08R09R07R15R16R17R23R24G24G01
                                G19G28G32G17G15
 118671982.068 7  92471709.64445  22582531.773                    22582538.320
        46.700          34.900
 118821093.742 7  92587889.84145  22610906.273                    22610908.414
        44.800          30.900
                  89534138.145 6  21496975.555                    21496977.586
                        38.900
                  93091897.421 6  22414013.391                    22414013.598
                        41.000
                  84518282.016 6  20299792.266                    20299794.555
                        40.900
                  89869757.725 5  21623013.797                    21623018.004
                        35.800
                  80307341.906 6  19329048.813                    19329049.250
                        39.200
                  86864126.313 6  20870536.984                    20870537.809
                        40.200
                  96732403.787 5  23249704.016                    23249708.941
                        32.100
                  85634978.169 5  20589651.195                    20589652.199
                        32.900
 110196085.908 8  85866973.91846  20969588.523                    20969593.391
        48.900          38.300
 117756406.816 7  91758263.78645  22408300.758                    22408306.297
        43.900          31.400
 121314333.686 6  94530683.32344  23085355.570                    23085359.504
        41.800          29.100
 121234503.813 7  94468490.58044  23070167.641                    23070171.105
        42.300          27.500
 124640489.273 6  97122402.66944  23718277.641                    23718283.984
        39.400          25.900
 117487010.209 8  91548331.43746  22357034.625                    22357038.188
        48.900          36.500
 125769220.515 7  98002008.57044  23933087.117                    23933091.527
        43.700          25.800
 18  3 13 12 58 30.0000000  0 17G10G11R08R09R07R15R16R17R23R24G24G01
                                G19G28G32G17G15
 118674071.729 7  92473337.95245  22582929.531                    22582935.313
        46.800          35.100
 118822643.804 7  92589097.69545  22611201.586                    22611203.699
        44.600          30.200
                  89532117.249 6  21496490.500                    21496491.637
                        38.900
                  93088948.796 6  22413303.813                    22413303.426
                        41.800
                  84519425.614 6  20300066.945                    20300069.516
                        40.800
                  89873103.660 5  21623819.711                    21623822.953
                        35.300
                  80307115.078 6  19328992.898                    19328995.043
                        39.200
                  86862352.181 6  20870109.953                    20870111.523
                        40.400
                  96736093.884 5  23250591.234                    23250595.465
                        32.400
                  85636505.852 5  20590019.156                    20590019.750
                        33.000
 110195694.452 8  85866668.89046  20969514.031                    20969519.078
        49.100          38.300
 117755975.297 7  91757927.51645  22408219.164                    22408224.563
        44.600          32.300
 121311332.918 7  94528345.07944  23084786.164                    23084787.113
        45.000          28.600
 121237739.776 7  94471012.09844  23070784.016                    23070786.965
        42.300          27.200
 124637770.764 6  97120284.35544  23717760.031                    23717766.527
        39.900          25.300
 117485509.174 8  91547161.78145  22356749.391                    22356752.652
        48.500          35.900
 125773268.397 7  98005162.74944  23933857.094                    23933861.637
        43.500          26.500
 18  3 13 12 58 31.0000000  0 17G10G11R08R09R07R15R16R17R23R24G24G01
                                G19G28G32G17G15
 118676162.005 7  92474966.73945  22583327.344                    22583333.563
        46.700          34.800
 118824194.601 7  92590306.12644  22611496.328                    22611499.156
        44.700          29.700
                  89530096.853 6  21496004.906                    21496006.770
                        38.200
                  93086000.393 6  22412594.344                    22412594.121
                        41.900
                  84520569.926 6  20300343.391                    20300343.645
                        40.900
                  89876449.881 5  21624624.719                    21624627.891
                        34.900
                  80306888.925 6  19328939.438                    19328940.582
                        38.700
                  86860578.644 6  20869683.938                    20869685.258
                        40.300
                  96739784.243 5  23251477.852                    23251482.625
                        30.000
                  85638034.241 5  20590385.805                    20590387.066
                        33.300
 110195303.667 8  85866364.38346  20969439.742                    20969444.953
        49.000          38.100
 117755544.533 7  91757591.82445  22408137.023                    22408142.387
        44.500          30.800
 121308332.613 7  94526007.19144  23084216.039                    23084216.785
        44.600          28.600
 121240976.113 7  94473533.91244  23071400.023                    23071402.262
        42.700          26.700
 124635052.671 6  97118166.38144  23717243.539                    23717249.684
        40.500          26.800
 117484008.688 8  91545992.55846  22356463.719                    22356467.090
        48.500          36.100
 125777316.490 7  98008317.10744  23934627.406                    23934632.121
        43.500          25.100
 18  3 13 12 58 32.0000000  0 17G10G11R08R09R07R15R16R17R23R24G24G01
                                G19G28G32G17G15
 118678252.926 7  92476596.03145  22583724.617                    22583731.188
        47.200          34.800
 118825746.036 7  92591515.04444  22611791.141                    22611794.086
        44.400          29.300
                  89528076.952 6  21495521.164                    21495521.117
                        38.400
                  93083052.166 7  22411884.813                    22411885.129
                        42.100
                  84521714.910 6  20300617.008                    20300619.613
                        40.900
                  89879796.398 5  21625430.492                    21625433.641
                        35.300
                  80306663.399 6  19328884.328                    19328886.500
                        38.900
                  86858805.674 6  20869258.688                    20869258.914
                        40.400
                  96743474.844 5  23252365.609                    23252369.547
                        31.700
                  85639563.332 5  20590754.219                    20590754.832
                        32.900
 110194913.515 8  85866060.35946  20969365.414                    20969370.648
        49.300          38.400
 117755114.512 7  91757256.72145  22408054.922                    22408060.957
        44.300          31.500
 121305332.662 7  94523669.55644  23083643.297                    23083645.891
        43.000          29.100
 121244212.690 7  94476055.90444  23072016.328                    23072018.363
        43.700          27.700
 124632334.932 6  97116048.68344  23716726.289                    23716732.539
        40.700          27.500
 117482508.717 8  91544823.74246  22356178.273                    22356181.535
        48.500          36.800
 125781364.828 7  98011471.65544  23935397.453                    23935402.363
        43.700          25.000
 18  3 13 12 58 33.0000000  0 17G10G11R08R09R07R15R16R17R23R24G24G01
                                G19G28G32G17G15
 118680344.459 7  92478225.80245  22584122.469                    22584129.156
        46.600          35.000
 118827298.233 7  92592724.54044  22612085.875                    22612089.363
        43.900          29.600
                  89526057.530 6  21495035.797                    21495036.109
                        38.300
                  93080104.175 7  22411175.156                    22411175.535
                        42.500
                  84522860.617 6  20300891.750                    20300894.758
                        40.900
                  89883143.235 5  21626235.188                    21626238.480
                        35.000
                  80306438.542 6  19328830.125                    19328832.160
                        39.100
                  86857033.284 6  20868832.469                    20868833.277
                        40.200
                  96747165.683 5  23253251.461                    23253256.430
                        31.800
                  85641093.070 5  20591122.914                    20591123.133
                        33.000
 110194524.033 8  85865756.86646  20969291.281                    20969296.313
        49.500          38.300
 117754685.219 7  91756922.19345  22407973.266                    22407979.336
        44.500          31.200
 121302333.125 7  94521332.26444  23083074.391                    23083074.617
        45.300          28.200
 121247449.583 7  94478578.15244  23072632.617                    23072634.633
        44.300          27.600
 124629617.603 6  97113931.30044  23716209.906                    23716215.391
        41.400          26.500
 117481009.293 8  91543655.34946  22355893.172                    22355896.035
        48.800          36.200
 125785413.368 7  98014626.35343  23936168.211                    23936173.023
        43.300          22.800
 18  3 13 12 58 34.0000000  0 17G10G11R08R09R07R15R16R17R23R24G24G01
                                G19G28G32G17G15
 118682436.646 7  92479856.09745  22584520.180                    22584527.496
        46.500          34.700
 118828851.146 7  92593934.59244  22612381.945                    22612385.258
        43.700          29.400
                  89524038.639 6  21494550.352                    21494551.246
                        38.700
                  93077156.393 7  22410465.422                    22410466.488
                        42.600
                  84524007.068 6  20301166.852                    20301169.977
                        41.100
                  89886490.407 5  21627040.117                    21627044.496
                        35.700
                  80306214.363 6  19328776.914                    19328778.613
                        39.100
                  86855261.469 6  20868406.945                    20868407.914
                        40.200
                  96750856.794 5  23254139.273                    23254143.867
                        32.500
                  85642623.554 5  20591489.922                    20591490.184
                        33.100
 110194135.237 8  85865453.90146  20969217.344                    20969222.371
        49.300          38.600
 117754256.612 7  91756588.21845  22407891.273                    22407897.660
        44.600          30.700
 121299334.082 7  94518995.33944  23082503.375                    23082504.609
        43.900          28.300
 121250686.816 7  94481100.67844  23073247.836                    23073250.422
        44.600          27.700
 124626900.608 6  97111814.17544  23715692.648                    23715698.344
        41.400          27.000
 117479510.409 8  91542487.36946  22355607.773                    22355610.660
        48.700          36.100
 125789462.205 7  98017781.28844  23936938.422                    23936943.301
        43.200          24.200
 18  3 13 12 58 35.0000000  0 17G10G11R08R09R07R15R16R17R23R24G24G01
                                G19G28G32G17G15
 118684529.410 7  92481486.83945  22584919.008                    22584925.895
        46.300          34.700
 118830404.790 7  92595145.22144  22612677.508                    22612680.785
        43.900          29.600
                  89522020.282 6  21494065.016                    21494066.285
                        39.000
                  93074208.836 7  22409756.242                    22409756.969
                        43.200
                  84525154.228 6  20301443.320                    20301445.465
                        41.100
                  89889837.906 5  21627845.008                    21627849.594
                        34.900
                  80305990.813 6  19328723.500                    19328724.824
                        38.800
                  86853490.220 6  20867981.633                    20867982.559
                        40.200
                  96754548.144 5  23255026.609                    23255030.965
                        31.900
                  85644154.686 5  20591858.508                    20591858.602
                        33.000
 110193747.090 8  85865151.43546  20969143.242                    20969148.969
        49.300          39.000
 117753828.732 7  91756254.81245  22407809.695                    22407816.660
        44.000          30.300
 121296335.342 6  94516658.62844  23081930.266                    23081934.047
        41.100          28.000
 121253924.352 7  94483623.43444  23073864.750                    23073866.762
        45.400          28.300
 124624183.983 6  97109697.32944  23715176.000                    23715181.164
        41.900          27.500
 117478012.047 8  91541319.79146  22355322.844                    22355326.117
        48.800          36.800
 125793511.247 7  98020936.39144  23937708.516                    23937713.551
        43.900          24.700
 18  3 13 12 58 36.0000000  0 17G10G11R08R09R07R15R16R17R23R24G24G01
                                G19G28G32G17G15
 118686622.846 7  92483118.09345  22585316.617                    22585323.918
        46.400          34.500
 118831959.133 7  92596356.39844  22612973.500                    22612976.371
        44.500          29.400
                  89520002.454 6  21493582.156                    21493581.832
                        38.700
                  93071261.504 7  22409046.078                    22409047.480
                        42.700
                  84526302.095 6  20301719.727                    20301720.820
                        41.200
                  89893185.668 5  21628651.352                    21628655.270
                        35.600
                  80305767.932 6  19328669.492                    19328671.160
                        39.000
                  86851719.604 6  20867555.820                    20867556.691
                        40.200
                  96758239.730 5  23255914.242                    23255918.453
                        31.600
                  85645686.510 5  20592226.336                    20592227.145
                        33.000
 110193359.612 8  85864849.50646  20969068.938                    20969075.168
        49.300          38.100
 117753401.619 7  91755922.00545  22407728.445                    22407735.441
        44.800          31.100
 121293337.029 7  94514322.29344  23081362.188                    23081362.648
        44.200          27.900
 121257162.233 7  94486146.46244  23074479.641                    23074483.027
        45.300          28.300
 124621467.705 6  97107580.75244  23714659.375                    23714664.730
        41.800          27.000
 117476514.252 8  91540152.66146  22355037.992                    22355040.992
        49.200          36.600
 125797560.535 7  98024091.67044  23938479.883                    23938484.422
        43.700          24.200
 18  3 13 12 58 37.0000000  0 17G10G11R08R09R07R15R16R17R23R24G24G01
                                G19G28G32G17G15
 118688716.914 7  92484749.84645  22585714.711                    22585722.461
        46.000          34.600
 118833514.234 7  92597568.16944  22613269.273                    22613272.648
        43.700          29.900
                  89517985.187 6  21493097.586                    21493098.051
                        39.000
                  93068314.414 7  22408336.203                    22408337.621
                        42.900
                  84527450.699 6  20301994.570                    20301997.000
                        41.000
                  89896533.765 5  21629457.195                    21629460.418
                        35.100
                  80305545.700 6  19328615.398                    19328617.586
                        39.100
                  86849949.584 6  20867130.125                    20867131.887
                        40.200
                  96761931.614 5  23256800.883                    23256806.027
                        31.700
                  85647219.103 5  20592594.367                    20592595.555
                        32.900
 110192972.827 8  85864548.11246  20968995.250                    20969001.496
        49.100          38.300
 117752975.221 7  91755589.75045  22407647.109                    22407654.398
        44.400          30.400
 121290339.229 7  94511986.35944  23080791.461                    23080793.242
        44.100          27.900
 121260400.438 7  94488669.74744  23075096.063                    23075099.609
        45.300          27.000
 124618751.840 6  97105464.48044  23714141.906                    23714147.922
        40.800          27.300
 117475017.000 8  91538985.94946  22354753.055                    22354756.301
        48.800          36.500
 125801610.087 7  98027247.16444  23939249.828                    23939254.547
        43.600          24.100
 18  3 13 12 58 38.0000000  0 17G10G11R08R09R07R15R16R17R23R24G24G01
                                G19G28G32G17G15
 118690811.628 7  92486382.09545  22586112.820                    22586120.914
        45.900          34.400
 118835070.088 7  92598780.52344  22613564.539                    22613568.785
        42.600          28.700
                  89515968.469 6  21492613.688                    21492614.453
                        39.000
                  93065367.526 7  22407626.734                    22407628.781
                        42.600
                  84528600.035 6  20302271.242                    20302273.527
                        40.900
                  89899882.188 5  21630262.266                    21630266.113
                        35.300
                  80305324.167 6  19328562.516                    19328563.973
                        39.000
                  86848180.183 6  20866705.195                    20866706.277
                        40.300
                  96765623.719 5  23257688.398                    23257693.160
                        31.700
                  85648752.409 5  20592963.500                    20592964.953
                        33.100
 110192586.699 8  85864247.23446  20968921.594                    20968928.070
        48.900          38.700
 117752549.563 7  91755258.07645  22407565.781                    22407573.176
        43.500          31.000
 121287341.804 7  94509650.69944  23080219.648                    23080222.648
        43.000          28.100
 121263638.988 7  94491193.29544  23075712.031                    23075715.926
        45.200          26.400
 124616036.348 6  97103348.50344  23713625.063                    23713631.141
        40.400          26.800
 117473520.279 8  91537819.64146  22354467.438                    22354471.020
        48.700          36.000
 125805659.874 7  98030402.83743  23940020.977                    23940025.449
        44.200          22.800
 18  3 13 12 58 39.0000000  0 17G10G11R08R09R07R15R16R17R23R24G24G01
                                G19G28G32G17G15
 118692906.961 7  92488014.81645  22586512.352                    22586519.375
        45.700          34.700
 118836626.684 7  92599993.45744  22613860.688                    22613864.746
        42.900          29.700
                  89513952.303 6  21492129.164                    21492130.258
                        39.400
                  93062420.889 7  22406917.742                    22406918.438
                        42.300
                  84529750.085 6  20302547.930                    20302548.883
                        40.800
                  89903230.938 5  21631067.992                    21631072.266
                        35.000
                  80305103.305 6  19328509.242                    19328511.215
                        38.900
                  86846411.377 6  20866280.461                    20866281.625
                        40.200
                  96769316.113 5  23258575.758                    23258580.371
                        31.400
                  85650286.462 5  20593331.695                    20593333.168
                        32.400
 110192201.248 8  85863946.88446  20968848.391                    20968854.434
        49.100          38.200
 117752124.658 7  91754927.00445  22407485.172                    22407491.949
        44.300          31.300
 121284344.798 7  94507315.38944  23079650.984                    23079651.492
        45.100          27.600
 121266877.889 7  94493717.13044  23076327.641                    23076332.172
        44.700          27.200
 124613321.209 6  97101232.79344  23713107.602                    23713114.840
        40.400          25.800
 117472024.151 8  91536653.77646  22354183.523                    22354186.449
        49.200          36.300
 125809709.944 7  98033558.74143  23940791.766                    23940796.039
        44.300          22.600
 18  3 13 12 58 40.0000000  0 17G10G11R08R09R07R15R16R17R23R24G24G01
                                G19G28G32G17G15
 118695002.934 7  92489648.02745  22586911.797                    22586918.828
        45.900          34.700
 118838184.060 7  92601206.98944  22614157.164                    22614160.980
        42.900          29.400
                  89511936.652 6  21491645.875                    21491647.078
                        39.400
                  93059474.502 7  22406207.719                    22406209.238
                        42.300
                  84530900.865 6  20302824.156                    20302825.598
                        41.200
                  89906580.025 5  21631873.063                    21631877.480
                        34.800
                  80304883.137 6  19328456.922                    19328457.906
                        39.200
                  86844643.183 6  20865855.961                    20865857.250
                        40.200
                  96773008.735 5  23259463.594                    23259468.520
                        31.200
                  85651821.215 5  20593701.227                    20593701.875
                        32.800
 110191816.482 8  85863647.07846  20968775.164                    20968781.383
        49.200          38.400
 117751700.480 7  91754596.49045  22407404.914                    22407411.645
        45.300          31.400
 121281348.309 7  94504980.45444  23079080.672                    23079082.301
        44.500          28.800
 121270117.133 7  94496241.22344  23076943.977                    23076948.383
        44.100          27.500
 124610606.483 6  97099117.43144  23712590.938                    23712598.008
        40.500          25.000
 117470528.658 8  91535488.42546  22353898.703                    22353902.168
        49.300          36.600
 125813760.269 7  98036714.83943  23941562.227                    23941566.395
        44.300          22.800
 18  3 13 12 58 41.0000000  0 17G10G11R08R09R07R15R16R17R23R24G24G01
                                G19G28G32G17G15
 118697099.556 7  92491281.74745  22587311.125                    22587317.559
        46.300          34.500
 118839742.139 7  92602421.06744  22614454.508                    22614457.328
        43.200          29.400
                  89509921.537 6  21491161.984                    21491162.691
                        39.500
                  93056528.316 7  22405498.273                    22405499.566
                        42.100
                  84532052.360 6  20303099.992                    20303102.191
                        41.100
                  89909929.419 5  21632679.852                    21632683.324
                        35.000
                  80304663.610 6  19328403.148                    19328404.895
                        39.200
                  86842875.613 6  20865431.203                    20865432.297
                        40.400
                  96776701.620 5  23260351.000                    23260355.805
                        30.500
                  85653356.668 5  20594071.008                    20594071.809
                        33.300
 110191432.433 8  85863347.82346  20968702.492                    20968708.223
        49.300          38.100
 117751277.075 7  91754266.57545  22407324.844                    22407331.020
        46.000          31.300
 121278352.149 7  94502645.77244  23078509.203                    23078511.953
        43.100          29.100
 121273356.725 7  94498765.57844  23077560.492                    23077565.012
        43.700          24.800
 124607892.164 6  97097002.39244  23712074.750                    23712081.582
        41.200          26.900
 117469033.762 8  91534323.56146  22353614.195                    22353617.703
        49.500          36.000
 125817810.856 7  98039871.14243  23942333.719                    23942337.711
        44.600          22.500
 18  3 13 12 58 42.0000000  0 17G10G11R08R09R07R15R16R17R23R24G24G01
                                G19G28G32G17G15
 118699196.754 7  92492915.91445  22587710.320                    22587716.672
        46.400          34.200
 118841300.927 7  92603635.69444  22614751.117                    22614754.438
        43.000          29.000
                  89507906.883 6  21490678.313                    21490679.262
                        39.800
                  93053582.343 6  22404787.555                    22404790.035
                        41.600
                  84533204.557 6  20303376.078                    20303378.773
                        41.000
                  89913279.066 5  21633486.328                    21633489.211
                        35.800
                  80304444.720 6  19328350.859                    19328352.449
                        39.500
                  86841108.574 6  20865006.883                    20865007.484
                        40.200
                  96780394.709 4  23261239.063                    23261243.969
                        29.600
                  85654892.813 5  20594439.203                    20594440.559
                        32.800
 110191049.009 8  85863049.05446  20968629.367                    20968635.172
        49.600          38.500
 117750854.315 7  91753937.14945  22407244.625                    22407250.367
        46.100          31.100
 121275356.415 7  94500311.43844  23077940.523                    23077941.023
        44.900          29.100
 121276596.597 7  94501290.16144  23078176.719                    23078181.363
        43.100          26.700
 124605178.150 6  97094887.59544  23711558.078                    23711565.113
        40.900          25.000
 117467539.351 8  91533159.10145  22353329.781                    22353333.262
        49.500          35.800
 125821861.653 7  98043027.60843  23943104.305                    23943108.500
        44.400          22.300
 18  3 13 12 58 43.0000000  0 17G10G11R08R09R07R15R16R17R23R24G24G01
                                G19G28G32G17G15
 118701294.617 7  92494550.61245  22588109.891                    22588116.016
        46.400          34.300
 118842860.419 7  92604850.88044  22615048.891                    22615051.258
        44.000          29.800
                  89505892.789 6  21490194.297                    21490195.492
                        39.300
                  93050636.603 6  22404078.180                    22404080.082
                        41.600
                  84534357.498 6  20303653.609                    20303656.512
                        41.200
                  89916629.047 5  21634291.898                    21634295.313
                        35.700
                  80304226.487 6  19328298.305                    19328299.926
                        38.900
                  86839342.131 6  20864582.148                    20864583.504
                        40.000
                  96784088.085 4  23262126.398                    23262131.172
                        28.200
                  85656429.660 5  20594809.844                    20594810.484
                        32.600
 110190666.277 8  85862750.81946  20968556.789                    20968562.668
        49.600          38.400
 117750432.352 7  91753608.32245  22407164.250                    22407170.098
        47.100          32.100
 121272361.170 7  94497977.46144  23077370.500                    23077372.195
        43.600          27.900
 121279836.817 7  94503814.99944  23078793.633                    23078798.164
        43.400          26.300
 124602464.532 6  97092773.10144  23711042.266                    23711048.402
        40.900          25.500
 117466045.488 8  91531995.06846  22353045.406                    22353049.250
        49.500          36.000
 125825912.670 7  98046184.25443  23943875.102                    23943879.188
        44.600          22.500
