     2.11           OBSERVATION DATA    M (MIXED)           RINEX VERSION / TYPE
teqc  2018Mar15                         20180319 14:17:32UTCPGM / RUN BY / DATE
Linux 2.6.32-573.12.1.x86_64|x86_64|gcc -static|Linux 64|=+ COMMENT
END OF STATIC MODE OBSERVATION                              COMMENT
BIT 2 OF LLI FLAGS DATA COLLECTED UNDER A/S CONDITION       COMMENT
-Unknown-                                                   MARKER NAME
4625                                                        MARKER NUMBER
-Unknown-           -Unknown-                               OBSERVER / AGENCY
5127468778          TRIMBLE             4.63                REC # / TYPE / VERS
47477114                            NONE                    ANT # / TYPE
  6378137.0000        0.0000        0.0000                  APPROX POSITION XYZ
        0.0000        0.0000        0.0000                  ANTENNA: DELTA H/E/N
     1     1                                                WAVELENGTH FACT L1/2
     7    L1    L2    C1    P1    P2    S1    S2            # / TYPES OF OBSERV
    18                                                      LEAP SECONDS
 SNR is mapped to RINEX snr flag value [0-9]                COMMENT
  L1 & L2: min(max(int(snr_dBHz/6), 0), 9)                  COMMENT
  2018     3    11    13    16   20.0000000     GPS         TIME OF FIRST OBS
                                                            END OF HEADER
 18  3 11 13 16 20.0000000  0 17G10R06G15R05R13R14R15R22R23G17G11G32
                                G28G01G24G12G19
 120627376.076 7  93995438.21645  22954638.570                    22954644.289
        43.000          30.800
                  89189284.935 6  21489470.375                    21489471.457
                        36.400
 128805476.629 6 100367940.16042  24510869.852                    24510875.555
        38.700          14.800
                  86289784.840 5  20754370.180                    20754371.816
                        34.300
                  88272424.314 6  21253614.266                    21253615.512
                        36.000
                  80838379.840 6  19497953.344                    19497955.352
                        40.500
                  88378562.020 6  21264222.453                    21264226.133
                        37.100
                  86915296.873 6  20934210.539                    20934212.590
                        40.300
                  87432524.998 6  21014472.094                    21014476.391
                        36.300
 117352320.238 8  91443372.16645  22331403.336                    22331406.629
        48.200          33.200
 120480201.609 7  93880629.64644  22926620.211                    22926622.535
        43.900          26.800
 123783347.525 6  96454430.30244  23555162.156                    23555170.082
        40.900          27.600
 123825263.014 7  96487221.63243  23563165.789                    23563168.289
        43.300          22.000
 118281625.007 7  92167500.90045  22508243.734                    22508250.906
        43.500          32.100
 110727353.471 8  86281101.57646  21070722.531                    21070728.020
        49.500          37.300
 126233704.726 7  98363801.68444  24021440.336                    24021444.230
        44.100          24.900
 120289832.577 7  93732346.96144  22890394.961                    22890396.375
        44.600          28.800
 18  3 11 13 16 21.0000000  0 17G10R06G15R05R13R14R15R22R23G17G11G32
                                G28G01G24G12G19
 120629776.149 7  93997308.40445  22955095.188                    22955101.094
        43.400          30.700
                  89187362.349 6  21489008.539                    21489008.418
                        36.000
 128809608.657 6 100371159.89942  24511656.008                    24511661.813
        38.400          16.300
                  86291494.159 5  20754781.492                    20754782.961
                        34.300
                  88275485.660 6  21254351.711                    21254352.563
                        36.000
                  80838408.124 6  19497960.320                    19497962.172
                        40.400
                  88376083.502 6  21263624.953                    21263629.297
                        37.100
                  86917193.291 6  20934666.578                    20934668.758
                        40.200
                  87430637.116 6  21014019.680                    21014023.121
                        36.400
 117351112.834 8  91442431.33845  22331173.781                    22331176.305
        48.600          32.900
 120482117.492 7  93882122.56044  22926984.641                    22926987.305
        43.800          27.500
 123780819.776 6  96452460.68044  23554680.078                    23554689.066
        39.400          26.800
 123828635.298 7  96489849.38443  23563807.445                    23563810.598
        43.400          22.600
 118281579.928 7  92167465.77745  22508234.922                    22508242.344
        43.600          31.400
 110727312.938 8  86281069.99146  21070714.656                    21070720.418
        49.600          37.300
 126230095.264 7  98360989.11344  24020753.820                    24020757.328
        44.300          24.300
 120287053.068 7  93730181.09344  22889865.445                    22889867.316
        43.800          28.800
 18  3 11 13 16 22.0000000  0 17G10R06G15R05R13R14R15R22R23G17G11G32
                                G28G01G24G12G19
 120632176.783 7  93999179.03445  22955551.750                    22955557.574
        43.000          31.200
                  89185440.320 6  21488545.023                    21488544.980
                        36.200
 128813740.830 6 100374379.76442  24512442.336                    24512448.086
        37.400          14.800
                  86293204.156 5  20755192.047                    20755194.367
                        34.400
                  88278547.393 5  21255088.805                    21255089.086
                        35.700
                  80838437.050 6  19497967.023                    19497968.891
                        40.600
                  88373605.399 6  21263029.125                    21263033.594
                        37.100
                  86919090.350 6  20935124.148                    20935126.367
                        40.400
                  87428749.750 6  21013564.586                    21013569.223
                        36.700
 117349906.027 8  91441490.98045  22330944.102                    22330946.953
        48.800          33.000
 120484034.052 7  93883615.99644  22927348.672                    22927352.082
        43.400          27.900
 123778292.394 6  96450491.35644  23554200.156                    23554207.754
        40.600          26.900
 123832007.827 7  96492477.34843  23564449.492                    23564453.152
        42.600          22.800
 118281535.573 7  92167431.22145  22508226.828                    22508234.012
        44.200          31.800
 110727273.073 8  86281038.92746  21070707.078                    21070712.750
        49.600          37.700
 126226485.973 7  98358176.68944  24020066.797                    24020070.441
        44.500          25.000
 120284274.005 7  93728015.56944  22889335.516                    22889338.250
        42.600          29.800
 18  3 11 13 16 23.0000000  0 17G10R06G15R05R13R14R15R22R23G17G11G32
                                G28G01G24G12G19
 120634578.001 7  94001050.10845  22956009.352                    22956014.578
        43.800          30.000
                  89183518.792 6  21488082.156                    21488082.043
                        36.700
 128817873.188 6 100377599.76042  24513228.609                    24513234.238
        37.700          16.900
                  86294914.788 5  20755604.422                    20755605.746
                        34.500
                  88281609.507 5  21255826.078                    21255826.871
                        35.200
                  80838466.602 6  19497974.297                    19497976.594
                        40.500
                  88371127.643 6  21262432.883                    21262437.164
                        37.500
                  86920988.034 6  20935581.883                    20935582.844
                        40.200
                  87426863.023 6  21013112.383                    21013115.410
                        36.700
 117348699.774 8  91440551.04145  22330714.125                    22330717.461
        48.400          33.300
 120485951.290 7  93885109.94744  22927713.508                    22927716.785
        42.500          27.600
 123775765.508 7  96448522.41244  23553720.258                    23553726.809
        42.600          26.900
 123835380.674 7  96495105.52344  23565093.383                    23565093.703
        43.900          24.000
 118281491.883 7  92167397.17245  22508218.867                    22508225.434
        43.800          31.600
 110727233.874 8  86281008.38646  21070699.484                    21070705.477
        49.600          37.500
 126222876.854 7  98355364.38044  24019379.953                    24019383.594
        44.600          24.600
 120281495.403 7  93725850.43444  22888807.602                    22888809.617
        42.500          29.600
 18  3 11 13 16 24.0000000  0 17G10R06G15R05R13R14R15R22R23G17G11G32
                                G28G01G24G12G19
 120636979.817 7  94002921.65045  22956466.563                    22956471.375
        44.500          30.400
                  89181597.830 6  21487618.023                    21487619.063
                        36.200
 128822005.744 6 100380819.93242  24514015.125                    24514020.992
        37.500          16.300
                  86296626.126 5  20756015.461                    20756017.289
                        34.500
                  88284671.992 5  21256562.250                    21256563.367
                        35.600
                  80838496.824 6  19497981.250                    19497983.539
                        40.700
                  88368650.294 6  21261836.977                    21261840.906
                        37.300
                  86922886.374 6  20936038.945                    20936040.570
                        40.400
                  87424976.842 6  21012658.930                    21012662.578
                        36.500
 117347494.108 8  91439611.57145  22330484.781                    22330487.836
        48.700          33.200
 120487869.260 7  93886604.46044  22928078.992                    22928081.793
        42.900          27.600
 123773239.067 7  96446553.78144  23553239.859                    23553245.977
        44.400          28.300
 123838753.755 7  96497733.89344  23565732.805                    23565735.316
        43.600          24.100
 118281448.999 7  92167363.76145  22508210.836                    22508217.238
        43.900          30.900
 110727195.352 8  86280978.36546  21070692.391                    21070697.797
        50.000          36.900
 126219267.977 7  98352552.28344  24018693.070                    24018696.512
        44.500          25.100
 120278717.291 7  93723685.69344  22888279.367                    22888281.043
        43.400          29.500
 18  3 11 13 16 25.0000000  0 17G10R06G15R05R13R14R15R22R23G17G11G32
                                G28G01G24G12G19
 120639382.208 7  94004793.65145  22956924.289                    22956928.938
        44.500          30.400
                  89179677.457 6  21487155.125                    21487156.289
                        36.200
 128826138.561 6 100384040.26442  24514801.523                    24514807.488
        37.300          16.300
                  86298338.113 5  20756427.836                    20756428.926
                        34.400
                  88287734.873 6  21257300.258                    21257301.070
                        36.000
                  80838527.718 6  19497988.859                    19497991.188
                        40.400
                  88366173.363 6  21261240.906                    21261245.500
                        37.500
                  86924785.400 6  20936495.531                    20936498.074
                        40.400
                  87423091.263 6  21012205.266                    21012209.469
                        36.100
 117346289.050 8  91438672.57345  22330256.516                    22330258.863
        48.800          32.900
 120489787.885 7  93888099.47944  22928445.031                    22928446.848
        44.200          28.300
 123770713.054 7  96444585.46344  23552760.281                    23552765.406
        45.400          27.600
 123842127.189 7  96500362.54243  23566373.820                    23566378.266
        42.600          22.500
 118281406.860 7  92167330.92845  22508202.648                    22508209.352
        44.100          31.000
 110727157.544 8  86280948.90346  21070685.297                    21070690.926
        49.700          37.300
 126215659.256 7  98349740.30244  24018006.242                    24018010.156
        44.600          25.000
 120275939.702 7  93721521.35544  22887751.297                    22887752.125
        44.900          28.700
 18  3 11 13 16 26.0000000  0 17G10R06G15R05R13R14R15R22R23G17G11G32
                                G28G01G24G12G19
 120641785.209 7  94006666.13545  22957380.617                    22957386.285
        43.800          30.900
                  89177757.664 6  21486692.008                    21486694.016
                        36.100
 128830271.459 6 100387260.70242  24515587.617                    24515594.133
        37.900          16.900
                  86300050.793 5  20756839.391                    20756840.664
                        34.800
                  88290798.148 5  21258037.938                    21258039.145
                        35.700
                  80838559.295 6  19497995.930                    19497998.840
                        40.400
                  88363696.796 6  21260644.164                    21260649.008
                        37.800
                  86926685.060 6  20936953.602                    20936955.398
                        40.100
                  87421206.272 5  21011752.305                    21011756.379
                        35.900
 117345084.591 8  91437734.04045  22330026.406                    22330029.273
        48.300          33.200
 120491707.214 7  93889595.04544  22928810.570                    22928811.762
        45.400          29.000
 123768187.507 7  96442617.48044  23552279.648                    23552284.363
        46.000          28.500
 123845500.874 7  96502991.38543  23567017.789                    23567020.273
        43.000          22.800
 118281365.495 7  92167298.68945  22508195.508                    22508201.176
        44.100          31.600
 110727120.408 8  86280919.97146  21070677.922                    21070683.496
        49.800          37.500
 126212050.793 7  98346928.51943  24017319.961                    24017323.699
        44.700          23.600
 120273162.613 7  93719357.39644  22887223.016                    22887223.484
        45.200          29.600
 18  3 11 13 16 27.0000000  0 17G10R06G15R05R13R14R15R22R23G17G11G32
                                G28G01G24G12G19
 120644188.767 7  94008539.05045  22957837.695                    22957843.480
        44.100          30.400
                  89175838.415 6  21486229.586                    21486231.551
                        36.200
 128834404.548 6 100390481.28842  24516374.219                    24516380.383
        37.900          16.300
                  86301764.099 5  20757251.211                    20757253.375
                        34.900
                  88293861.751 6  21258775.648                    21258776.492
                        36.000
                  80838591.484 6  19498003.875                    19498006.855
                        40.400
                  88361220.625 6  21260049.688                    21260053.523
                        38.100
                  86928585.352 6  20937411.219                    20937413.129
                        40.400
                  87419321.863 6  21011298.781                    21011303.180
                        36.000
 117343880.654 7  91436795.90645  22329796.984                    22329800.219
        47.700          33.400
 120493627.167 7  93891091.12044  22929175.797                    22929177.527
        46.200          28.000
 123765662.351 7  96440649.78844  23551798.680                    23551803.402
        45.700          27.700
 123848874.805 7  96505620.41443  23567659.195                    23567661.797
        42.300          22.600
 118281324.779 7  92167266.96645  22508187.086                    22508193.508
        44.300          31.700
 110727083.935 8  86280891.54446  21070671.414                    21070677.063
        49.800          37.400
 126208442.475 7  98344116.83943  24016633.211                    24016636.887
        44.800          22.900
 120270385.956 7  93717193.75144  22886693.914                    22886695.473
        45.000          29.400
 18  3 11 13 16 28.0000000  0 17G10R06G15R05R13R14R15R22R23G17G11G32
                                G28G01G24G12G19
 120646592.897 7  94010412.39545  22958296.117                    22958301.016
        44.700          30.500
                  89173919.703 6  21485767.797                    21485769.617
                        36.200
 128838537.839 6 100393702.01142  24517161.289                    24517166.813
        38.900          16.900
                  86303478.126 5  20757663.563                    20757665.277
                        35.000
                  88296925.772 5  21259513.570                    21259514.348
                        35.800
                  80838624.360 6  19498011.984                    19498014.098
                        40.600
                  88358744.804 6  21259453.164                    21259457.859
                        37.700
                  86930486.322 6  20937868.758                    20937870.668
                        40.100
                  87417438.051 6  21010846.805                    21010850.988
                        36.100
 117342677.349 8  91435858.28045  22329568.438                    22329571.457
        48.200          33.700
 120495547.842 7  93892587.77544  22929540.672                    22929543.027
        44.800          26.300
 123763137.646 7  96438682.45344  23551317.922                    23551322.551
        44.900          27.200
 123852249.070 7  96508249.71543  23568301.227                    23568303.480
        43.000          22.900
 118281284.887 7  92167235.89245  22508180.234                    22508185.617
        44.400          31.800
 110727048.229 8  86280863.72246  21070664.508                    21070669.691
        49.600          37.300
 126204834.395 7  98341305.34643  24015946.625                    24015950.484
        44.200          22.900
 120267609.811 7  93715030.51644  22886165.359                    22886166.895
        44.400          29.300
 18  3 11 13 16 29.0000000  0 17G10R06G15R05R13R14R15R22R23G17G11G32
                                G28G01G24G12G19
 120648997.643 7  94012286.22745  22958753.398                    22958758.754
        44.700          30.600
                  89172001.543 6  21485306.430                    21485306.656
                        36.400
 128842671.330 6 100396922.88842  24517948.531                    24517953.750
        39.300          16.300
                  86305192.825 5  20758075.445                    20758077.047
                        35.000
                  88299990.188 5  21260250.695                    21260252.398
                        35.300
                  80838657.918 6  19498020.734                    19498022.574
                        40.400
                  88356269.443 6  21258858.438                    21258861.699
                        37.100
                  86932387.948 6  20938327.602                    20938328.434
                        40.200
                  87415554.842 5  21010393.781                    21010397.863
                        35.600
 117341474.635 8  91434921.10745  22329340.000                    22329342.402
        48.500          33.400
 120497469.233 7  93894084.98244  22929904.289                    22929908.699
        43.000          26.400
 123760613.395 7  96436715.48344  23550837.180                    23550842.113
        43.600          27.300
 123855623.623 7  96510879.25943  23568943.031                    23568945.891
        42.500          22.800
 118281245.746 7  92167205.39145  22508172.320                    22508179.090
        44.300          31.000
 110727013.179 8  86280836.40546  21070657.672                    21070663.098
        49.500          37.100
 126201226.520 7  98338494.03143  24015260.078                    24015263.609
        44.500          22.600
 120264834.144 7  93712867.65544  22885636.219                    22885638.785
        43.800          29.100
 18  3 11 13 16 30.0000000  0 17G10R06G15R05R13R14R15R22R23G17G11G32
                                G28G01G24G12G19
 120651402.988 7  94014160.54244  22959210.164                    22959216.707
        44.100          29.800
                  89170083.940 6  21484845.648                    21484845.039
                        36.300
 128846805.032 6 100400143.94642  24518735.016                    24518740.133
        39.900          16.300
                  86306908.239 5  20758488.898                    20758489.992
                        35.200
                  88303054.970 5  21260988.086                    21260991.082
                        35.600
                  80838692.142 6  19498028.734                    19498030.781
                        40.500
                  88353794.428 6  21258262.977                    21258266.508
                        37.300
                  86934290.245 6  20938785.195                    20938787.332
                        40.700
                  87413672.250 6  21009942.078                    21009945.629
                        36.100
 117340272.515 8  91433984.40045  22329110.273                    22329113.852
        48.000          33.500
 120499391.398 6  93895582.78044  22930268.477                    22930274.691
        40.700          27.600
 123758089.568 7  96434748.85744  23550355.805                    23550362.410
        42.100          27.200
 123858998.496 6  96513509.02643  23569585.242                    23569588.742
        41.900          22.300
 118281207.354 7  92167175.48245  22508164.539                    22508171.242
        44.800          31.900
 110726978.821 8  86280809.63346  21070651.188                    21070656.684
        49.700          37.600
 126197618.846 7  98335682.85843  24014573.867                    24014577.211
        44.500          22.900
 120262058.977 7  93710705.19444  22885108.406                    22885110.918
        43.800          28.700
 18  3 11 13 16 31.0000000  0 17G10R06G15R05R13R14R15R22R23G17G11G32
                                G28G01G24G12G19
 120653808.902 7  94016035.28245  22959667.641                    22959674.488
        44.100          30.800
                  89168166.897 6  21484383.406                    21484383.203
                        36.300
 128850938.931 6 100403365.18742  24519521.477                    24519526.875
        40.000          16.900
                  86308624.324 5  20758900.992                    20758903.070
                        34.500
                  88306120.138 6  21261727.523                    21261727.957
                        36.000
                  80838727.035 6  19498036.328                    19498039.324
                        40.400
                  88351319.813 6  21257666.828                    21257671.086
                        37.300
                  86936193.241 6  20939242.703                    20939245.000
                        40.600
                  87411790.226 6  21009489.352                    21009493.160
                        36.400
 117339070.976 8  91433048.14045  22328881.859                    22328884.969
        48.300          33.500
 120501314.287 6  93897081.10544  22930636.656                    22930639.840
        40.800          27.300
 123755566.129 6  96432782.55144  23549874.758                    23549882.320
        39.400          26.600
 123862373.600 7  96516138.95943  23570228.203                    23570230.855
        42.900          22.600
 118281169.665 7  92167146.11845  22508158.531                    22508163.992
        45.000          31.800
 110726945.164 8  86280783.40546  21070644.992                    21070650.551
        49.700          37.300
 126194011.389 7  98332871.85743  24013887.133                    24013890.934
        44.200          23.800
 120259284.284 7  93708543.10844  22884580.570                    22884582.750
        44.600          29.100
 18  3 11 13 16 32.0000000  0 17G10R06G15R05R13R14R15R22R23G17G11G32
                                G28G01G24G12G19
 120656215.440 7  94017910.51245  22960126.711                    22960132.395
        45.000          30.700
                  89166250.419 6  21483921.422                    21483921.715
                        36.200
 128855073.000 6 100406586.56142  24520308.625                    24520313.805
        39.900          16.300
                  86310341.094 5  20759313.219                    20759315.945
                        34.400
                  88309185.724 5  21262464.742                    21262466.031
                        35.600
                  80838762.607 6  19498045.695                    19498047.699
                        40.500
                  88348845.624 6  21257072.945                    21257076.555
                        37.600
                  86938096.872 6  20939702.188                    20939703.695
                        40.400
                  87409908.819 6  21009037.766                    21009040.664
                        36.100
 117337870.043 8  91432112.35145  22328653.305                    22328656.617
        48.300          32.900
 120503237.806 7  93898579.90744  22931005.203                    22931006.145
        43.200          27.500
 123753043.146 6  96430816.64344  23549394.297                    23549402.730
        38.900          25.000
 123865749.005 7  96518769.15043  23570870.609                    23570872.953
        42.600          22.300
 118281132.820 7  92167117.41345  22508150.484                    22508157.406
        44.700          31.900
 110726912.163 8  86280757.69146  21070638.586                    21070644.508
        49.500          37.400
 126190404.132 7  98330061.00143  24013200.781                    24013203.977
        44.200          22.500
 120256510.115 7  93706381.42644  22884053.609                    22884054.883
        45.100          29.300
 18  3 11 13 16 33.0000000  0 17G10R06G15R05R13R14R15R22R23G17G11G32
                                G28G01G24G12G19
 120658622.521 7  94019786.16645  22960584.688                    22960590.332
        44.600          30.300
                  89164334.508 6  21483459.711                    21483459.980
                        36.100
 128859207.236 6 100409808.06342  24521095.688                    24521100.699
        39.400          16.300
                  86312058.527 5  20759727.359                    20759728.590
                        34.000
                  88312251.695 6  21263203.367                    21263204.625
                        36.000
                  80838798.818 6  19498054.328                    19498056.688
                        40.500
                  88346371.777 6  21256476.570                    21256480.664
                        37.600
                  86940001.150 6  20940161.172                    20940162.164
                        40.200
                  87408027.965 6  21008585.570                    21008588.676
                        36.200
 117336669.690 8  91431177.01945  22328425.086                    22328428.016
        48.400          33.400
 120505161.970 7  93900079.23244  22931372.063                    22931372.723
        45.200          27.000
 123750520.570 6  96428851.07444  23548915.609                    23548922.078
        40.400          25.700
 123869124.724 7  96521399.56943  23571512.289                    23571515.035
        43.200          21.800
 118281096.654 7  92167089.23845  22508143.875                    22508150.648
        44.500          32.400
 110726879.854 8  86280732.52146  21070631.984                    21070638.098
        49.100          37.100
 126186797.080 7  98327250.31343  24012514.906                    24012517.992
        44.100          23.300
 120253736.432 7  93704220.11244  22883525.977                    22883527.055
        45.200          28.900
 18  3 11 13 16 34.0000000  0 17G10R06G15R05R13R14R15R22R23G17G11G32
                                G28G01G24G12G19
 120661030.212 7  94021662.29145  22961041.695                    22961048.273
        43.800          30.400
                  89162419.149 6  21482997.516                    21482998.406
                        36.200
 128863341.688 6 100413029.72942  24521882.211                    24521887.309
        39.400          16.300
                  86313776.616 5  20760140.859                    20760142.621
                        34.300
                  88315318.041 5  21263941.688                    21263942.836
                        35.600
                  80838835.674 6  19498062.922                    19498065.469
                        40.500
                  88343898.369 6  21255882.188                    21255886.160
                        37.600
                  86941906.092 6  20940619.711                    20940621.320
                        40.400
                  87406147.706 5  21008133.195                    21008136.563
                        35.800
 117335469.918 8  91430242.13745  22328197.148                    22328199.840
        48.800          33.800
 120507086.830 7  93901579.13744  22931737.516                    22931738.879
        45.800          26.400
 123747998.443 7  96426885.84844  23548436.344                    23548442.625
        42.200          26.900
 123872500.677 7  96524030.18943  23572154.578                    23572158.406
        42.600          21.800
 118281061.232 7  92167061.64345  22508136.867                    22508143.656
        44.400          32.400
 110726848.231 8  86280707.87946  21070626.594                    21070631.762
        49.300          37.600
 126183190.215 7  98324439.77343  24011828.133                    24011831.574
        44.600          23.200
 120250963.231 7  93702059.17144  22882998.180                    22882999.160
        45.000          29.400
 18  3 11 13 16 35.0000000  0 17G10R06G15R05R13R14R15R22R23G17G11G32
                                G28G01G24G12G19
 120663438.490 7  94023538.86645  22961500.758                    22961506.512
        44.100          30.700
                  89160504.348 6  21482536.180                    21482537.313
                        36.400
 128867476.258 6 100416251.50442  24522669.016                    24522673.742
        39.400          16.300
                  86315495.375 5  20760554.039                    20760555.410
                        34.500
                  88318384.758 5  21264680.602                    21264681.520
                        35.200
                  80838873.210 6  19498072.023                    19498074.539
                        40.500
                  88341425.298 6  21255286.297                    21255290.527
                        37.700
                  86943811.689 6  20941078.469                    20941079.844
                        40.400
                  87404268.028 5  21007681.727                    21007684.965
                        35.800
 117334270.702 7  91429307.68745  22327967.945                    22327971.656
        47.900          33.600
 120509012.393 7  93903079.60044  22932102.813                    22932105.219
        45.100          28.600
 123745476.789 7  96424920.96544  23547957.617                    23547962.957
        44.100          28.700
 123875876.954 7  96526661.05943  23572797.992                    23572799.926
        43.200          22.600
 118281026.544 7  92167034.61645  22508129.563                    22508136.875
        44.000          32.300
 110726817.301 8  86280683.77446  21070620.359                    21070626.008
        49.100          37.600
 126179583.558 7  98321629.38243  24011141.781                    24011145.012
        44.600          22.800
 120248190.461 7  93699898.56544  22882469.453                    22882471.766
        44.200          28.900
 18  3 11 13 16 36.0000000  0 17G10R06G15R05R13R14R15R22R23G17G11G32
                                G28G01G24G12G19
 120665847.311 7  94025415.86745  22961959.594                    22961964.930
        44.500          30.500
                  89158590.046 6  21482075.477                    21482076.289
                        36.700
 128871611.063 6 100419473.43042  24523455.547                    24523460.469
        39.000          16.300
                  86317214.798 5  20760967.250                    20760968.789
                        34.400
                  88321451.864 5  21265418.266                    21265420.250
                        35.600
                  80838911.376 6  19498081.273                    19498083.898
                        40.500
                  88338952.621 6  21254691.414                    21254696.027
                        37.500
                  86945717.897 6  20941538.297                    20941539.500
                        40.400
                  87402388.924 5  21007230.070                    21007233.945
                        35.600
 117333072.036 8  91428373.66545  22327740.320                    22327744.078
        48.000          34.000
 120510938.624 7  93904580.59044  22932467.938                    22932471.754
        43.700          27.500
 123742955.508 7  96422956.34644  23547478.000                    23547483.176
        45.000          28.900
 123879253.467 7  96529292.10443  23573439.953                    23573442.832
        42.800          22.600
 118280992.595 7  92167008.16345  22508123.320                    22508130.391
        44.100          32.100
 110726786.982 8  86280660.15446  21070614.664                    21070620.203
        49.300          37.600
 126175977.073 7  98318819.13443  24010455.672                    24010458.523
        44.600          22.900
 120245418.162 7  93697738.33344  22881941.813                    22881943.996
        43.800          28.700
 18  3 11 13 16 37.0000000  0 17G10R06G15R05R13R14R15R22R23G17G11G32
                                G28G01G24G12G19
 120668256.757 7  94027293.36445  22962417.531                    22962424.047
        43.300          30.500
                  89156676.327 6  21481613.789                    21481614.262
                        36.700
 128875746.088 6 100422695.52842  24524242.000                    24524247.582
        38.500          15.600
                  86318934.898 5  20761381.461                    20761382.652
                        34.200
                  88324519.379 5  21266156.398                    21266157.934
                        35.300
                  80838950.220 6  19498090.891                    19498092.629
                        40.300
                  88336480.369 6  21254096.664                    21254101.031
                        37.600
                  86947624.820 6  20941996.461                    20941998.551
                        40.200
                  87400510.438 6  21006778.211                    21006781.641
                        36.200
 117331874.036 8  91427440.17745  22327513.188                    22327515.730
        48.800          34.100
 120512865.627 7  93906082.15444  22932834.172                    22932838.383
        43.100          28.100
 123740434.743 7  96420992.10444  23546998.438                    23547003.738
        45.200          29.100
 123882630.284 7  96531923.39443  23574082.883                    23574085.570
        42.700          22.300
 118280959.476 7  92166982.35545  22508116.344                    22508123.914
        43.700          32.100
 110726757.387 8  86280637.09346  21070608.883                    21070614.945
        49.200          37.500
 126172370.834 7  98316009.07843  24009769.219                    24009772.184
        44.900          22.000
 120242646.396 7  93695578.52044  22881414.641                    22881416.676
        43.600          28.800
 18  3 11 13 16 38.0000000  0 17G10R06G15R05R13R14R15R22R23G17G11G32
                                G28G01G24G12G19
 120670666.801 7  94029171.32545  22962875.914                    22962882.215
        42.600          30.400
                  89154763.181 6  21481153.398                    21481153.215
                        36.500
 128879881.272 6 100425917.77142  24525028.250                    24525034.355
        38.500          15.600
                  86320655.714 5  20761794.977                    20761796.723
                        34.800
                  88327587.296 5  21266895.594                    21266896.883
                        35.700
                  80838989.741 6  19498100.586                    19498102.805
                        40.400
                  88334008.519 6  21253502.398                    21253506.145
                        38.100
                  86949532.385 6  20942457.273                    20942457.859
                        40.500
                  87398632.556 5  21006326.906                    21006331.078
                        35.900
 117330676.643 8  91426507.13145  22327284.477                    22327287.910
        48.400          33.600
 120514793.333 7  93907584.25544  22933201.906                    22933205.355
        43.000          27.200
 123737914.411 7  96419028.18144  23546518.648                    23546523.738
        45.300          27.200
 123886007.430 7  96534554.93443  23574725.867                    23574727.879
        42.900          22.000
 118280927.077 7  92166957.10245  22508110.875                    22508118.141
        43.800          32.800
 110726728.534 8  86280614.61146  21070603.133                    21070608.895
        49.600          37.300
 126168764.817 7  98313199.19543  24009082.781                    24009086.227
        44.900          22.300
 120239875.154 7  93693419.12944  22880887.492                    22880889.121
        44.200          29.800
 18  3 11 13 16 39.0000000  0 17G10R06G15R05R13R14R15R22R23G17G11G32
                                G28G01G24G12G19
 120673077.432 7  94031049.73445  22963335.039                    22963340.719
        43.900          30.400
                  89152850.592 6  21480692.117                    21480692.672
                        36.500
 128884016.691 6 100429140.13342  24525815.133                    24525821.727
        38.400          15.600
                  86322377.186 5  20762209.344                    20762210.957
                        35.000
                  88330655.572 5  21267634.188                    21267635.805
                        35.600
                  80839029.930 6  19498109.773                    19498112.023
                        40.500
                  88331537.047 6  21252906.891                    21252911.168
                        38.200
                  86951440.590 6  20942916.125                    20942917.895
                        40.400
                  87396755.276 6  21005876.063                    21005879.500
                        36.000
 117329479.795 7  91425574.52745  22327055.727                    22327059.988
        47.200          33.200
 120516721.708 7  93909086.86644  22933569.453                    22933571.938
        43.900          28.300
 123735394.497 7  96417064.58744  23546038.648                    23546044.160
        44.500          26.200
 123889384.828 7  96537186.67843  23575367.039                    23575370.504
        42.800          22.300
 118280895.411 7  92166932.41945  22508105.219                    22508112.000
        43.600          31.000
 110726700.361 8  86280592.65346  21070598.078                    21070603.855
        49.500          37.300
 126165158.987 7  98310389.45643  24008397.039                    24008399.965
        44.800          22.300
 120237104.371 7  93691260.07744  22880360.641                    22880361.996
        44.700          28.700
 18  3 11 13 16 40.0000000  0 17G10R06G15R05R13R14R15R22R23G17G11G32
                                G28G01G24G12G19
 120675488.681 7  94032928.62545  22963794.313                    22963800.156
        44.400          30.300
                  89150938.563 6  21480231.031                    21480232.320
                        36.800
 128888152.338 6 100432362.70142  24526602.617                    24526608.629
        37.500          15.600
                  86324099.364 5  20762623.266                    20762624.863
                        34.600
                  88333724.279 5  21268372.102                    21268374.277
                        35.300
                  80839070.822 6  19498120.078                    19498122.414
                        40.600
                  88329065.987 6  21252312.977                    21252317.098
                        37.800
                  86953349.518 6  20943375.672                    20943377.969
                        40.400
                  87394878.594 6  21005423.883                    21005428.512
                        36.000
 117328283.586 8  91424642.42645  22326829.547                    22326831.832
        48.700          33.000
 120518650.837 7  93910590.06344  22933936.883                    22933939.313
        43.800          28.100
 123732875.041 7  96415101.34344  23545558.633                    23545564.809
        43.000          26.000
 123892762.565 7  96539818.66943  23576011.180                    23576013.566
        42.700          22.200
 118280864.526 7  92166908.35345  22508099.500                    22508106.020
        44.000          31.600
 110726672.933 8  86280571.28246  21070592.555                    21070598.414
        49.500          37.000
 126161553.408 7  98307579.91243  24007710.883                    24007713.496
        44.700          22.000
 120234334.109 7  93689101.43444  22879833.305                    22879835.168
        44.900          29.800
 18  3 11 13 16 41.0000000  0 17G10R06G15R05R13R14R15R22R23G17G11G32
                                G28G01G24G12G19
 120677900.522 7  94034807.99245  22964252.938                    22964259.188
        43.900          30.500
                  89149027.146 6  21479771.703                    21479771.367
                        36.100
 128892288.201 6 100435585.43242  24527389.172                    24527395.664
        37.400          15.600
                  86325822.252 5  20763038.070                    20763039.266
                        34.700
                  88336793.352 5  21269113.250                    21269112.949
                        35.300
                  80839112.391 6  19498130.500                    19498132.516
                        40.400
                  88326595.329 6  21251718.336                    21251722.734
                        37.600
                  86955259.130 6  20943835.359                    20943837.211
                        40.300
                  87393002.522 6  21004973.703                    21004977.266
                        36.500
 117327088.000 8  91423710.81645  22326602.078                    22326604.699
        49.000          33.800
 120520580.670 7  93912093.82044  22934303.547                    22934306.707
        43.800          27.000
 123730356.031 6  96413138.46744  23545077.773                    23545085.098
        41.400          25.600
 123896140.604 7  96542450.90143  23576654.133                    23576656.352
        43.200          22.300
 118280834.423 7  92166884.90445  22508094.148                    22508100.199
        43.600          32.100
 110726646.183 8  86280550.44046  21070587.539                    21070593.313
        49.500          37.200
 126157948.063 7  98304770.54143  24007024.680                    24007027.668
        44.700          21.800
 120231564.349 7  93686943.17345  22879306.336                    22879307.957
        44.900          30.200
 18  3 11 13 16 42.0000000  0 17G10R06G15R05R13R14R15R22R23G17G11G32
                                G28G01G24G12G19
 120680312.994 7  94036687.83745  22964712.367                    22964717.867
        43.700          30.500
                  89147116.284 6  21479309.250                    21479311.176
                        36.500
 128896424.156 6 100438808.25642  24528176.570                    24528182.754
        36.800          15.600
                  86327545.802 5  20763452.508                    20763453.750
                        34.600
                  88339862.833 5  21269850.695                    21269852.516
                        35.400
                  80839154.624 6  19498140.422                    19498142.254
                        40.500
                  88324125.053 6  21251124.547                    21251128.305
                        37.200
                  86957169.392 6  20944296.406                    20944297.750
                        40.500
                  87391127.031 6  21004523.273                    21004526.816
                        36.000
 117325892.990 8  91422779.64045  22326374.086                    22326377.395
        48.100          33.600
 120522511.214 7  93913598.14644  22934671.430                    22934674.152
        44.300          25.800
 123727837.439 6  96411175.91244  23544597.586                    23544605.895
        38.800          24.000
 123899518.938 7  96545083.36543  23577296.414                    23577299.281
        42.500          22.300
 118280805.061 7  92166862.03045  22508088.875                    22508094.281
        43.700          32.100
 110726620.147 8  86280530.15046  21070582.805                    21070588.816
        49.400          37.200
 126154342.917 7  98301961.34743  24006338.656                    24006341.797
        44.700          21.800
 120228795.092 7  93684785.30744  22878779.547                    22878781.055
        44.600          29.400
 18  3 11 13 16 43.0000000  0 17G10R06G15R05R13R14R15R22R23G17G11G32
                                G28G01G24G12G19
 120682725.969 7  94038568.07245  22965171.742                    22965177.273
        44.900          31.200
                  89145205.983 6  21478849.680                    21478850.906
                        36.400
 128900560.336 6 100442031.25942  24528963.758                    24528969.523
        38.300          15.600
                  86329269.985 5  20763866.602                    20763868.422
                        34.600
                  88342932.663 5  21270590.398                    21270591.305
                        35.300
                  80839197.468 6  19498150.844                    19498152.973
                        40.300
                  88321655.132 6  21250529.359                    21250533.719
                        37.500
                  86959080.249 6  20944756.594                    20944757.820
                        40.500
                  87389252.093 6  21004072.758                    21004076.063
                        36.500
 117324698.502 8  91421848.87245  22326146.352                    22326150.133
        48.700          33.700
 120524442.367 7  93915102.93744  22935038.922                    22935041.438
        44.700          28.700
 123725319.163 6  96409213.65144  23544118.703                    23544125.914
        39.000          25.600
 123902897.504 7  96547716.00843  23577939.414                    23577942.031
        43.100          22.300
 118280776.372 7  92166839.67745  22508082.859                    22508088.754
        43.800          31.200
 110726594.746 8  86280510.35946  21070578.047                    21070583.887
        49.500          37.400
 126150737.919 7  98299152.25343  24005652.711                    24005655.727
        44.900          22.300
 120226026.235 7  93682627.75644  22878252.359                    22878253.574
        44.800          29.600
 18  3 11 13 16 44.0000000  0 17G10R06G15R05R13R14R15R22R23G17G11G32
                                G28G01G24G12G19
 120685139.510 7  94040448.75945  22965631.156                    22965635.813
        45.200          32.100
                  89143296.228 6  21478389.555                    21478390.953
                        36.400
 128904696.648 6 100445254.34742  24529751.164                    24529756.859
        38.700          16.900
                  86330994.824 5  20764281.617                    20764283.340
                        35.000
                  88346002.854 5  21271330.477                    21271330.875
                        35.800
                  80839240.952 6  19498160.539                    19498162.813
                        40.400
                  88319185.606 6  21249936.172                    21249939.094
                        37.300
                  86960991.769 6  20945216.445                    20945218.281
                        40.500
                  87387377.742 6  21003621.758                    21003625.113
                        36.800
 117323504.620 8  91420918.59345  22325920.070                    22325922.676
        49.200          33.100
 120526374.206 7  93916608.26744  22935406.672                    22935408.988
        44.900          27.200
 123722801.395 6  96407251.81444  23543640.633                    23543646.746
        40.300          25.000
 123906276.325 7  96550348.85943  23578582.094                    23578585.219
        42.900          21.500
 118280748.479 7  92166817.94545  22508078.000                    22508083.898
        43.300          32.000
 110726570.008 8  86280491.08346  21070573.391                    21070579.000
        49.700          37.400
 126147133.128 7  98296343.30743  24004966.719                    24004969.680
        44.700          21.800
 120223257.903 7  93680470.61744  22877725.594                    22877726.547
        44.900          29.400
 18  3 11 13 16 45.0000000  0 17G10R06G15R05R13R14R15R22R23G17G11G32
                                G28G01G24G12G19
 120687553.699 7  94042329.96445  22966090.313                    22966095.930
        44.600          30.700
                  89141387.083 6  21477931.445                    21477930.699
                        36.900
 128908833.192 6 100448477.60342  24530538.156                    24530543.820
        38.400          17.800
                  86332720.378 5  20764697.086                    20764698.723
                        34.900
                  88349073.477 5  21272068.734                    21272070.227
                        35.700
                  80839285.136 6  19498171.547                    19498173.945
                        40.400
                  88316716.483 6  21249340.906                    21249346.086
                        37.400
                  86962903.975 6  20945676.477                    20945678.715
                        40.200
                  87385504.010 6  21003171.625                    21003174.965
                        36.600
 117322311.361 8  91419988.78145  22325693.438                    22325695.723
        49.100          33.600
 120528306.785 7  93918114.17744  22935774.094                    22935776.844
        44.500          27.700
 123720284.080 7  96405290.32544  23543163.102                    23543168.797
        42.000          27.700
 123909655.471 7  96552981.95643  23579224.492                    23579228.152
        42.600          22.600
 118280721.332 7  92166796.79245  22508072.305                    22508078.813
        43.400          31.300
 110726545.984 8  86280472.35746  21070568.875                    21070574.000
        49.200          37.500
 126143528.554 7  98293534.55343  24004280.258                    24004283.551
        44.300          22.300
 120220490.075 7  93678313.86644  22877198.938                    22877200.027
        45.300          29.500
 18  3 11 13 16 46.0000000  0 17G10R06G15R05R13R14R15R22R23G17G11G32
                                G28G01G24G12G19
 120689968.417 7  94044211.57845  22966549.555                    22966555.254
        44.300          30.400
                  89139478.450 6  21477471.313                    21477470.508
                        36.800
 128912969.895 6 100451701.03042  24531325.984                    24531330.582
        38.700          16.900
                  86334446.573 5  20765112.203                    20765113.836
                        35.200
                  88352144.465 5  21272809.023                    21272809.566
                        35.600
                  80839329.983 6  19498182.148                    19498184.605
                        40.400
                  88314247.703 6  21248747.500                    21248751.793
                        37.700
                  86964816.814 6  20946137.758                    20946139.555
                        40.200
                  87383630.836 6  21002720.836                    21002725.297
                        36.600
 117321118.661 8  91419059.40745  22325466.070                    22325469.195
        48.400          33.300
 120530240.039 7  93919620.62544  22936141.320                    22936144.977
        43.900          27.500
 123717767.225 7  96403329.16444  23542684.453                    23542689.316
        44.000          29.600
 123913034.878 7  96555615.25543  23579869.813                    23579871.250
        43.300          22.900
 118280694.924 7  92166776.20545  22508067.016                    22508073.574
        43.600          31.500
 110726522.646 8  86280454.17646  21070564.258                    21070570.367
        49.600          37.300
 126139924.188 7  98290725.93843  24003593.992                    24003597.895
        44.200          22.000
 120217722.706 7  93676157.47645  22876672.719                    22876673.617
        44.900          30.000
 18  3 11 13 16 47.0000000  0 17G10R06G15R05R13R14R15R22R23G17G11G32
                                G28G01G24G12G19
 120692383.752 7  94046093.66045  22967009.289                    22967014.855
        44.400          30.600
                  89137570.384 6  21477011.422                    21477011.074
                        36.800
 128917106.817 6 100454924.59842  24532113.609                    24532117.605
        39.300          16.300
                  86336173.477 5  20765527.031                    20765529.059
                        34.900
                  88355215.838 5  21273548.375                    21273549.051
                        35.300
                  80839375.516 6  19498193.375                    19498195.465
                        40.600
                  88311779.361 6  21248154.000                    21248157.527
                        37.900
                  86966730.294 6  20946598.961                    20946600.512
                        40.300
                  87381758.297 6  21002271.664                    21002275.008
                        36.500
 117319926.542 8  91418130.47545  22325238.063                    22325241.867
        48.100          33.400
 120532174.012 7  93921127.61944  22936509.148                    22936512.547
        43.500          26.300
 123715250.800 7  96401368.31845  23542205.711                    23542211.168
        45.100          30.500
 123916414.601 7  96558248.80343  23580511.078                    23580513.863
        42.800          22.500
 118280669.245 7  92166756.19645  22508062.430                    22508068.855
        43.500          31.600
 110726500.009 8  86280436.53146  21070559.523                    21070565.574
        49.400          37.100
 126136320.031 7  98287917.50543  24002908.352                    24002911.840
        44.600          22.000
 120214955.839 7  93674001.48144  22876145.258                    22876147.156
        44.400          29.500
 18  3 11 13 16 48.0000000  0 17G10R06G15R05R13R14R15R22R23G17G11G32
                                G28G01G24G12G19
 120694799.652 7  94047976.18545  22967469.008                    22967474.465
        44.600          31.400
                  89135662.819 6  21476551.625                    21476551.281
                        36.800
 128921243.895 6 100458148.29642  24532901.023                    24532905.160
        39.400          16.300
                  86337901.035 5  20765942.172                    20765944.434
                        34.300
                  88358287.563 5  21274287.555                    21274288.914
                        35.600
                  80839421.645 6  19498204.477                    19498207.012
                        40.600
                  88309311.342 6  21247559.102                    21247564.102
                        37.900
                  86968644.415 6  20947059.734                    20947061.445
                        40.400
                  87379886.300 6  21001820.727                    21001825.414
                        37.100
 117318734.987 8  91417202.00645  22325012.547                    22325014.953
        49.000          33.400
 120534108.659 7  93922635.12944  22936877.578                    22936880.820
        43.800          27.100
 123712734.809 7  96399407.79045  23541727.148                    23541732.418
        45.200          30.200
 123919794.600 7  96560882.56643  23581154.570                    23581157.227
        42.900          22.600
 118280644.327 7  92166736.77145  22508057.664                    22508063.898
        43.300          32.400
 110726478.012 8  86280419.39946  21070555.594                    21070561.293
        49.500          37.500
 126132716.054 7  98285109.21143  24002223.070                    24002226.383
        44.500          21.800
 120212189.424 7  93671845.83544  22875619.336                    22875620.816
        45.000          28.900
 18  3 11 13 16 49.0000000  0 17G10R06G15R05R13R14R15R22R23G17G11G32
                                G28G01G24G12G19
 120697216.169 7  94049859.19545  22967928.148                    22967934.691
        43.500          30.900
                  89133755.834 6  21476092.156                    21476092.254
                        36.000
 128925381.165 6 100461372.15042  24533688.297                    24533692.555
        40.200          16.300
                  86339629.271 5  20766358.555                    20766360.332
                        34.300
                  88361359.720 5  21275027.398                    21275028.930
                        35.700
                  80839468.477 6  19498216.055                    19498218.129
                        40.200
                  88306843.774 6  21246966.672                    21246970.203
                        37.500
                  86970559.243 6  20947520.266                    20947522.918
                        40.200
                  87378014.937 6  21001371.578                    21001375.430
                        36.900
 117317544.090 8  91416274.04245  22324786.313                    22324788.871
        49.400          33.100
 120536044.002 7  93924143.17644  22937247.492                    22937249.438
        45.000          26.000
 123710219.256 7  96397447.60444  23541247.906                    23541253.781
        44.900          29.000
 123923174.859 7  96563516.53143  23581798.469                    23581801.059
        42.500          22.000
 118280620.183 7  92166717.94845  22508053.523                    22508059.715
        43.600          31.500
 110726456.761 8  86280402.83646  21070551.563                    21070557.336
        49.500          37.700
 126129112.291 7  98282301.09443  24001537.422                    24001540.250
        43.900          21.700
 120209423.522 7  93669690.59044  22875093.109                    22875094.699
        45.200          29.400
 18  3 11 13 16 50.0000000  0 17G10R06G15R05R13R14R15R22R23G17G11G32
                                G28G01G24G12G19
 120699633.264 7  94051742.65245  22968388.250                    22968394.676
        43.200          30.600
                  89131849.407 5  21475632.055                    21475633.164
                        35.800
 128929518.607 6 100464596.12742  24534474.727                    24534479.961
        40.400          16.900
                  86341358.186 5  20766773.641                    20766776.055
                        34.200
                  88364432.248 5  21275767.328                    21275767.684
                        35.900
                  80839515.945 6  19498227.242                    19498229.758
                        40.400
                  88304376.536 6  21246372.148                    21246377.191
                        37.200
                  86972474.697 6  20947982.680                    20947983.992
                        40.200
                  87376144.155 6  21000921.430                    21000925.484
                        36.300
 117316353.732 8  91415346.48345  22324558.328                    22324562.234
        48.000          33.600
 120537980.009 7  93925651.74244  22937615.250                    22937617.891
        45.400          26.400
 123707704.144 7  96395487.76944  23540768.734                    23540775.359
        44.100          27.400
 123926555.409 7  96566150.73543  23582441.813                    23582444.305
        42.600          22.600
 118280596.740 7  92166699.68645  22508048.320                    22508055.246
        43.400          32.100
 110726436.156 8  86280386.78446  21070547.625                    21070553.848
        49.300          37.500
 126125508.741 7  98279493.12843  24000851.547                    24000854.516
        44.000          20.900
 120206658.102 7  93667535.71845  22874566.875                    22874568.043
        45.400          30.900
 18  3 11 13 16 51.0000000  0 17G10R06G15R05R13R14R15R22R23G17G11G32
                                G28G01G24G12G19
 120702050.950 7  94053626.55845  22968848.656                    22968854.430
        44.300          30.500
                  89129943.519 6  21475172.016                    21475173.418
                        36.500
 128933656.267 6 100467820.27742  24535262.375                    24535266.938
        39.400          17.400
                  86343087.756 5  20767190.281                    20767192.148
                        34.600
                  88367505.166 5  21276507.047                    21276507.828
                        35.800
                  80839564.116 6  19498238.750                    19498240.719
                        40.900
                  88301909.717 6  21245778.844                    21245782.652
                        37.400
                  86974390.800 6  20948443.875                    20948445.496
                        40.400
                  87374273.970 6  21000472.094                    21000476.367
                        36.500
 117315163.953 8  91414419.39045  22324332.328                    22324335.492
        48.500          33.300
 120539916.742 7  93927160.89644  22937983.336                    22937986.461
        44.800          26.900
 123705189.437 7  96393528.25044  23540289.594                    23540296.570
        42.400          26.300
 123929936.254 7  96568785.14643  23583086.086                    23583087.098
        43.500          22.500
 118280574.091 7  92166682.03645  22508043.797                    22508050.527
        43.700          32.100
 110726416.238 8  86280371.26346  21070543.961                    21070549.895
        49.300          37.900
 126121905.415 7  98276685.34643  24000166.438                    24000169.070
        44.300          21.500
 120203893.204 7  93665381.25544  22874040.711                    22874042.238
        45.000          29.600
 18  3 11 13 16 52.0000000  0 17G10R06G15R05R13R14R15R22R23G17G11G32
                                G28G01G24G12G19
 120704469.144 7  94055510.86445  22969309.438                    22969314.508
        45.400          30.400
                  89128038.164 6  21474712.773                    21474714.949
                        36.500
 128937794.049 6 100471044.47542  24536050.281                    24536054.430
        39.600          17.400
                  86344817.975 5  20767606.297                    20767608.867
                        34.600
                  88370578.425 5  21277247.828                    21277248.141
                        35.800
                  80839612.904 6  19498250.750                    19498252.703
                        40.500
                  88299443.230 6  21245185.953                    21245189.957
                        37.400
                  86976307.558 6  20948904.539                    20948907.027
                        40.600
                  87372404.342 6  21000023.148                    21000026.602
                        36.700
 117313974.753 8  91413492.75045  22324106.688                    22324109.375
        48.600          33.100
 120541854.130 7  93928670.56144  22938350.836                    22938355.121
        42.600          27.300
 123702675.106 6  96391569.02944  23539809.922                    23539818.188
        40.400          25.300
 123933317.349 7  96571419.76843  23583727.172                    23583730.227
        42.300          22.000
 118280552.123 7  92166664.91445  22508040.031                    22508046.848
        43.900          30.500
 110726396.946 8  86280356.23246  21070540.141                    21070545.719
        49.400          37.900
 126118302.204 7  98273877.65243  23999480.070                    23999483.438
        44.300          21.300
 120201128.714 7  93663227.10244  22873514.008                    22873515.793
        44.400          29.000
 18  3 11 13 16 53.0000000  0 17G10R06G15R05R13R14R15R22R23G17G11G32
                                G28G01G24G12G19
 120706887.928 7  94057395.64645  22969769.047                    22969775.000
        44.700          31.500
                  89126133.356 6  21474254.094                    21474256.074
                        36.200
 128941932.058 6 100474268.91942  24536837.281                    24536841.867
        39.500          16.900
                  86346548.855 5  20768022.641                    20768024.191
                        34.900
                  88373652.087 5  21277987.313                    21277988.207
                        35.300
                  80839662.342 6  19498262.422                    19498264.246
                        40.500
                  88296977.126 6  21244591.703                    21244596.105
                        37.300
                  86978224.942 6  20949368.125                    20949368.766
                        40.800
                  87370535.290 6  20999573.891                    20999577.715
                        36.000
 117312786.128 8  91412566.55545  22323880.039                    22323882.992
        48.600          33.300
 120543792.242 7  93930180.78144  22938719.711                    22938723.305
        42.300          28.900
 123700161.208 6  96389610.15443  23539330.930                    23539339.203
        39.100          22.500
 123936698.703 7  96574054.58243  23584371.656                    23584374.105
        43.200          21.500
 118280530.914 7  92166648.39045  22508036.250                    22508042.926
        44.000          31.800
 110726378.385 8  86280341.76246  21070536.961                    21070542.652
        49.400          37.900
 126114699.229 7  98271070.14643  23998794.602                    23998797.461
        44.200          21.700
 120198364.715 7  93661073.33144  22872988.055                    22872989.871
        43.900          29.300
 18  3 11 13 16 54.0000000  0 17G10R06G15R05R13R14R15R22R23G17G11G32
                                G28G01G24G12G19
 120709307.367 7  94059280.93945  22970228.211                    22970235.730
        43.400          31.600
                  89124229.180 6  21473795.375                    21473796.145
                        36.500
 128946070.270 6 100477493.51642  24537624.164                    24537629.586
        39.600          15.600
                  86348280.445 5  20768439.836                    20768441.313
                        34.700
                  88376726.173 5  21278727.242                    21278728.227
                        35.400
                  80839712.471 6  19498274.984                    19498277.031
                        40.400
                  88294511.481 6  21243999.188                    21244002.563
                        37.300
                  86980143.049 6  20949828.664                    20949830.941
                        40.500
                  87368666.847 6  20999124.086                    20999128.602
                        36.200
 117311598.151 8  91411640.86345  22323653.766                    22323657.102
        48.300          33.300
 120545731.077 7  93931691.52844  22939089.820                    22939092.820
        42.900          26.500
 123697647.749 6  96387651.64544  23538853.125                    23538860.441
        39.700          24.100
 123940080.397 7  96576689.68443  23585015.195                    23585018.391
        43.000          21.500
 118280510.496 7  92166632.48145  22508031.859                    22508038.422
        43.900          31.200
 110726360.529 8  86280327.84946  21070533.531                    21070539.367
        49.300          37.700
 126111096.494 7  98268262.80643  23998108.797                    23998112.188
        43.600          21.700
 120195601.223 7  93658919.96744  22872462.266                    22872464.230
        44.500          29.800
 18  3 11 13 16 55.0000000  0 17G10R06G15R05R13R14R15R22R23G17G11G32
                                G28G01G24G12G19
 120711727.386 7  94061166.66245  22970690.000                    22970695.883
        44.300          31.600
                  89122325.555 6  21473337.820                    21473337.988
                        36.700
 128950208.670 6 100480718.22342  24538411.961                    24538416.926
        38.400          13.900
                  86350012.705 5  20768855.773                    20768858.023
                        34.800
                  88379800.588 5  21279467.734                    21279469.070
                        35.600
                  80839763.249 6  19498287.094                    19498289.117
                        40.700
                  88292046.173 6  21243404.867                    21243409.750
                        37.300
                  86982061.804 6  20950290.922                    20950293.094
                        40.400
                  87366798.971 6  20998675.094                    20998679.746
                        36.200
 117310410.722 8  91410715.59345  22323427.992                    22323430.863
        48.300          33.700
 120547670.570 7  93933202.79544  22939460.359                    22939461.738
        44.500          27.500
 123695134.753 6  96385693.48644  23538375.938                    23538382.273
        41.300          25.400
 123943462.341 7  96579324.97543  23585658.656                    23585661.316
        43.300          22.200
 118280490.788 7  92166617.11945  22508029.586                    22508035.250
        44.500          32.100
 110726343.347 8  86280314.45846  21070530.430                    21070535.602
        49.300          37.600
 126107493.958 7  98265455.64843  23997423.430                    23997426.742
        43.900          22.200
 120192838.225 7  93656766.99345  22871937.352                    22871938.496
        44.800          30.500
 18  3 11 13 16 56.0000000  0 17G10R06G15R05R13R14R15R22R23G17G11G32
                                G28G01G24G12G19
 120714147.946 7  94063052.81845  22971151.195                    22971156.738
        44.600          31.400
                  89120422.459 6  21472880.188                    21472878.867
                        37.200
 128954347.210 6 100483943.10542  24539198.891                    24539204.441
        38.300          14.800
                  86351745.620 5  20769272.523                    20769274.492
                        34.500
                  88382875.404 5  21280207.086                    21280208.660
                        35.600
                  80839814.691 6  19498299.539                    19498301.305
                        40.400
                  88289581.267 6  21242813.172                    21242816.496
                        37.700
                  86983981.199 6  20950754.172                    20950755.285
                        40.700
                  87364931.706 6  20998227.141                    20998230.434
                        36.200
 117309223.878 8  91409790.78445  22323202.336                    22323205.070
        48.300          33.300
 120549610.733 7  93934714.60344  22939829.328                    22939830.516
        45.300          27.500
 123692622.195 7  96383735.67344  23537898.758                    23537903.727
        43.800          25.200
 123946844.574 7  96581960.47543  23586301.852                    23586304.953
        43.400          21.800
 118280471.835 7  92166602.35445  22508025.328                    22508031.543
        44.500          31.900
 110726326.833 8  86280301.58846  21070527.172                    21070532.883
        49.200          37.300
 126103891.604 7  98262648.63043  23996738.227                    23996741.051
        44.000          22.000
 120190075.711 7  93654614.38744  22871411.875                    22871413.000
        45.500          29.800
 18  3 11 13 16 57.0000000  0 17G10R06G15R05R13R14R15R22R23G17G11G32
                                G28G01G24G12G19
 120716569.149 7  94064939.47345  22971611.609                    22971617.082
        43.700          30.500
                  89118519.960 6  21472423.078                    21472421.055
                        36.700
 128958486.011 6 100487168.14142  24539986.969                    24539992.340
        37.800          15.600
                  86353479.243 5  20769689.719                    20769691.645
                        34.600
                  88385950.616 6  21280947.477                    21280948.984
                        36.200
                  80839866.849 6  19498311.469                    19498314.625
                        40.700
                  88287116.785 6  21242219.898                    21242223.867
                        37.200
                  86985901.258 6  20951216.891                    20951217.809
                        40.500
                  87363065.060 6  20997778.539                    20997781.723
                        36.500
 117308037.667 8  91408866.47145  22322976.781                    22322979.383
        48.600          33.300
 120551551.635 7  93936227.00644  22940198.320                    22940200.340
        45.600          27.900
 123690110.131 7  96381778.21144  23537421.164                    23537425.793
        44.700          28.600
 123950227.151 7  96584596.23943  23586945.273                    23586948.625
        43.000          21.800
 118280453.646 7  92166588.18945  22508021.555                    22508027.711
        44.600          32.100
 110726311.080 8  86280289.31546  21070523.781                    21070529.523
        49.000          37.300
 126100289.503 7  98259841.79343  23996052.555                    23996055.617
        43.700          22.500
 120187313.737 7  93652462.19844  22870886.180                    22870887.105
        45.900          29.500
 18  3 11 13 16 58.0000000  0 17G10R06G15R05R13R14R15R22R23G17G11G32
                                G28G01G24G12G19
 120718990.933 7  94066826.57945  22972072.055                    22972077.770
        43.300          30.200
                  89116618.002 6  21471964.875                    21471963.039
                        36.400
 128962625.003 6 100490393.30942  24540774.281                    24540779.781
        37.900          14.800
                  86355213.522 5  20770107.367                    20770108.563
                        34.900
                  88389026.192 6  21281690.063                    21281689.820
                        36.000
                  80839919.616 6  19498324.648                    19498327.160
                        40.700
                  88284652.677 6  21241626.289                    21241630.945
                        37.000
                  86987821.979 6  20951677.633                    20951680.258
                        40.600
                  87361199.008 5  20997329.664                    20997333.691
                        35.900
 117306852.004 7  91407942.57645  22322750.633                    22322753.906
        47.900          33.400
 120553493.222 7  93937739.94944  22940567.148                    22940569.844
        45.400          26.200
 123687598.485 7  96379821.06444  23536943.086                    23536947.836
        44.700          29.700
 123953609.940 7  96587232.16043  23587590.766                    23587592.316
        43.200          21.700
 118280436.245 7  92166574.62845  22508018.289                    22508024.523
        44.900          31.500
 110726295.968 8  86280277.54146  21070521.141                    21070526.879
        49.100          37.300
 126096687.596 7  98257035.10943  23995367.055                    23995370.090
        43.300          21.700
 120184552.223 7  93650310.36044  22870360.469                    22870361.633
        45.200          29.900
 18  3 11 13 16 59.0000000  0 17G10R06G15R05R13R14R15R22R23G17G11G32
                                G28G01G24G12G19
 120721413.312 7  94068714.15145  22972533.867                    22972538.633
        44.600          31.200
                  89114716.621 6  21471505.438                    21471504.898
                        36.700
 128966764.180 6 100493618.61742  24541561.883                    24541567.363
        38.000          13.900
                  86356948.502 5  20770523.867                    20770526.117
                        34.900
                  88392102.237 6  21282429.023                    21282430.977
                        36.100
                  80839973.101 6  19498337.008                    19498339.652
                        40.700
                  88282188.999 6  21241034.172                    21241038.043
                        37.400
                  86989743.395 6  20952143.055                    20952143.590
                        40.800
                  87359333.591 6  20996881.133                    20996885.172
                        36.100
 117305666.979 8  91407019.18245  22322525.508                    22322528.375
        48.000          33.400
 120555435.555 7  93939253.47344  22940936.125                    22940939.184
        44.400          27.200
 123685087.322 7  96377864.28844  23536465.766                    23536470.605
        44.400          29.300
 123956993.084 7  96589868.38343  23588232.836                    23588236.559
        42.700          21.700
 118280419.590 7  92166561.65245  22508015.414                    22508021.145
        44.300          31.400
 110726281.600 8  86280266.34846  21070518.477                    21070524.262
        49.100          37.600
 126093085.938 7  98254228.63443  23994681.852                    23994685.082
        43.000          22.300
 120181791.235 7  93648158.93644  22869834.203                    22869836.117
        44.200          28.800
 18  3 11 13 17  0.0000000  0 17G10R06G15R05R13R14R15R22R23G17G11G32
                                G28G01G24G12G19
 120723836.176 7  94070602.10245  22972994.633                    22972999.895
        44.600          31.100
                  89112815.766 6  21471045.492                    21471046.539
                        36.100
 128970903.459 6 100496844.02042  24542349.992                    24542355.160
        38.600          13.900
                  86358684.114 5  20770941.242                    20770943.527
                        34.800
                  88395178.575 6  21283170.070                    21283171.402
                        36.000
                  80840027.193 6  19498350.250                    19498352.789
                        40.600
                  88279725.658 6  21240440.789                    21240444.992
                        37.200
                  86991665.376 6  20952604.422                    20952606.359
                        40.800
                  87357468.710 6  20996432.797                    20996436.910
                        36.200
 117304482.488 8  91406096.20645  22322300.211                    22322302.945
        48.400          33.600
 120557378.518 7  93940767.47944  22941304.906                    22941308.926
        43.500          27.800
 123682576.523 7  96375907.80944  23535987.547                    23535993.348
        43.900          29.300
 123960376.461 7  96592504.78043  23588877.195                    23588879.789
        42.900          21.500
 118280403.602 7  92166549.19745  22508011.719                    22508018.445
        44.300          31.300
 110726267.874 8  86280255.65446  21070515.859                    21070521.789
        49.400          37.800
 126089484.404 7  98251422.23743  23993996.477                    23993999.750
        43.200          23.000
 120179030.620 7  93646007.80844  22869309.180                    22869311.445
        43.300          28.800
 18  3 11 13 17  1.0000000  0 17G10R06G15R05R13R14R15R22R23G17G11G32
                                G28G01G24G12G19
 120726259.702 7  94072490.57945  22973454.680                    22973461.461
        43.100          31.400
                  89110915.451 6  21470586.758                    21470588.430
                        36.400
 128975042.975 6 100500069.64042  24543138.000                    24543142.676
        39.400          15.600
                  86360420.404 5  20771359.242                    20771361.191
                        35.000
                  88398255.307 5  21283911.102                    21283911.859
                        35.600
                  80840081.957 6  19498363.172                    19498365.586
                        40.400
                  88277262.734 6  21239849.227                    21239852.316
                        37.100
                  86993588.064 6  20953067.383                    20953069.102
                        40.800
                  87355604.447 6  20995984.180                    20995989.141
                        36.200
 117303298.600 8  91405173.69145  22322074.469                    22322077.504
        48.300          33.300
 120559322.193 7  93942282.03144  22941675.203                    22941679.188
        43.300          27.400
 123680066.175 7  96373951.69044  23535508.742                    23535515.848
        42.800          28.900
 123963760.100 7  96595141.37943  23589521.172                    23589523.809
        42.600          22.300
 118280388.409 7  92166537.35945  22508009.250                    22508015.480
        44.300          31.800
 110726254.848 8  86280245.50546  21070513.336                    21070518.938
        49.200          37.500
 126085883.082 7  98248616.02243  23993310.617                    23993314.246
        43.400          21.700
 120176270.537 7  93643857.10444  22868783.633                    22868785.367
        44.100          29.600
 18  3 11 13 17  2.0000000  0 17G10R06G15R05R13R14R15R22R23G17G11G32
                                G28G01G24G12G19
 120728683.861 7  94074379.53045  22973915.852                    22973922.227
        43.400          31.700
                  89109015.782 6  21470128.219                    21470130.539
                        36.700
 128979182.720 6 100503295.40442  24543926.188                    24543930.484
        39.100          16.300
                  86362157.410 5  20771777.070                    20771778.777
                        34.600
                  88401332.470 5  21284652.219                    21284652.848
                        35.400
                  80840137.414 6  19498376.859                    19498379.258
                        40.600
                  88274800.219 6  21239255.766                    21239260.480
                        37.700
                  86995511.416 6  20953531.523                    20953532.254
                        40.600
                  87353740.796 6  20995536.828                    20995541.016
                        36.400
 117302115.324 7  91404251.65845  22321849.258                    22321852.090
        47.600          33.100
 120561266.618 7  93943797.15644  22942045.766                    22942048.977
        42.800          28.200
 123677556.281 6  96371995.94244  23535030.984                    23535038.410
        41.200          27.600
 123967144.081 7  96597778.25443  23590164.992                    23590167.973
        42.800          22.000
 118280374.011 7  92166526.14645  22508006.273                    22508012.742
        44.700          31.800
 110726242.529 8  86280235.90646  21070510.930                    21070516.176
        48.900          37.800
 126082282.051 7  98245810.02443  23992625.797                    23992629.242
        43.600          21.800
 120173511.002 7  93641706.83244  22868259.727                    22868260.316
        45.100          29.400
 18  3 11 13 17  3.0000000  0 17G10R06G15R05R13R14R15R22R23G17G11G32
                                G28G01G24G12G19
 120731108.500 7  94076268.83745  22974379.180                    22974384.023
        44.800          31.800
                  89107116.628 6  21469671.305                    21469672.652
                        36.700
 128983322.554 6 100506521.25342  24544714.320                    24544718.465
        39.400          16.300
                  86363895.005 5  20772194.805                    20772195.902
                        34.800
                  88404409.961 5  21285392.688                    21285393.602
                        35.900
                  80840193.474 6  19498390.719                    19498392.828
                        40.600
                  88272338.078 6  21238664.094                    21238667.656
                        37.500
                  86997435.364 6  20953995.188                    20953995.914
                        40.800
                  87351877.681 6  20995089.047                    20995093.531
                        36.800
 117300932.593 7  91403330.04845  22321624.586                    22321627.242
        47.800          33.300
 120563211.654 7  93945312.74644  22942416.539                    22942418.883
        43.700          27.500
 123675046.737 6  96370040.47644  23534551.883                    23534560.617
        39.400          26.700
 123970528.271 7  96600415.28543  23590810.313                    23590811.980
        43.000          22.900
 118280360.275 7  92166515.44245  22508003.773                    22508010.297
        44.300          31.100
 110726230.830 8  86280226.78546  21070508.578                    21070514.160
        49.300          37.700
 126078681.128 7  98243004.11243  23991940.555                    23991943.984
        43.400          22.300
 120170751.886 7  93639556.87645  22867734.539                    22867735.336
        45.700          30.200
 18  3 11 13 17  4.0000000  0 17G10R06G15R05R13R14R15R22R23G17G11G32
                                G28G01G24G12G19
 120733533.716 7  94078158.61745  22974840.203                    22974845.422
        45.000          31.600
                  89105218.024 6  21469215.164                    21469215.516
                        36.900
 128987462.579 6 100509747.25742  24545502.000                    24545506.117
        39.800          16.900
                  86365633.285 5  20772612.953                    20772614.559
                        35.000
                  88407487.832 5  21286133.961                    21286134.496
                        35.200
                  80840250.190 6  19498404.680                    19498406.641
                        40.600
                  88269876.285 6  21238071.086                    21238075.379
                        37.700
                  86999359.960 6  20954458.055                    20954460.207
                        40.400
                  87350015.103 6  20994641.164                    20994645.574
                        36.600
 117299750.417 7  91402408.86745  22321399.219                    22321402.684
        47.700          32.700
 120565157.363 7  93946828.86044  22942787.148                    22942789.004
        45.000          27.400
 123672537.594 6  96368085.33144  23534074.906                    23534083.641
        39.500          25.900
 123973912.744 7  96603052.53543  23591452.703                    23591456.043
        42.300          22.600
 118280347.292 7  92166505.32345  22508001.633                    22508007.840
        43.700          31.200
 110726219.807 8  86280218.19946  21070506.719                    21070512.309
        49.000          37.300
 126075080.400 7  98240198.36643  23991255.117                    23991258.863
        43.000          21.300
 120167993.262 7  93637407.29244  22867209.734                    22867210.766
        45.700          29.700
 18  3 11 13 17  5.0000000  0 17G10R06G15R05R13R14R15R22R23G17G11G32
                                G28G01G24G12G19
 120735959.540 7  94080048.88945  22975301.289                    22975307.492
        44.100          31.500
                  89103320.009 6  21468758.320                    21468758.672
                        36.400
 128991602.785 6 100512973.38942  24546289.664                    24546293.813
        39.900          17.400
                  86367372.272 5  20773031.094                    20773033.215
                        34.400
                  88410566.113 5  21286874.641                    21286876.324
                        35.500
                  80840307.580 6  19498418.617                    19498420.688
                        40.400
                  88267414.927 6  21237479.883                    21237483.016
                        37.500
                  87001285.242 6  20954920.922                    20954923.602
                        40.800
                  87348153.157 6  20994194.039                    20994197.980
                        36.400
 117298568.875 8  91401488.18745  22321174.445                    22321177.137
        48.100          32.600
 120567103.767 7  93948345.53744  22943158.828                    22943159.672
        46.000          27.100
 123670028.967 6  96366130.59644  23533598.234                    23533606.020
        40.600          25.300
 123977297.508 7  96605690.00643  23592098.266                    23592099.996
        42.900          22.600
 118280335.109 7  92166495.83845  22507998.273                    22508004.992
        43.700          31.800
 110726209.478 8  86280210.15046  21070504.703                    21070510.406
        49.000          37.400
 126071479.905 7  98237392.78143  23990569.711                    23990573.703
        43.000          21.300
 120165235.134 7  93635258.08944  22866684.320                    22866686.016
        45.000          29.800
 18  3 11 13 17  6.0000000  0 17G10R06G15R05R13R14R15R22R23G17G11G32
                                G28G01G24G12G19
 120738385.988 7  94081939.62945  22975763.492                    22975768.617
        44.000          31.500
                  89101422.541 6  21468301.703                    21468301.707
                        36.500
 128995743.237 6 100516199.67842  24547077.977                    24547081.902
        39.600          16.900
                  86369111.945 5  20773450.508                    20773451.191
                        34.400
                  88413644.773 5  21287617.406                    21287617.191
                        35.600
                  80840365.658 6  19498431.898                    19498434.301
                        40.700
                  88264953.977 6  21236887.398                    21236891.836
                        37.700
                  87003211.194 6  20955385.570                    20955386.598
                        40.600
                  87346291.814 6  20993746.883                    20993751.074
                        36.600
 117297387.947 8  91400567.98345  22320949.969                    22320952.801
        48.700          33.100
 120569050.910 7  93949862.79844  22943528.406                    22943529.734
        45.800          26.800
 123667520.793 7  96364176.20944  23533121.547                    23533127.984
        42.300          25.500
 123980682.606 7  96608327.75243  23592741.266                    23592744.180
        42.400          22.500
 118280323.642 7  92166486.90345  22507996.141                    22508002.883
        43.500          32.000
 110726199.893 8  86280202.68246  21070502.945                    21070508.402
        49.100          37.400
 126067879.656 7  98234587.38343  23989885.148                    23989888.586
        43.100          22.000
 120162477.521 7  93633109.28545  22866159.109                    22866161.309
        43.900          30.900
 18  3 11 13 17  7.0000000  0 17G10R06G15R05R13R14R15R22R23G17G11G32
                                G28G01G24G12G19
 120740813.032 7  94083830.82845  22976225.820                    22976230.945
        45.000          31.400
                  89099525.635 6  21467844.352                    21467844.527
                        36.600
 128999883.886 6 100519426.17742  24547864.953                    24547869.426
        39.900          16.300
                  86370852.334 5  20773868.188                    20773870.605
                        35.000
                  88416723.823 5  21288358.563                    21288358.809
                        35.900
                  80840424.401 6  19498446.180                    19498448.656
                        40.700
                  88262493.414 6  21236295.094                    21236299.297
                        37.500
                  87005137.802 6  20955850.422                    20955851.125
                        40.500
                  87344431.105 6  20993299.414                    20993303.621
                        36.900
 117296207.620 8  91399648.25145  22320725.000                    22320728.176
        48.300          33.000
 120570998.722 7  93951380.59944  22943898.203                    22943900.789
        44.600          27.800
 123665013.075 7  96362222.14744  23532644.867                    23532650.840
        43.400          26.200
 123984067.984 7  96610965.71143  23593385.617                    23593388.297
        42.600          21.800
 118280312.971 7  92166478.60345  22507993.992                    22508000.680
        43.700          32.300
 110726190.979 8  86280195.73646  21070501.508                    21070507.227
        49.200          37.800
 126064279.623 7  98231782.18243  23989199.563                    23989203.664
        43.000          22.200
 120159720.414 7  93630960.89144  22865634.180                    22865636.113
        43.400          29.300
 18  3 11 13 17  8.0000000  0 17G10R06G15R05R13R14R15R22R23G17G11G32
                                G28G01G24G12G19
 120743240.644 7  94085722.47945  22976687.188                    22976692.719
        44.600          31.300
                  89097629.252 6  21467387.297                    21467387.156
                        36.400
 129004024.711 6 100522652.83942  24548653.281                    24548657.508
        39.900          16.300
                  86372593.363 5  20774287.180                    20774288.520
                        34.600
                  88419803.274 6  21289098.266                    21289100.336
                        36.300
                  80840483.809 6  19498461.219                    19498463.004
                        41.100
                  88260033.253 6  21235702.219                    21235707.277
                        37.200
                  87007065.095 6  20956312.945                    20956315.195
                        40.400
                  87342570.979 6  20992852.102                    20992856.855
                        36.800
 117295027.890 8  91398728.97945  22320500.938                    22320503.551
        48.400          33.000
 120572947.265 7  93952898.97144  22944267.852                    22944271.453
        43.000          27.700
 123662505.823 7  96360268.41544  23532167.891                    23532173.402
        44.500          26.000
 123987453.661 7  96613603.87143  23594030.789                    23594032.328
        43.900          22.800
 118280303.038 7  92166470.86245  22507992.766                    22507998.918
        43.700          31.700
 110726182.745 8  86280189.31946  21070499.305                    21070505.598
        49.000          37.600
 126060679.807 7  98228977.13443  23988514.977                    23988518.695
        43.200          21.800
 120156963.759 7  93628812.86644  22865110.398                    22865111.926
        43.800          29.300
 18  3 11 13 17  9.0000000  0 17G10R06G15R05R13R14R15R22R23G17G11G32
                                G28G01G24G12G19
 120745668.882 7  94087614.62045  22977148.102                    22977154.453
        44.300          30.900
                  89095733.465 6  21466931.477                    21466930.383
                        36.200
 129008165.723 6 100525879.62442  24549441.273                    24549445.707
        39.600          17.800
                  86374335.093 5  20774706.094                    20774707.363
                        34.000
                  88422883.127 5  21289841.617                    21289842.047
                        35.900
                  80840543.913 6  19498475.695                    19498476.898
                        40.400
                  88257573.495 6  21235111.930                    21235115.891
                        37.700
                  87008993.052 6  20956778.391                    20956779.000
                        40.500
                  87340711.499 6  20992405.695                    20992409.434
                        36.200
 117293848.771 8  91397810.19145  22320276.500                    22320279.566
        48.600          33.100
 120574896.560 7  93954417.90544  22944638.492                    22944642.375
        42.400          27.200
 123659999.029 7  96358315.02144  23531691.016                    23531696.113
        44.700          28.300
 123990839.653 7  96616242.29943  23594673.758                    23594676.855
        43.000          22.800
 118280293.907 7  92166463.74345  22507991.078                    22507997.645
        43.900          31.300
 110726175.239 8  86280183.46946  21070497.836                    21070503.910
        48.800          37.700
 126057080.205 7  98226172.26443  23987829.422                    23987833.637
        42.900          21.300
 120154207.673 7  93626665.28744  22864586.164                    22864586.855
        44.900          29.700
 18  3 11 13 17 10.0000000  0 17G10R06G15R05R13R14R15R22R23G17G11G32
                                G28G01G24G12G19
 120748097.664 7  94089507.18245  22977611.063                    22977616.785
        44.200          30.400
                  89093838.186 6  21466474.016                    21466473.375
                        36.700
 129012306.942 6 100529106.52342  24550228.984                    24550233.555
        38.900          17.800
                  86376077.463 5  20775125.625                    20775126.801
                        34.500
                  88425963.344 5  21290581.820                    21290583.445
                        35.800
                  80840604.685 6  19498489.969                    19498491.672
                        40.700
                  88255114.118 6  21234519.773                    21234524.168
                        37.600
                  87010921.611 6  20957243.336                    20957244.602
                        40.200
                  87338852.571 6  20991958.469                    20991962.617
                        36.700
 117292670.190 8  91396891.82145  22320052.320                    22320054.961
        48.800          33.200
 120576846.485 7  93955937.31144  22945010.711                    22945013.504
        42.700          27.500
 123657492.623 7  96356361.93544  23531213.617                    23531218.906
        43.800          27.900
 123994225.866 7  96618880.91343  23595319.594                    23595321.781
        43.200          22.900
 118280285.472 7  92166457.17445  22507988.703                    22507995.813
        43.800          31.500
 110726168.352 8  86280178.10246  21070496.695                    21070502.547
        49.000          37.300
 126053480.798 7  98223367.53543  23987145.359                    23987148.813
        42.600          20.900
 120151452.039 7  93624518.04645  22864062.195                    22864063.000
        45.500          30.200
 18  3 11 13 17 11.0000000  0 17G10R06G15R05R13R14R15R22R23G17G11G32
                                G28G01G24G12G19
 120750526.998 7  94091400.17045  22978073.273                    22978079.086
        44.300          30.900
                  89091943.485 6  21466017.688                    21466017.512
                        36.300
 129016448.296 6 100532333.53042  24551017.602                    24551021.816
        39.000          16.900
                  86377820.489 5  20775543.359                    20775546.234
                        34.300
                  88429043.913 6  21291323.953                    21291325.105
                        36.100
                  80840666.077 6  19498504.656                    19498506.953
                        40.600
                  88252655.113 6  21233928.406                    21233932.074
                        38.100
                  87012850.819 6  20957706.688                    20957709.066
                        40.400
                  87336994.247 6  20991512.609                    20991515.707
                        36.700
 117291492.203 8  91395973.90645  22319828.086                    22319831.121
        48.400          33.500
 120578797.088 7  93957457.23944  22945382.727                    22945384.852
        43.300          26.900
 123654986.652 7  96354409.20744  23530736.258                    23530742.480
        43.200          29.000
 123997612.344 7  96621519.73243  23595963.305                    23595965.547
        42.900          22.500
 118280277.764 7  92166451.16745  22507987.695                    22507994.297
        43.600          31.100
 110726162.136 8  86280173.25746  21070496.070                    21070501.508
        48.900          37.400
 126049881.577 7  98220562.94943  23986460.156                    23986463.813
        42.700          21.500
 120148696.854 7  93622371.13444  22863537.539                    22863538.582
        45.300          29.100
 18  3 11 13 17 12.0000000  0 17G10R06G15R05R13R14R15R22R23G17G11G32
                                G28G01G24G12G19
 120752956.955 7  94093293.66445  22978535.297                    22978541.426
        43.100          31.600
                  89090049.360 6  21465561.141                    21465561.336
                        36.200
 129020589.875 6 100535560.72542  24551805.031                    24551809.625
        38.900          17.400
                  86379564.207 5  20775964.148                    20775965.074
                        33.800
                  88432124.885 6  21292066.938                    21292066.801
                        36.600
                  80840728.146 6  19498519.633                    19498521.715
                        40.400
                  88250196.532 6  21233336.375                    21233340.043
                        38.000
                  87014780.742 6  20958171.625                    20958173.621
                        40.500
                  87335136.519 6  20991065.695                    20991069.605
                        37.300
 117290314.836 8  91395056.47845  22319603.711                    22319606.988
        48.500          33.700
 120580748.395 7  93958977.72044  22945754.305                    22945755.855
        44.200          27.800
 123652481.132 7  96352456.84844  23530259.000                    23530265.965
        42.600          28.400
 124000999.175 7  96624158.83043  23596607.180                    23596610.059
        42.600          23.000
 118280270.821 7  92166445.75945  22507986.820                    22507993.148
        43.900          30.900
 110726156.672 8  86280169.00146  21070494.727                    21070500.262
        49.100          37.200
 126046282.591 7  98217758.55343  23985774.867                    23985779.145
        42.800          21.100
 120145942.241 7  93620224.66245  22863012.750                    22863014.508
        44.900          30.000
 18  3 11 13 17 13.0000000  0 17G10R06G15R05R13R14R15R22R23G17G11G32
                                G28G01G24G12G19
 120755387.542 6  94095187.63045  22978996.773                    22979003.992
        41.800          31.100
                  89088155.801 6  21465103.820                    21465105.020
                        36.200
 129024731.714 6 100538788.10442  24552593.305                    24552597.641
        39.400          16.900
                  86381308.619 5  20776383.938                    20776385.070
                        34.400
                  88435206.265 6  21292807.523                    21292808.809
                        36.200
                  80840790.897 6  19498534.711                    19498536.891
                        40.400
                  88247738.354 6  21232744.477                    21232749.410
                        38.000
                  87016711.270 6  20958638.523                    20958638.285
                        40.400
                  87333279.408 6  20990618.789                    20990623.246
                        37.000
 117289138.054 8  91394139.50545  22319379.930                    22319383.070
        48.400          33.600
 120582700.417 7  93960498.77844  22946125.047                    22946127.566
        44.500          28.200
 123649976.059 6  96350504.86144  23529781.438                    23529789.309
        41.500          27.900
 124004386.273 7  96626798.14643  23597253.227                    23597254.914
        42.800          22.000
 118280264.666 7  92166440.97045  22507984.945                    22507991.941
        43.400          31.500
 110726151.894 8  86280165.28046  21070493.672                    21070499.289
        49.200          37.500
 126042683.836 7  98214954.32443  23985090.820                    23985094.301
        43.200          21.300
 120143188.060 7  93618078.53844  22862488.445                    22862490.637
        43.600          28.800
 18  3 11 13 17 14.0000000  0 17G10R06G15R05R13R14R15R22R23G17G11G32
                                G28G01G24G12G19
 120757818.696 7  94097082.01845  22979460.586                    22979466.574
        42.700          31.500
                  89086262.831 6  21464647.234                    21464648.938
                        36.900
 129028873.636 6 100542015.56142  24553381.766                    24553385.781
        38.900          17.400
                  86383053.716 5  20776803.219                    20776804.129
                        34.500
                  88438288.011 5  21293549.969                    21293550.434
                        35.700
                  80840854.333 6  19498549.805                    19498551.652
                        40.600
                  88245280.585 6  21232154.289                    21232157.637
                        37.400
                  87018642.430 6  20959102.727                    20959104.059
                        40.500
                  87331422.895 6  20990173.406                    20990176.777
                        36.800
 117287961.849 8  91393222.98545  22319155.727                    22319159.082
        48.400          33.100
 120584653.110 7  93962020.37444  22946496.422                    22946499.270
        44.000          28.700
 123647471.399 6  96348553.22244  23529304.594                    23529313.117
        40.900          27.100
 124007773.663 7  96629437.67243  23597897.023                    23597898.973
        42.500          22.500
 118280259.253 7  92166436.74945  22507984.391                    22507990.445
        43.500          31.000
 110726147.785 8  86280162.07546  21070492.852                    21070498.484
        49.600          37.800
 126039085.263 7  98212150.24143  23984405.539                    23984409.391
        43.200          20.900
 120140434.378 7  93615932.81644  22861963.859                    22861966.242
        43.600          29.800
 18  3 11 13 17 15.0000000  0 17G10R06G15R05R13R14R15R22R23G17G11G32
                                G28G01G24G12G19
 120760250.458 7  94098976.87645  22979924.391                    22979929.594
        44.500          31.900
                  89084370.449 6  21464190.914                    21464193.328
                        36.700
 129033015.795 6 100545243.24742  24554169.406                    24554173.941
        38.700          16.900
                  86384799.506 5  20777222.992                    20777224.109
                        34.700
                  88441370.167 6  21294292.039                    21294292.324
                        36.000
                  80840918.455 6  19498565.313                    19498567.379
                        40.400
                  88242823.204 6  21231562.172                    21231566.922
                        37.400
                  87020574.335 6  20959565.766                    20959569.352
                        40.600
                  87329566.954 6  20989726.898                    20989730.637
                        37.100
 117286786.306 8  91392306.98245  22318932.859                    22318935.555
        48.600          33.100
 120586606.556 7  93963542.54544  22946867.859                    22946870.949
        43.600          26.900
 123644967.205 6  96346601.96244  23528828.766                    23528836.418
        41.500          27.300
 124011161.355 7  96632077.43043  23598541.977                    23598543.930
        42.700          22.300
 118280254.610 7  92166433.12245  22507983.266                    22507989.813
        43.400          30.700
 110726144.444 8  86280159.47246  21070492.383                    21070498.094
        49.600          37.500
 126035486.966 7  98209346.36243  23983720.477                    23983724.625
        43.300          20.900
 120137681.239 7  93613787.53744  22861441.008                    22861442.684
        44.800          29.700
 18  3 11 13 17 16.0000000  0 17G10R06G15R05R13R14R15R22R23G17G11G32
                                G28G01G24G12G19
 120762682.773 7  94100872.19045  22980386.844                    22980392.426
        43.900          31.600
                  89082478.626 6  21463734.859                    21463737.145
                        36.300
 129037158.169 6 100548471.07042  24554958.242                    24554962.184
        38.700          16.900
                  86386545.944 5  20777643.211                    20777644.668
                        34.200
                  88444452.732 6  21295034.211                    21295034.621
                        36.100
                  80840983.219 6  19498580.977                    19498583.309
                        40.600
                  88240366.256 6  21230971.516                    21230974.828
                        37.500
                  87022506.858 6  20960034.344                    20960034.238
                        40.500
                  87327711.625 6  20989281.422                    20989284.844
                        37.000
 117285611.315 7  91391391.40745  22318708.828                    22318711.617
        47.900          32.700
 120588560.687 7  93965065.23844  22947240.109                    22947242.750
        44.200          27.100
 123642463.458 7  96344651.03344  23528352.820                    23528360.023
        42.500          28.300
 124014549.322 7  96634717.38943  23599185.820                    23599188.219
        42.800          21.800
 118280250.725 7  92166430.09945  22507982.852                    22507988.805
        43.400          31.800
 110726141.767 8  86280157.38446  21070491.953                    21070497.227
        49.500          37.400
 126031888.847 7  98206542.63643  23983036.469                    23983039.777
        43.600          19.600
 120134928.588 7  93611642.63544  22860917.813                    22860918.418
        45.000          29.100
 18  3 11 13 17 17.0000000  0 17G10R06G15R05R13R14R15R22R23G17G11G32
                                G28G01G24G12G19
 120765115.680 7  94102767.96945  22980849.180                    22980855.309
        43.600          30.500
                  89080587.385 6  21463280.914                    21463280.977
                        36.500
 129041300.693 6 100551699.01142  24555745.977                    24555750.770
        39.300          16.900
                  86388293.068 5  20778062.781                    20778064.773
                        34.100
                  88447535.647 5  21295778.609                    21295777.316
                        35.600
                  80841048.631 6  19498596.852                    19498598.375
                        40.200
                  88237909.672 6  21230380.320                    21230384.473
                        37.400
                  87024440.015 6  20960499.500                    20960500.648
                        40.600
                  87325856.854 6  20988835.484                    20988839.047
                        36.700
 117284436.904 8  91390476.29245  22318485.188                    22318488.746
        48.400          33.100
 120590515.480 7  93966588.46344  22947612.594                    22947615.055
        44.300          28.000
 123639960.155 7  96342700.44444  23527877.352                    23527884.137
        43.400          28.900
 124017937.528 7  96637357.54243  23599830.531                    23599833.602
        42.600          22.200
 118280247.571 7  92166427.64245  22507982.344                    22507988.434
        44.300          31.200
 110726139.730 8  86280155.79446  21070491.586                    21070496.879
        49.700          37.600
 126028290.919 7  98203739.05243  23982351.180                    23982355.043
        43.200          19.600
 120132176.403 7  93609498.07844  22860393.766                    22860394.941
        45.300          29.700
 18  3 11 13 17 18.0000000  0 17G10R06G15R05R13R14R15R22R23G17G11G32
                                G28G01G24G12G19
 120767549.224 7  94104664.23445  22981312.313                    22981317.953
        44.000          31.500
                  89078696.708 6  21462825.156                    21462825.527
                        36.000
 129045443.445 6 100554927.14742  24556534.172                    24556538.738
        39.600          16.300
                  86390040.878 5  20778483.828                    20778484.758
                        34.000
                  88450618.987 5  21296518.727                    21296519.918
                        35.800
                  80841114.728 6  19498612.898                    19498614.633
                        40.400
                  88235453.513 6  21229788.984                    21229792.891
                        37.400
                  87026373.909 6  20960963.234                    20960966.277
                        40.600
                  87324002.739 6  20988389.359                    20988393.418
                        36.800
 117283263.148 8  91389561.68345  22318262.078                    22318264.898
        48.800          33.400
 120592471.029 7  93968112.26244  22947984.383                    22947986.797
        44.200          26.800
 123637457.324 7  96340750.18944  23527401.547                    23527407.781
        44.100          27.200
 124021326.113 7  96639998.00043  23600476.406                    23600477.953
        43.000          22.500
 118280245.196 7  92166425.78245  22507982.375                    22507987.938
        43.700          31.200
 110726138.454 8  86280154.80246  21070491.359                    21070496.656
        49.500          37.300
 126024693.236 7  98200935.66143  23981667.023                    23981670.086
        43.000          19.300
 120129424.793 7  93607353.95844  22859870.211                    22859871.285
        45.200          29.500
 18  3 11 13 17 19.0000000  0 17G10R06G15R05R13R14R15R22R23G17G11G32
                                G28G01G24G12G19
 120769983.267 7  94106560.89245  22981776.508                    22981781.184
        44.500          31.300
                  89076806.539 6  21462369.938                    21462370.195
                        36.000
 129049586.299 6 100558155.32342  24557323.313                    24557327.496
        39.700          16.300
                  86391789.305 5  20778904.617                    20778905.883
                        34.400
                  88453702.677 5  21297261.055                    21297262.055
                        35.700
                  80841181.441 6  19498628.734                    19498631.191
                        40.300
                  88232997.682 6  21229198.320                    21229202.594
                        37.100
                  87028308.386 6  20961430.867                    20961431.605
                        40.500
                  87322149.162 6  20987943.984                    20987948.023
                        36.600
 117282089.902 8  91388647.46545  22318039.148                    22318041.500
        48.900          33.400
 120594427.188 7  93969636.53944  22948356.453                    22948359.133
        44.100          27.100
 123634954.900 7  96338800.23344  23526924.773                    23526931.367
        44.300          26.400
 124024714.897 7  96642638.60743  23601121.234                    23601123.297
        43.000          21.800
 118280243.498 7  92166424.46545  22507982.258                    22507987.984
        43.700          30.900
 110726137.788 8  86280154.28546  21070491.242                    21070496.781
        49.100          37.400
 126021095.715 7  98198132.40943  23980982.516                    23980985.371
        43.200          19.600
 120126673.564 7  93605210.13144  22859346.008                    22859347.559
        44.600          29.100
 18  3 11 13 17 20.0000000  0 17G10R06G15R05R13R14R15R22R23G17G11G32
                                G28G01G24G12G19
 120772417.865 7  94108457.98345  22982239.406                    22982244.746
        44.300          31.400
                  89074916.914 6  21461915.328                    21461915.023
                        37.000
 129053729.349 6 100561383.66642  24558111.984                    24558115.602
        40.200          16.300
                  86393538.403 5  20779324.313                    20779325.770
                        35.200
                  88456786.673 5  21298004.000                    21298003.965
                        35.800
                  80841248.807 6  19498645.664                    19498647.289
                        40.400
                  88230542.215 6  21228606.938                    21228611.328
                        37.200
                  87030243.472 6  20961897.195                    20961898.395
                        40.400
                  87320296.164 6  20987498.953                    20987502.738
                        37.200
 117280917.222 8  91387733.69245  22317815.234                    22317818.773
        48.300          32.700
 120596384.013 7  93971161.35344  22948728.461                    22948731.355
        43.400          28.100
 123632452.867 7  96336850.56844  23526448.188                    23526455.023
        44.200          25.700
 124028103.937 7  96645279.41243  23601765.977                    23601767.879
        42.900          22.300
 118280242.523 7  92166423.71645  22507981.781                    22507987.957
        43.800          30.800
 110726137.785 8  86280154.28346  21070491.023                    21070496.547
        49.000          37.500
 126017498.363 7  98195329.26843  23980297.531                    23980301.141
        42.800          19.000
 120123922.788 7  93603066.66244  22858821.789                    22858824.305
        44.200          29.900
 18  3 11 13 17 21.0000000  0 17G10R06G15R05R13R14R15R22R23G17G11G32
                                G28G01G24G12G19
 120774853.075 7  94110355.56745  22982701.500                    22982707.809
        43.900          31.800
                  89073027.833 6  21461458.570                    21461459.602
                        36.300
 129057872.578 6 100564612.15542  24558899.844                    24558904.422
        40.500          16.900
                  86395288.172 5  20779746.242                    20779747.035
                        34.800
                  88459871.122 5  21298745.758                    21298747.805
                        35.800
                  80841316.853 6  19498661.289                    19498663.855
                        40.400
                  88228087.196 6  21228017.789                    21228021.090
                        37.400
                  87032179.251 6  20962361.227                    20962364.227
                        40.900
                  87318443.771 6  20987053.094                    20987057.289
                        36.500
 117279745.145 8  91386820.39045  22317592.133                    22317595.320
        48.000          33.500
 120598341.576 7  93972686.72444  22949101.023                    22949104.207
        42.700          28.000
 123629951.288 7  96334901.25344  23525972.188                    23525978.645
        43.200          25.300
 124031493.275 7  96647920.44043  23602410.336                    23602412.688
        42.800          22.600
 118280242.325 7  92166423.57145  22507981.523                    22507987.422
        43.500          31.200
 110726138.476 8  86280154.81846  21070491.539                    21070496.785
        48.700          37.600
 126013901.243 7  98192526.29043  23979613.141                    23979616.313
        43.200          18.300
 120121172.523 7  93600923.60144  22858298.781                    22858300.410
        44.400          29.600
 18  3 11 13 17 22.0000000  0 17G10R06G15R05R13R14R15R22R23G17G11G32
                                G28G01G24G12G19
 120777288.876 7  94112253.59645  22983165.875                    22983171.793
        44.600          31.700
                  89071139.354 6  21461004.531                    21461005.027
                        36.500
 129062016.022 6 100567840.84442  24559688.766                    24559692.594
        40.800          16.900
                  86397038.610 5  20780167.391                    20780168.609
                        34.700
                  88462955.960 5  21299488.609                    21299489.582
                        35.400
                  80841385.572 6  19498678.250                    19498680.102
                        40.400
                  88225632.534 6  21227425.266                    21227430.184
                        37.800
                  87034115.687 6  20962830.180                    20962830.535
                        40.600
                  87316592.003 6  20986608.539                    20986612.059
                        36.400
 117278573.667 8  91385907.55945  22317369.891                    22317372.617
        48.400          33.900
 120600299.842 7  93974212.65044  22949473.820                    22949476.613
        42.400          27.800
 123627450.142 7  96332952.27344  23525495.398                    23525502.016
        42.700          25.000
 124034882.900 7  96650561.71543  23603055.031                    23603058.301
        42.500          22.600
 118280242.898 7  92166424.02045  22507981.500                    22507987.586
        43.700          31.900
 110726139.889 8  86280155.91846  21070491.406                    21070497.207
        49.200          37.600
 126010304.324 7  98189723.49143  23978928.750                    23978932.008
        43.100          18.300
 120118422.785 7  93598780.96645  22857775.945                    22857777.242
        44.800          30.200
 18  3 11 13 17 23.0000000  0 17G10R06G15R05R13R14R15R22R23G17G11G32
                                G28G01G24G12G19
 120779725.267 7  94114152.07745  22983629.969                    22983635.191
        45.200          31.900
                  89069251.414 6  21460549.203                    21460550.094
                        36.000
 129066159.646 6 100571069.63842  24560477.117                    24560481.094
        40.800          16.300
                  86398789.735 5  20780587.813                    20780589.551
                        34.600
                  88466041.148 5  21300231.797                    21300232.699
                        35.300
                  80841454.935 6  19498694.516                    19498696.910
                        40.400
                  88223178.306 6  21226836.797                    21226840.082
                        37.500
                  87036052.755 6  20963296.875                    20963297.891
                        40.400
                  87314740.801 6  20986162.883                    20986167.102
                        36.800
 117277402.797 8  91384995.19645  22317147.148                    22317149.742
        48.200          33.000
 120602258.801 7  93975739.11044  22949846.977                    22949849.156
        42.800          27.200
 123624949.446 7  96331003.65444  23525019.328                    23525026.504
        42.000          24.600
 124038272.813 7  96653203.20543  23603702.047                    23603702.910
        42.800          22.800
 118280244.245 7  92166425.06945  22507981.484                    22507987.516
        44.900          31.700
 110726141.986 8  86280157.54846  21070492.117                    21070497.676
        49.600          37.200
 126006707.663 7  98186920.90643  23978244.344                    23978247.469
        42.900          18.600
 120115673.552 7  93596638.71345  22857253.305                    22857254.375
        45.400          30.200
 18  3 11 13 17 24.0000000  0 17G10R06G15R05R13R14R15R22R23G17G11G32
                                G28G01G24G12G19
 120782162.254 7  94116051.02945  22984093.227                    22984099.141
        44.800          32.600
                  89067364.049 6  21460093.602                    21460094.789
                        36.000
 129070303.477 6 100574298.59742  24561265.711                    24561269.625
        40.500          16.900
                  86400541.561 5  20781009.734                    20781010.496
                        35.300
                  88469126.768 5  21300974.922                    21300976.121
                        35.600
                  80841524.993 6  19498711.938                    19498713.699
                        40.500
                  88220724.456 6  21226246.047                    21226249.707
                        37.200
                  87037990.538 6  20963760.570                    20963764.398
                        39.800
                  87312890.247 6  20985719.438                    20985722.574
                        36.900
 117276232.536 8  91384083.31045  22316923.500                    22316927.102
        48.000          33.300
 120604218.468 7  93977266.13044  22950219.461                    22950222.730
        42.100          27.400
 123622449.182 7  96329055.39344  23524543.414                    23524550.418
        42.200          25.900
 124041663.066 7  96655844.97443  23604346.156                    23604347.445
        42.900          22.000
 118280246.325 7  92166426.68845  22507982.305                    22507988.637
        45.100          31.500
 110726144.793 8  86280159.73646  21070492.531                    21070498.094
        49.500          37.300
 126003111.214 7  98184118.47743  23977559.813                    23977563.215
        42.600          18.600
 120112924.837 7  93594496.85845  22856730.117                    22856731.402
        45.000          30.500
 18  3 11 13 17 25.0000000  0 17G10R06G15R05R13R14R15R22R23G17G11G32
                                G28G01G24G12G19
 120784599.854 7  94117950.46845  22984556.484                    22984562.957
        44.100          32.400
                  89065477.245 6  21459639.617                    21459640.508
                        36.000
 129074447.463 6 100577527.68842  24562053.984                    24562057.930
        41.000          16.900
                  86402294.056 5  20781430.391                    20781432.066
                        34.900
                  88472212.745 5  21301716.438                    21301718.410
                        35.600
                  80841595.712 6  19498729.109                    19498731.031
                        40.300
                  88218271.001 6  21225655.461                    21225659.223
                        37.400
                  87039928.940 6  20964230.180                    20964230.410
                        39.700
                  87311040.253 6  20985274.125                    20985277.824
                        36.600
 117275062.843 8  91383171.86845  22316701.453                    22316704.582
        48.300          32.800
 120606178.850 7  93978793.68844  22950592.750                    22950595.305
        42.500          26.600
 123619949.369 7  96327107.51244  23524068.461                    23524075.344
        42.400          27.400
 124045053.526 7  96658486.87443  23604990.602                    23604993.133
        42.700          22.500
 118280249.138 7  92166428.87645  22507983.633                    22507988.879
        44.300          31.400
 110726148.263 8  86280162.43846  21070492.898                    21070498.793
        49.300          37.000
 125999514.942 7  98181316.18543  23976875.336                    23976878.945
        43.000          18.600
 120110176.576 7  93592355.35444  22856206.875                    22856208.500
        44.600          28.900
 18  3 11 13 17 26.0000000  0 17G10R06G15R05R13R14R15R22R23G17G11G32
                                G28G01G24G12G19
 120787038.047 7  94119850.35745  22985021.375                    22985026.871
        44.400          32.200
                  89063591.002 6  21459185.602                    21459186.191
                        36.000
 129078591.655 6 100580756.93642  24562842.289                    24562846.848
        40.400          16.300
                  86404047.229 5  20781852.781                    20781854.852
                        34.300
                  88475299.074 5  21302462.063                    21302461.488
                        35.800
                  80841667.110 6  19498746.086                    19498748.051
                        40.400
                  88215817.957 6  21225065.414                    21225068.777
                        37.000
                  87041868.006 6  20964697.328                    20964698.434
                        40.200
                  87309190.876 6  20984829.523                    20984833.238
                        37.000
 117273893.762 8  91382260.89745  22316479.477                    22316481.852
        48.900          33.500
 120608139.939 7  93980321.79544  22950966.492                    22950968.410
        43.000          27.400
 123617450.048 7  96325160.01944  23523593.102                    23523599.445
        43.700          28.600
 124048444.340 7  96661129.06443  23605636.344                    23605638.520
        43.400          22.600
 118280252.752 7  92166431.71145  22507983.461                    22507989.707
        44.500          30.300
 110726152.462 8  86280165.70746  21070493.914                    21070499.523
        48.600          37.300
 125995918.929 7  98178514.09842  23976191.211                    23976194.445
        43.100          17.800
 120107428.867 7  93590214.28344  22855683.883                    22855685.715
        44.400          29.200
 18  3 11 13 17 27.0000000  0 17G10R06G15R05R13R14R15R22R23G17G11G32
                                G28G01G24G12G19
 120789476.736 7  94121750.62345  22985486.164                    22985490.934
        45.100          32.000
                  89061705.303 6  21458729.961                    21458731.680
                        36.200
 129082736.021 6 100583986.31842  24563631.219                    24563635.508
        40.400          16.900
                  86405801.073 5  20782274.266                    20782275.770
                        34.800
                  88478385.804 6  21303203.430                    21303204.934
                        36.400
                  80841739.131 6  19498763.953                    19498765.352
                        40.300
                  88213365.277 6  21224474.875                    21224478.820
                        38.000
                  87043807.756 6  20965162.188                    20965165.473
                        40.200
                  87307342.066 6  20984385.453                    20984389.434
                        36.400
 117272725.251 8  91381350.37945  22316256.914                    22316259.410
        48.800          33.800
 120610101.692 7  93981850.42744  22951340.578                    22951342.199
        44.000          27.200
 123614951.104 7  96323212.80944  23523118.125                    23523124.141
        44.000          28.700
 124051835.381 7  96663771.43843  23606282.320                    23606284.273
        42.900          22.000
 118280257.067 7  92166435.08845  22507984.555                    22507990.422
        44.100          31.400
 110726157.303 8  86280169.47546  21070494.742                    21070500.254
        48.700          37.600
 125992323.087 7  98175712.13842  23975507.320                    23975510.199
        42.500          17.800
 120104681.585 7  93588073.54945  22855161.148                    22855163.246
        44.900          30.400
 18  3 11 13 17 28.0000000  0 17G10R06G15R05R13R14R15R22R23G17G11G32
                                G28G01G24G12G19
 120791916.034 7  94123651.38245  22985948.727                    22985955.023
        44.300          31.000
                  89059820.208 5  21458276.359                    21458277.594
                        35.800
 129086880.589 6 100587215.85842  24564420.039                    24564424.340
        40.500          17.400
                  86407555.589 5  20782696.898                    20782697.594
                        34.800
                  88481472.929 6  21303946.945                    21303948.141
                        36.000
                  80841811.814 6  19498780.914                    19498783.480
                        40.500
                  88210913.021 6  21223884.852                    21223888.797
                        37.800
                  87045748.162 6  20965631.070                    20965632.398
                        40.200
                  87305493.853 6  20983939.852                    20983945.191
                        36.600
 117271557.329 8  91380440.31045  22316034.188                    22316037.613
        48.000          33.900
 120612064.141 7  93983379.62444  22951713.641                    22951715.258
        44.200          27.600
 123612452.632 7  96321265.96344  23522642.656                    23522649.336
        44.100          29.600
 124055226.741 7  96666414.04943  23606927.141                    23606929.195
        43.000          22.600
 118280262.152 7  92166439.06345  22507985.109                    22507991.648
        43.900          31.200
 110726162.850 8  86280173.80046  21070495.852                    21070501.992
        48.800          37.100
 125988727.469 7  98172910.35643  23974822.602                    23974825.563
        42.200          18.300
 120101934.832 7  93585933.22144  22854638.586                    22854640.164
        45.600          29.400
 18  3 11 13 17 29.0000000  0 17G10R06G15R05R13R14R15R22R23G17G11G32
                                G28G01G24G12G19
 120794355.987 7  94125552.65845  22986412.570                    22986419.633
        43.200          31.700
                  89057935.702 5  21457822.867                    21457823.105
                        35.800
 129091025.341 6 100590445.54242  24565208.898                    24565212.836
        39.600          17.400
                  86409310.781 5  20783118.727                    20783120.113
                        34.600
                  88484560.418 6  21304691.258                    21304691.867
                        36.200
                  80841885.191 6  19498799.008                    19498800.832
                        40.500
                  88208461.154 6  21223295.094                    21223298.855
                        37.800
                  87047689.194 6  20966099.281                    20966100.176
                        40.200
                  87303646.271 6  20983496.414                    20983501.074
                        36.700
 117270390.004 8  91379530.70145  22315811.797                    22315814.875
        48.100          33.500
 120614027.252 7  93984909.33844  22952086.102                    22952089.113
        43.700          27.000
 123609954.618 7  96319319.46744  23522167.000                    23522174.238
        43.800          28.300
 124058618.374 7  96669056.88443  23607572.258                    23607574.664
        43.400          23.600
 118280268.020 7  92166443.63445  22507985.594                    22507992.207
        43.500          31.800
 110726169.113 8  86280178.67946  21070496.773                    21070503.234
        48.600          37.800
 125985132.081 6  98170108.75142  23974138.859                    23974141.438
        41.900          17.800
 120099188.591 7  93583793.28944  22854115.977                    22854117.738
        45.300          29.900
 18  3 11 13 17 30.0000000  0 17G10R06G15R05R13R14R15R22R23G17G11G32
                                G28G01G24G12G19
 120796796.465 7  94127454.31745  22986877.273                    22986883.641
        43.800          31.500
                  89056051.732 6  21457369.453                    21457370.031
                        36.200
 129095170.219 6 100593675.29842  24565997.500                    24566001.340
        39.500          16.900
                  86411066.600 5  20783542.086                    20783542.418
                        34.600
                  88487648.259 5  21305433.500                    21305435.125
                        35.800
                  80841959.200 6  19498816.773                    19498818.402
                        40.500
                  88206009.652 6  21222704.328                    21222708.887
                        37.200
                  87049630.853 6  20966565.422                    20966567.996
                        40.600
                  87301799.242 6  20983053.000                    20983056.488
                        36.700
 117269223.241 8  91378621.54345  22315591.078                    22315593.453
        49.000          33.400
 120615991.088 7  93986439.62544  22952458.742                    22952462.832
        42.600          27.800
 123607456.992 7  96317373.25944  23521691.578                    23521698.988
        42.800          28.400
 124062010.242 7  96671699.90543  23608217.344                    23608220.746
        43.500          22.300
 118280274.563 7  92166448.72945  22507986.758                    22507993.570
        43.600          31.500
 110726176.010 8  86280184.05746  21070498.211                    21070504.293
        49.100          37.200
 125981536.823 7  98167307.26042  23973454.344                    23973457.453
        42.100          17.800
 120096442.794 7  93581653.70644  22853593.148                    22853595.094
        45.000          29.700
 18  3 11 13 17 31.0000000  0 17G10R06G15R05R13R14R15R22R23G17G11G32
                                G28G01G24G12G19
 120799237.454 7  94129356.37945  22987342.836                    22987348.391
        44.600          31.800
                  89054168.299 6  21456916.211                    21456915.527
                        36.300
 129099315.245 6 100596905.18543  24566786.367                    24566790.309
        39.200          18.300
                  86412823.066 5  20783963.516                    20783964.723
                        34.300
                  88490736.441 5  21306178.289                    21306178.348
                        35.900
                  80842033.857 6  19498834.750                    19498836.523
                        40.500
                  88203558.515 6  21222115.375                    21222119.301
                        37.400
                  87051573.158 6  20967033.266                    20967034.895
                        40.500
                  87299952.810 6  20982610.180                    20982613.359
                        36.800
 117268057.048 8  91377712.82045  22315368.500                    22315371.465
        49.000          33.700
 120617955.570 6  93987970.40244  22952831.492                    22952836.891
        41.100          27.700
 123604959.753 7  96315427.34944  23521216.023                    23521223.707
        42.200          27.900
 124065402.359 7  96674343.10543  23608863.578                    23608866.145
        43.300          22.500
 118280281.830 7  92166454.39345  22507987.211                    22507994.738
        43.700          31.500
 110726183.532 8  86280189.91746  21070499.797                    21070505.719
        49.400          37.200
 125977941.753 7  98164505.91842  23972770.547                    23972773.203
        42.100          17.800
 120093697.409 7  93579514.43844  22853070.656                    22853072.684
        44.300          29.800
 18  3 11 13 17 32.0000000  0 17G10R06G15R05R13R14R15R22R23G17G11G32
                                G28G01G24G12G19
 120801679.012 7  94131258.89645  22987806.875                    22987812.691
        43.800          31.900
                  89052285.395 6  21456462.289                    21456462.531
                        36.100
 129103460.456 6 100600135.20942  24567575.055                    24567579.105
        38.600          17.400
                  86414580.196 5  20784386.164                    20784387.613
                        34.600
                  88493824.996 6  21306922.594                    21306922.379
                        36.300
                  80842109.186 6  19498852.523                    19498854.816
                        40.500
                  88201107.757 6  21221525.820                    21221529.328
                        37.500
                  87053516.083 6  20967502.742                    20967503.402
                        40.500
                  87298106.912 6  20982165.539                    20982169.723
                        37.100
 117266891.429 8  91376804.54445  22315145.922                    22315149.418
        49.000          33.100
 120619920.757 6  93989501.70044  22953206.609                    22953210.363
        41.800          28.200
 123602462.932 6  96313481.78044  23520740.141                    23520748.113
        41.500          26.700
 124068794.741 7  96676986.52143  23609509.094                    23609511.488
        42.600          22.200
 118280289.836 7  92166460.62745  22507989.688                    22507996.531
        43.000          31.500
 110726191.762 8  86280196.33046  21070501.141                    21070507.051
        49.300          37.500
 125974346.901 7  98161704.71442  23972086.156                    23972089.477
        42.100          17.800
 120090952.559 7  93577375.60244  22852548.453                    22852550.414
        44.100          29.300
 18  3 11 13 17 33.0000000  0 17G10R06G15R05R13R14R15R22R23G17G11G32
                                G28G01G24G12G19
 120804121.257 7  94133161.94245  22988271.227                    22988277.566
        43.200          31.700
                  89050403.075 5  21456007.977                    21456008.238
                        35.700
 129107605.900 6 100603365.40142  24568363.875                    24568367.973
        38.600          16.900
                  86416338.026 5  20784808.930                    20784810.418
                        34.600
                  88496913.970 6  21307664.508                    21307666.324
                        36.600
                  80842185.198 6  19498870.320                    19498872.699
                        40.500
                  88198657.432 6  21220936.914                    21220940.395
                        37.700
                  87055459.708 6  20967969.648                    20967971.715
                        40.200
                  87296261.672 6  20981721.703                    20981725.828
                        36.500
 117265726.430 8  91375896.75645  22314924.664                    22314927.500
        48.700          33.200
 120621886.644 7  93991033.52344  22953582.719                    22953584.207
        43.400          28.400
 123599966.583 6  96311536.57844  23520264.977                    23520273.191
        41.100          25.100
 124072187.466 7  96679630.19443  23610154.508                    23610156.832
        43.000          22.600
 118280298.634 7  92166467.47645  22507991.766                    22507997.746
        42.100          31.700
 110726200.708 8  86280203.29446  21070503.102                    21070508.582
        49.100          37.600
 125970752.296 7  98158903.72343  23971402.578                    23971405.395
        42.600          18.300
 120088208.217 7  93575237.17244  22852026.359                    22852027.789
        44.700          29.400
 18  3 11 13 17 34.0000000  0 17G10R06G15R05R13R14R15R22R23G17G11G32
                                G28G01G24G12G19
 120806564.000 7  94135065.37145  22988737.344                    22988742.457
        44.500          31.600
                  89048521.255 5  21455553.875                    21455555.063
                        35.600
 129111751.484 6 100606595.70142  24569151.961                    24569156.824
        38.500          16.900
                  86418096.482 5  20785231.672                    20785233.215
                        35.100
                  88500003.313 5  21308408.828                    21308409.719
                        35.800
                  80842261.830 6  19498889.320                    19498892.500
                        40.400
                  88196207.516 6  21220347.141                    21220350.621
                        37.400
                  87057403.974 6  20968438.469                    20968439.746
                        40.500
                  87294417.004 6  20981278.438                    20981282.926
                        37.100
 117264562.003 8  91374989.41945  22314703.328                    22314706.133
        48.600          33.600
 120623853.169 7  93992565.86244  22953957.727                    22953958.832
        44.700          27.700
 123597470.656 6  96309591.70343  23519790.391                    23519797.711
        41.600          22.900
 124075580.432 7  96682274.05443  23610799.859                    23610802.750
        43.100          22.500
 118280308.159 7  92166474.89345  22507993.375                    22507999.863
        42.400          32.300
 110726210.331 8  86280210.79546  21070504.688                    21070510.555
        48.800          37.500
 125967157.836 7  98156102.85442  23970718.359                    23970721.238
        42.600          17.800
 120085464.345 7  93573099.09445  22851504.734                    22851506.145
        44.900          30.000
 18  3 11 13 17 35.0000000  0 17G10R06G15R05R13R14R15R22R23G17G11G32
                                G28G01G24G12G19
 120809007.378 7  94136969.29245  22989202.711                    22989207.684
        45.400          32.100
                  89046640.041 5  21455099.898                    21455101.516
                        35.600
 129115897.298 6 100609826.20042  24569941.641                    24569945.863
        38.500          16.900
                  86419855.661 5  20785654.781                    20785656.434
                        34.900
                  88503093.055 5  21309154.172                    21309153.918
                        35.800
                  80842339.157 6  19498908.227                    19498910.207
                        40.200
                  88193757.995 6  21219757.617                    21219761.742
                        37.400
                  87059348.917 6  20968907.180                    20968908.668
                        40.300
                  87292572.978 6  20980835.609                    20980839.203
                        37.000
 117263398.193 7  91374082.55945  22314481.477                    22314484.703
        47.900          33.200
 120625820.438 7  93994098.80844  22954331.258                    22954333.094
        45.100          27.900
 123594975.213 7  96307647.20444  23519316.352                    23519323.074
        42.400          24.300
 124078973.719 7  96684918.17543  23611445.961                    23611448.512
        43.000          22.500
 118280318.491 7  92166482.94845  22507995.398                    22508001.754
        43.000          31.900
 110726220.678 8  86280218.85446  21070507.305                    21070512.617
        49.400          37.600
 125963563.669 6  98153302.19743  23970034.039                    23970037.320
        41.900          18.300
 120082721.036 7  93570961.45444  22850982.922                    22850983.938
        45.400          29.600
 18  3 11 13 17 36.0000000  0 17G10R06G15R05R13R14R15R22R23G17G11G32
                                G28G01G24G12G19
 120811451.278 7  94138873.63445  22989667.242                    22989673.016
        44.700          31.600
                  89044759.386 6  21454648.133                    21454649.180
                        36.200
 129120043.264 6 100613056.80542  24570730.344                    24570734.902
        38.600          17.400
                  86421615.488 5  20786077.148                    20786079.910
                        34.600
                  88506183.174 6  21309897.047                    21309897.758
                        36.200
                  80842417.144 6  19498926.867                    19498928.926
                        40.400
                  88191308.878 6  21219168.461                    21219171.414
                        37.200
                  87061294.509 6  20969374.227                    20969376.883
                        40.200
                  87290729.518 6  20980392.688                    20980397.059
                        36.700
 117262234.947 7  91373176.12745  22314260.141                    22314263.313
        47.100          33.200
 120627788.333 7  93995632.25244  22954705.563                    22954708.086
        44.400          27.000
 123592480.198 7  96305703.01644  23518841.914                    23518847.555
        43.700          25.700
 124082367.259 7  96687562.49243  23612092.391                    23612094.301
        43.400          22.200
 118280329.507 7  92166491.52745  22507997.500                    22508004.027
        43.500          32.600
 110726231.688 8  86280227.43646  21070509.031                    21070514.730
        49.800          37.200
 125959969.656 6  98150501.65243  23969350.289                    23969353.465
        41.700          19.300
 120079978.148 7  93568824.13244  22850460.344                    22850461.789
        45.200          29.400
 18  3 11 13 17 37.0000000  0 17G10R06G15R05R13R14R15R22R23G17G11G32
                                G28G01G24G12G19
 120813895.806 7  94140778.46845  22990131.805                    22990137.910
        44.200          31.600
                  89042879.290 5  21454194.930                    21454196.461
                        35.900
 129124189.418 6 100616287.56842  24571520.078                    24571523.727
        39.300          17.400
                  86423376.008 5  20786501.320                    20786502.477
                        34.400
                  88509273.652 5  21310643.445                    21310641.043
                        35.900
                  80842495.815 6  19498946.289                    19498948.434
                        40.300
                  88188860.160 6  21218579.039                    21218582.582
                        37.100
                  87063240.741 6  20969844.352                    20969845.313
                        40.300
                  87288886.652 6  20979949.289                    20979953.449
                        36.900
 117261072.316 7  91372270.18545  22314038.961                    22314041.578
        47.600          33.400
 120629756.963 7  93997166.27744  22955078.875                    22955082.344
        44.100          27.900
 123589985.627 7  96303759.15744  23518367.844                    23518372.895
        44.300          27.600
 124085761.079 7  96690207.04143  23612738.195                    23612739.680
        43.200          22.000
 118280341.313 7  92166500.72145  22508000.484                    22508006.063
        43.300          32.400
 110726243.382 8  86280236.54546  21070511.047                    21070516.422
        50.000          37.400
 125956375.882 6  98147701.32843  23968666.297                    23968669.688
        41.700          18.600
 120077235.791 7  93566687.21144  22849938.125                    22849940.285
        44.400          29.100
 18  3 11 13 17 38.0000000  0 17G10R06G15R05R13R14R15R22R23G17G11G32
                                G28G01G24G12G19
 120816340.885 7  94142683.73045  22990597.563                    22990603.313
        44.900          31.500
                  89040999.716 5  21453741.617                    21453743.574
                        35.800
 129128335.744 6 100619518.49442  24572308.555                    24572312.762
        39.600          17.400
                  86425137.139 5  20786925.602                    20786926.598
                        34.300
                  88512364.473 6  21311385.203                    21311386.461
                        36.100
                  80842575.087 6  19498965.047                    19498967.410
                        40.400
                  88186411.787 6  21217989.867                    21217993.934
                        36.900
                  87065187.570 6  20970312.430                    20970314.840
                        40.500
                  87287044.369 6  20979506.688                    20979510.809
                        36.700
 117259910.215 7  91371364.65245  22313818.070                    22313821.207
        47.900          33.700
 120631726.271 7  93998700.81344  22955453.789                    22955457.383
        43.700          27.700
 123587491.483 7  96301815.64344  23517893.133                    23517898.148
        44.600          28.100
 124089155.171 7  96692851.78743  23613382.891                    23613385.191
        42.700          22.300
 118280353.766 7  92166510.41845  22508002.594                    22508008.324
        43.900          32.600
 110726255.725 8  86280246.16146  21070513.172                    21070519.262
        49.500          37.500
 125952782.252 6  98144901.10743  23967982.445                    23967985.941
        41.800          19.300
 120074493.861 7  93564550.64244  22849416.203                    22849418.320
        44.100          28.900
 18  3 11 13 17 39.0000000  0 17G10R06G15R05R13R14R15R22R23G17G11G32
                                G28G01G24G12G19
 120818786.563 7  94144589.45345  22991063.195                    22991068.438
        45.000          31.600
                  89039120.760 6  21453289.805                    21453290.254
                        36.400
 129132482.256 6 100622749.53442  24573097.742                    24573101.867
        40.100          16.900
                  86426899.037 5  20787349.125                    20787350.398
                        34.200
                  88515455.763 6  21312128.516                    21312130.676
                        36.300
                  80842655.063 6  19498984.219                    19498986.984
                        40.200
                  88183963.914 6  21217401.102                    21217404.629
                        37.200
                  87067135.137 6  20970781.609                    20970783.578
                        40.600
                  87285202.704 6  20979063.180                    20979067.457
                        36.500
 117258748.775 8  91370459.63545  22313597.063                    22313599.949
        48.300          33.800
 120633696.293 7  94000235.89544  22955828.539                    22955831.910
        43.400          27.800
 123584997.788 7  96299872.47844  23517418.781                    23517423.930
        44.300          28.300
 124092549.571 7  96695496.76843  23614028.703                    23614031.941
        42.600          22.600
 118280367.076 7  92166520.79345  22508005.711                    22508010.887
        44.000          32.400
 110726268.835 8  86280256.37446  21070515.797                    21070521.984
        49.400          37.400
 125949188.910 6  98142101.11843  23967298.523                    23967302.008
        41.400          19.900
 120071752.479 7  93562414.50944  22848894.727                    22848896.570
        44.600          28.900
 18  3 11 13 17 40.0000000  0 17G10R06G15R05R13R14R15R22R23G17G11G32
                                G28G01G24G12G19
 120821232.820 7  94146495.63245  22991527.820                    22991534.078
        44.000          31.700
                  89037242.376 5  21452836.859                    21452837.516
                        35.800
 129136628.960 6 100625980.71542  24573887.078                    24573890.949
        40.300          17.400
                  86428661.538 5  20787773.516                    20787774.043
                        34.200
                  88518547.379 5  21312874.430                    21312875.082
                        35.800
                  80842735.688 6  19499003.461                    19499005.973
                        40.800
                  88181516.359 6  21216810.727                    21216815.258
                        37.200
                  87069083.299 6  20971251.992                    20971253.020
                        40.400
                  87283361.604 6  20978621.656                    20978625.707
                        37.000
 117257587.902 8  91369555.05445  22313375.875                    22313378.906
        48.300          33.200
 120635667.007 7  94001771.50444  22956204.094                    22956206.953
        43.300          27.500
 123582504.572 7  96297929.70044  23516943.125                    23516949.820
        43.600          27.400
 124095944.256 7  96698141.95343  23614676.680                    23614677.617
        43.200          22.300
 118280381.104 7  92166531.72945  22508008.195                    22508013.582
        43.800          32.800
 110726282.608 8  86280267.10846  21070518.539                    21070524.426
        49.000          37.600
 125945595.791 6  98139301.29343  23966614.625                    23966618.109
        41.600          19.300
 120069011.578 7  93560278.75344  22848373.930                    22848374.867
        45.500          29.200
 18  3 11 13 17 41.0000000  0 17G10R06G15R05R13R14R15R22R23G17G11G32
                                G28G01G24G12G19
 120823679.697 7  94148402.29445  22991993.078                    22992000.059
        43.500          31.400
                  89035364.568 5  21452385.563                    21452385.039
                        35.600
 129140775.909 6 100629212.10142  24574676.148                    24574679.926
        40.500          16.900
                  86430424.755 5  20788196.250                    20788198.484
                        34.100
                  88521639.394 5  21313618.508                    21313619.301
                        35.800
                  80842817.000 6  19499022.758                    19499025.516
                        40.500
                  88179069.283 6  21216224.242                    21216226.965
                        37.200
                  87071032.132 6  20971720.336                    20971722.480
                        40.500
                  87281521.125 6  20978178.344                    20978183.266
                        36.800
 117256427.662 7  91368650.97345  22313154.898                    22313158.371
        47.500          33.500
 120637638.447 7  94003307.68344  22956579.031                    22956582.012
        43.500          28.000
 123580011.767 7  96295987.25444  23516468.531                    23516475.871
        42.400          27.800
 124099339.252 7  96700787.39243  23615321.547                    23615323.289
        43.000          22.300
 118280395.933 7  92166543.28145  22508010.523                    22508016.277
        44.300          31.200
 110726297.097 8  86280278.39446  21070521.219                    21070527.043
        48.900          37.300
 125942002.866 6  98136501.60243  23965931.109                    23965934.801
        41.400          19.900
 120066271.228 7  93558143.42844  22847852.234                    22847853.215
        45.900          28.900
 18  3 11 13 17 42.0000000  0 17G10R06G15R05R13R14R15R22R23G17G11G32
                                G28G01G24G12G19
 120826127.172 7  94150309.40745  22992459.641                    22992465.555
        43.500          31.600
                  89033487.306 5  21451933.172                    21451932.680
                        35.800
 129144922.975 6 100632443.60442  24575464.852                    24575468.953
        40.200          16.900
                  86432188.657 5  20788620.406                    20788622.617
                        34.200
                  88524731.845 5  21314362.406                    21314363.617
                        35.800
                  80842898.973 6  19499043.508                    19499045.215
                        40.300
                  88176622.533 6  21215633.750                    21215638.777
                        36.900
                  87072981.635 6  20972190.070                    20972192.211
                        40.500
                  87279681.240 6  20977736.727                    20977741.172
                        36.900
 117255268.003 8  91367747.34845  22312935.008                    22312937.563
        48.400          33.800
 120639610.582 7  94004844.40144  22956954.359                    22956957.383
        43.500          26.800
 123577519.400 6  96294045.15844  23515993.844                    23516001.648
        41.500          27.600
 124102734.487 7  96703433.04043  23615967.328                    23615969.656
        43.400          22.300
 118280411.468 7  92166555.39745  22508012.867                    22508019.566
        44.200          31.900
 110726312.256 8  86280290.20846  21070524.266                    21070529.824
        48.800          37.600
 125938410.149 7  98133702.05943  23965247.508                    23965250.348
        42.100          19.000
 120063531.352 7  93556008.44944  22847330.805                    22847332.207
        45.400          29.600
 18  3 11 13 17 43.0000000  0 17G10R06G15R05R13R14R15R22R23G17G11G32
                                G28G01G24G12G19
 120828575.216 7  94152216.96545  22992925.789                    22992931.254
        44.100          31.700
                  89031610.561 5  21451480.477                    21451480.422
                        35.300
 129149070.276 6 100635675.31042  24576254.945                    24576257.887
        40.300          17.400
                  86433953.208 5  20789045.445                    20789047.094
                        34.200
                  88527824.625 5  21315109.055                    21315108.578
                        35.700
                  80842981.619 6  19499062.836                    19499064.930
                        40.200
                  88174176.226 6  21215046.219                    21215049.563
                        37.300
                  87074931.816 6  20972660.047                    20972661.379
                        40.500
                  87277841.968 6  20977294.313                    20977297.758
                        37.100
 117254108.948 8  91366844.19045  22312714.430                    22312717.230
        48.200          33.400
 120641583.421 7  94006381.67244  22957329.945                    22957332.719
        44.100          27.500
 123575027.489 6  96292103.44244  23515520.008                    23515527.555
        41.100          27.500
 124106130.032 7  96706078.92243  23616613.734                    23616615.848
        43.600          22.800
 118280427.788 7  92166568.12745  22508016.320                    22508022.441
        44.400          31.900
 110726328.131 8  86280302.58146  21070527.398                    21070533.043
        49.000          37.500
 125934817.675 6  98130902.75943  23964564.063                    23964567.551
        41.800          18.600
 120060791.978 7  93553873.86144  22846809.156                    22846810.906
        44.600          29.400
 18  3 11 13 17 44.0000000  0 17G10R06G15R05R13R14R15R22R23G17G11G32
                                G28G01G24G12G19
 120831023.856 7  94154124.99145  22993391.047                    22993397.125
        44.000          31.200
                  89029734.444 6  21451029.789                    21451027.941
                        36.000
 129153217.772 6 100638907.12942  24577043.711                    24577047.516
        40.700          16.900
                  86435718.459 5  20789470.102                    20789471.754
                        34.800
                  88530917.845 5  21315852.844                    21315853.117
                        35.600
                  80843064.925 6  19499082.516                    19499085.523
                        40.500
                  88171730.310 6  21214457.180                    21214460.980
                        37.000
                  87076882.631 6  20973131.227                    20973131.742
                        40.400
                  87276003.320 6  20976852.836                    20976856.512
                        37.200
 117252950.519 7  91365941.52045  22312493.172                    22312496.773
        47.900          33.200
 120643556.943 7  94007919.47944  22957706.039                    22957708.098
        44.700          28.500
 123572536.032 6  96290162.09644  23515045.461                    23515053.367
        41.700          26.600
 124109525.867 7  96708725.03543  23617258.859                    23617262.000
        43.000          23.900
 118280444.863 7  92166581.43545  22508019.844                    22508025.781
        44.000          31.500
 110726344.684 8  86280315.47646  21070530.547                    21070536.383
        48.800          37.300
 125931225.436 7  98128103.62742  23963880.477                    23963883.789
        42.000          17.800
 120058053.106 7  93551739.66844  22846287.117                    22846289.805
        43.800          29.600
 18  3 11 13 17 45.0000000  0 17G10R06G15R05R13R14R15R22R23G17G11G32
                                G28G01G24G12G19
 120833473.034 7  94156033.44645  22993856.586                    22993863.305
        43.000          30.400
                  89027858.833 6  21450577.195                    21450576.688
                        36.200
 129157365.372 6 100642139.03142  24577833.391                    24577836.293
        40.200          16.300
                  86437484.328 5  20789894.602                    20789896.074
                        34.500
                  88534011.398 5  21316597.914                    21316597.129
                        35.600
                  80843148.829 6  19499103.328                    19499105.598
                        40.600
                  88169284.730 6  21213868.055                    21213873.391
                        36.700
                  87078834.094 6  20973597.664                    20973601.359
                        40.400
                  87274165.194 6  20976410.961                    20976415.418
                        37.200
 117251792.581 8  91365039.23545  22312273.195                    22312276.168
        48.300          33.100
 120645531.104 7  94009457.78944  22958082.242                    22958084.391
        45.000          27.600
 123570044.963 7  96288221.04344  23514572.453                    23514579.484
        42.800          26.800
 124112921.922 7  96711371.31943  23617907.938                    23617908.188
        43.800          22.200
 118280462.632 7  92166595.28745  22508022.781                    22508029.105
        44.800          31.400
 110726361.869 8  86280328.87046  21070533.797                    21070539.520
        48.400          37.300
 125927633.326 7  98125304.57942  23963196.836                    23963200.262
        42.000          16.900
 120055314.642 7  93549605.81144  22845766.641                    22845768.320
        43.900          29.300
 18  3 11 13 17 46.0000000  0 17G10R06G15R05R13R14R15R22R23G17G11G32
                                G28G01G24G12G19
 120835922.813 7  94157942.35745  22994324.102                    22994328.953
        43.700          30.900
                  89025983.787 6  21450124.664                    21450124.707
                        36.200
 129161513.148 6 100645371.04942  24578622.594                    24578626.078
        40.400          17.800
                  86439250.839 5  20790319.414                    20790320.859
                        34.200
                  88537105.296 5  21317343.266                    21317343.316
                        35.100
                  80843233.411 6  19499124.148                    19499125.820
                        40.300
                  88166839.562 6  21213281.313                    21213284.480
                        37.200
                  87080786.220 6  20974070.383                    20974071.145
                        40.400
                  87272327.672 6  20975969.422                    20975973.355
                        36.700
 117250635.271 8  91364137.44945  22312053.977                    22312056.340
        49.300          33.100
 120647505.933 7  94010996.63344  22958457.633                    22958459.699
        44.900          27.700
 123567554.351 7  96286280.31444  23514099.227                    23514104.953
        43.800          26.500
 124116318.260 7  96714017.81643  23618552.180                    23618553.852
        43.200          22.800
 118280481.148 7  92166609.70845  22508026.078                    22508032.609
        44.400          31.100
 110726379.748 8  86280342.80146  21070537.039                    21070543.289
        48.600          37.400
 125924041.422 6  98122505.69342  23962513.047                    23962516.586
        41.800          17.400
 120052576.692 7  93547472.36544  22845246.117                    22845247.020
        45.100          29.700
 18  3 11 13 17 47.0000000  0 17G10R06G15R05R13R14R15R22R23G17G11G32
                                G28G01G24G12G19
 120838373.122 7  94159851.68445  22994791.250                    22994795.957
        45.000          31.900
                  89024109.339 6  21449671.773                    21449672.895
                        36.200
 129165661.138 6 100648603.22943  24579412.180                    24579415.215
        40.600          18.300
                  86441018.034 5  20790744.523                    20790746.648
                        34.500
                  88540199.620 5  21318087.766                    21318087.711
                        35.400
                  80843318.679 6  19499144.922                    19499146.570
                        40.400
                  88164394.757 6  21212691.398                    21212695.738
                        37.000
                  87082738.927 6  20974541.375                    20974541.738
                        40.300
                  87270490.768 6  20975527.398                    20975531.703
                        37.000
 117249478.550 8  91363236.10445  22311833.258                    22311835.996
        48.100          33.400
 120649481.474 7  94012536.03544  22958832.477                    22958835.879
        43.700          27.400
 123565064.220 7  96284339.94744  23513625.891                    23513631.543
        45.000          26.800
 124119714.903 7  96716664.55243  23619197.227                    23619201.168
        43.000          23.200
 118280500.403 7  92166624.70745  22508030.367                    22508036.965
        44.400          31.400
 110726398.334 8  86280357.28246  21070540.563                    21070546.309
        48.800          37.100
 125920449.747 6  98119706.98442  23961830.359                    23961833.773
        41.400          17.800
 120049839.263 7  93545339.30944  22844725.594                    22844726.809
        45.700          29.600
 18  3 11 13 17 48.0000000  0 17G10R06G15R05R13R14R15R22R23G17G11G32
                                G28G01G24G12G19
 120840824.043 7  94161761.49645  22995257.141                    22995262.113
        44.600          31.900
                  89022235.474 5  21449219.797                    21449221.836
                        35.700
 129169809.352 6 100651835.60643  24580200.508                    24580204.449
        40.700          18.600
                  86442785.944 5  20791169.391                    20791171.359
                        34.200
                  88543294.336 5  21318833.242                    21318833.141
                        35.300
                  80843404.659 6  19499165.055                    19499167.332
                        40.500
                  88161950.393 6  21212104.367                    21212108.367
                        37.200
                  87084692.372 6  20975009.695                    20975012.344
                        40.200
                  87268654.490 6  20975086.781                    20975090.504
                        37.200
 117248322.438 7  91362335.23045  22311612.148                    22311615.996
        47.900          33.100
 120651457.768 7  94014076.01644  22959207.797                    22959212.105
        42.100          26.200
 123562574.540 7  96282399.91644  23513151.984                    23513157.086
        45.200          26.200
 124123111.830 7  96719311.50443  23619846.336                    23619847.641
        43.400          22.200
 118280520.469 7  92166640.33545  22508034.227                    22508040.219
        44.800          31.000
 110726417.629 8  86280372.31546  21070544.367                    21070550.250
        48.800          37.700
 125916858.327 6  98116908.47443  23961146.539                    23961149.703
        40.900          18.300
 120047102.369 7  93543206.66345  22844204.867                    22844206.016
        45.800          30.200
 18  3 11 13 17 49.0000000  0 17G10R06G15R05R13R14R15R22R23G17G11G32
                                G28G01G24G12G19
 120843275.591 7  94163671.80045  22995722.516                    22995728.602
        43.900          31.200
                  89020362.193 5  21448768.438                    21448770.160
                        35.300
 129173957.689 6 100655068.06943  24580990.891                    24580993.965
        40.300          18.300
                  86444554.526 5  20791595.148                    20791596.410
                        34.700
                  88546389.396 5  21319579.492                    21319578.109
                        35.100
                  80843491.281 6  19499186.266                    19499188.230
                        40.400
                  88159506.393 6  21211515.406                    21211520.125
                        37.000
                  87086646.450 6  20975480.430                    20975483.023
                        40.500
                  87266818.778 6  20974645.313                    20974648.992
                        37.200
 117247166.925 8  91361434.83245  22311393.055                    22311395.691
        48.200          33.100
 120653434.747 7  94015616.52144  22959584.266                    22959588.109
        42.100          27.300
 123560085.307 7  96280460.20844  23512677.914                    23512683.566
        44.600          25.600
 124126509.044 7  96721958.67943  23620491.656                    23620493.637
        43.200          22.800
 118280541.271 7  92166656.54145  22508037.938                    22508044.352
        45.300          31.800
 110726437.602 8  86280387.88546  21070548.109                    21070553.594
        48.900          37.400
 125913267.086 6  98114110.09443  23960463.188                    23960465.992
        40.800          18.300
 120044365.955 7  93541074.37544  22843683.641                    22843685.031
        44.900          28.900
 18  3 11 13 17 50.0000000  0 17G10R06G15R05R13R14R15R22R23G17G11G32
                                G28G01G24G12G19
 120845727.675 7  94165582.51045  22996189.930                    22996194.871
        44.300          31.600
                  89018489.458 5  21448318.047                    21448319.168
                        35.300
 129178106.223 6 100658300.67942  24581779.750                    24581783.270
        40.400          17.400
                  86446323.733 5  20792020.508                    20792022.102
                        34.200
                  88549484.828 5  21320322.391                    21320323.727
                        35.900
                  80843578.518 6  19499207.297                    19499209.371
                        40.600
                  88157062.758 6  21210927.656                    21210932.156
                        37.200
                  87088601.132 6  20975953.391                    20975954.219
                        40.200
                  87264983.654 6  20974203.875                    20974208.371
                        36.700
 117246011.967 8  91360534.87145  22311173.875                    22311176.301
        48.300          33.300
 120655412.327 7  94017157.47644  22959961.695                    22959964.543
        43.900          27.600
 123557596.465 7  96278520.79444  23512203.648                    23512209.641
        43.900          27.300
 124129906.477 7  96724606.02843  23621138.914                    23621140.180
        43.700          22.300
 118280562.778 7  92166673.31845  22508042.586                    22508048.570
        45.300          32.400
 110726458.214 8  86280403.94646  21070552.070                    21070557.539
        49.100          37.100
 125909676.027 6  98111311.88542  23959779.969                    23959782.629
        40.700          17.400
 120041629.956 7  93538942.41744  22843162.211                    22843164.535
        44.100          29.700
 18  3 11 13 17 51.0000000  0 17G10R06G15R05R13R14R15R22R23G17G11G32
                                G28G01G24G12G19
 120848180.332 7  94167493.66945  22996657.203                    22996661.883
        45.600          31.400
                  89016617.313 6  21447866.906                    21447868.316
                        36.100
 129182254.958 6 100661533.47743  24582568.961                    24582572.641
        39.500          19.000
                  86448093.648 5  20792446.133                    20792447.836
                        34.700
                  88552580.691 5  21321068.266                    21321068.668
                        35.600
                  80843666.458 6  19499228.391                    19499230.941
                        40.300
                  88154619.549 6  21210339.836                    21210344.359
                        36.600
                  87090556.491 6  20976422.914                    20976425.188
                        40.500
                  87263149.173 6  20973763.555                    20973767.531
                        36.500
 117244857.643 7  91359635.39645  22310953.203                    22310956.453
        47.800          33.700
 120657390.655 7  94018699.00144  22960338.945                    22960341.035
        44.300          27.700
 123555108.107 7  96276581.77544  23511729.227                    23511735.719
        42.400          25.100
 124133304.268 7  96727253.65443  23621783.859                    23621786.711
        43.300          22.900
 118280585.069 7  92166690.70745  22508045.969                    22508052.617
        45.100          31.200
 110726479.579 8  86280420.58946  21070555.969                    21070561.488
        49.500          37.200
 125906085.203 6  98108513.82542  23959096.219                    23959099.699
        40.600          17.400
 120038894.513 7  93536810.91044  22842641.672                    22842643.594
        43.700          29.100
 18  3 11 13 17 52.0000000  0 17G10R06G15R05R13R14R15R22R23G17G11G32
                                G28G01G24G12G19
 120850633.572 7  94169405.29045  22997123.711                    22997129.109
        45.500          31.800
                  89014745.712 5  21447417.945                    21447417.070
                        35.800
 129186403.879 6 100664766.40143  24583358.820                    24583362.336
        39.100          18.600
                  86449864.212 5  20792871.883                    20792874.023
                        34.500
                  88555676.870 5  21321813.750                    21321814.234
                        35.400
                  80843755.063 6  19499249.398                    19499252.191
                        40.400
                  88152176.726 6  21209752.813                    21209756.832
                        36.800
                  87092512.513 6  20976894.023                    20976896.063
                        40.700
                  87261315.271 6  20973323.016                    20973326.586
                        36.400
 117243703.893 8  91358736.38145  22310733.992                    22310736.898
        48.000          32.800
 120659369.648 7  94020241.06344  22960715.539                    22960717.363
        44.700          28.300
 123552620.148 6  96274643.09244  23511255.477                    23511262.492
        40.500          26.000
 124136702.323 7  96729901.49643  23622430.891                    23622433.750
        43.500          22.900
 118280608.095 7  92166708.65445  22508050.648                    22508057.211
        44.700          31.500
 110726501.623 8  86280437.76746  21070559.453                    21070565.805
        49.400          37.700
 125902494.605 6  98105715.94442  23958413.164                    23958415.973
        40.600          16.900
 120036159.550 7  93534679.78744  22842121.711                    22842123.469
        44.500          29.800
 18  3 11 13 17 53.0000000  0 17G10R06G15R05R13R14R15R22R23G17G11G32
                                G28G01G24G12G19
 120853087.398 7  94171317.37045  22997589.930                    22997595.895
        44.900          31.700
                  89012874.638 5  21446966.031                    21446966.762
                        35.800
 129190552.954 6 100667999.47343  24584147.914                    24584151.898
        39.200          18.600
                  86451635.431 5  20793298.516                    20793299.949
                        35.100
                  88558773.457 5  21322559.570                    21322559.727
                        35.600
                  80843844.315 6  19499271.461                    19499273.160
                        40.500
                  88149734.320 6  21209165.492                    21209169.074
                        36.800
                  87094469.140 6  20977365.789                    20977366.887
                        40.700
                  87259481.958 6  20972882.188                    20972885.898
                        36.600
 117242550.725 8  91357837.81045  22310514.617                    22310517.586
        48.500          32.900
 120661349.288 7  94021783.65144  22961091.102                    22961094.270
        43.900          27.200
 123550132.606 6  96272704.76344  23510781.117                    23510789.441
        39.100          25.700
 124140100.613 7  96732549.49843  23623078.563                    23623080.773
        43.400          22.500
 118280631.846 7  92166727.16045  22508054.484                    22508061.816
        44.600          32.100
 110726524.322 8  86280455.45346  21070564.602                    21070570.344
        49.300          37.300
 125898904.225 6  98102918.26142  23957730.094                    23957733.031
        40.400          16.900
 120033425.075 7  93532549.04144  22841601.719                    22841602.906
        44.900          29.600
 18  3 11 13 17 54.0000000  0 17G10R06G15R05R13R14R15R22R23G17G11G32
                                G28G01G24G12G19
 120855541.881 7  94173229.94445  22998057.414                    22998062.750
        45.400          31.300
                  89011004.167 5  21446515.344                    21446516.047
                        35.800
 129194702.263 6 100671232.68143  24584937.492                    24584941.508
        39.400          18.300
                  86453407.350 5  20793724.664                    20793725.988
                        35.000
                  88561870.426 5  21323306.047                    21323305.316
                        35.800
                  80843934.256 6  19499293.125                    19499295.184
                        40.600
                  88147292.324 6  21208577.727                    21208581.398
                        37.500
                  87096426.459 6  20977837.672                    20977838.664
                        40.700
                  87257649.264 6  20972441.195                    20972445.410
                        36.700
 117241398.203 8  91356939.74145  22310295.102                    22310298.066
        48.200          33.100
 120663329.767 7  94023326.91044  22961467.063                    22961470.969
        43.200          27.000
 123547645.516 6  96270766.82544  23510309.336                    23510316.297
        40.300          26.500
 124143499.283 7  96735197.80943  23623725.203                    23623726.883
        43.700          22.000
 118280656.416 7  92166746.30045  22508058.930                    22508066.434
        43.800          32.400
 110726547.774 8  86280473.72846  21070568.992                    21070575.109
        49.300          37.500
 125895314.071 6  98100120.75242  23957046.547                    23957049.457
        40.900          15.600
 120030691.177 7  93530418.73244  22841081.484                    22841082.984
        45.200          29.300
 18  3 11 13 17 55.0000000  0 17G10R06G15R05R13R14R15R22R23G17G11G32
                                G28G01G24G12G19
 120857996.795 7  94175142.85945  22998524.969                    22998530.125
        45.800          31.200
                  89009134.189 5  21446065.195                    21446065.500
                        35.600
 129198851.668 6 100674465.98743  24585727.617                    24585731.363
        39.400          18.300
                  86455179.902 5  20794150.602                    20794152.262
                        34.500
                  88564967.719 5  21324051.086                    21324051.242
                        35.200
                  80844024.812 6  19499314.641                    19499316.910
                        40.700
                  88144850.679 6  21207990.156                    21207994.000
                        37.000
                  87098384.389 6  20978306.953                    20978310.375
                        40.400
                  87255817.128 6  20972001.672                    20972005.527
                        36.700
 117240246.174 7  91356042.05545  22310075.594                    22310078.855
        47.800          33.000
 120665310.789 7  94024870.57744  22961843.875                    22961847.879
        42.900          27.200
 123545158.856 7  96268829.22944  23509837.000                    23509843.074
        42.100          27.400
 124146898.109 7  96737846.24343  23624371.156                    23624373.953
        43.700          21.700
 118280681.655 7  92166765.96845  22508063.273                    22508071.129
        43.900          31.900
 110726571.845 8  86280492.48546  21070573.484                    21070579.293
        49.300          37.300
 125891724.060 6  98097323.34242  23956363.484                    23956366.355
        41.100          16.300
 120027957.651 7  93528288.69945  22840561.414                    22840562.668
        44.900          30.000
 18  3 11 13 17 56.0000000  0 17G10R06G15R05R13R14R15R22R23G17G11G32
                                G28G01G24G12G19
 120860452.345 7  94177056.28345  22998991.398                    22998997.508
        45.000          31.200
                  89007264.831 5  21445614.383                    21445614.504
                        35.900
 129203001.314 6 100677699.45342  24586518.219                    24586520.895
        40.000          17.800
                  86456953.140 5  20794577.094                    20794578.848
                        34.700
                  88568065.445 5  21324796.242                    21324796.992
                        35.400
                  80844116.045 6  19499336.656                    19499339.047
                        40.800
                  88142409.459 6  21207402.313                    21207406.430
                        37.100
                  87100343.019 6  20978780.742                    20978781.801
                        40.400
                  87253985.596 6  20971561.203                    20971564.910
                        36.400
 117239094.795 8  91355144.88045  22309857.250                    22309859.910
        48.300          33.100
 120667292.569 7  94026414.80044  22962221.969                    22962225.301
        43.300          27.900
 123542672.697 7  96266892.00244  23509364.930                    23509369.844
        43.900          27.800
 124150297.282 7  96740494.96043  23625018.516                    23625021.094
        43.900          22.000
 118280707.691 7  92166786.24545  22508068.469                    22508076.070
        43.200          31.600
 110726596.638 8  86280511.80346  21070578.281                    21070584.008
        49.300          37.600
 125888134.281 6  98094526.09442  23955680.617                    23955683.273
        41.200          14.800
 120025224.677 7  93526159.10144  22840040.727                    22840042.750
        44.300          29.700
 18  3 11 13 17 57.0000000  0 17G10R06G15R05R13R14R15R22R23G17G11G32
                                G28G01G24G12G19
 120862908.477 7  94178970.15745  22999457.891                    22999464.961
        43.700          31.900
                  89005395.991 5  21445162.672                    21445164.395
                        35.400
 129207151.077 6 100680933.02942  24587306.977                    24587310.230
        40.600          17.800
                  86458727.026 5  20795004.203                    20795005.539
                        35.400
                  88571163.464 5  21325542.805                    21325543.020
                        35.100
                  80844207.914 6  19499359.031                    19499361.328
                        40.400
                  88139968.589 6  21206814.766                    21206819.367
                        37.200
                  87102302.238 6  20979252.969                    20979253.863
                        40.400
                  87252154.630 6  20971121.773                    20971124.504
                        36.500
 117237943.959 8  91354248.12645  22309638.086                    22309640.496
        48.100          33.400
 120669274.997 7  94027959.52444  22962600.602                    22962602.398
        44.300          28.500
 123540186.925 7  96264955.04844  23508892.188                    23508897.410
        44.800          29.400
 124153696.675 7  96743143.83843  23625665.758                    23625668.000
        43.300          22.300
 118280734.426 7  92166807.06645  22508073.461                    22508081.031
        43.400          31.500
 110726622.087 8  86280531.63546  21070583.016                    21070588.758
        49.600          37.300
 125884544.757 6  98091729.02842  23954997.422                    23955000.309
        41.300          16.300
 120022492.157 7  93524029.86944  22839520.508                    22839522.730
        44.400          29.700
 18  3 11 13 17 58.0000000  0 17G10R06G15R05R13R14R15R22R23G17G11G32
                                G28G01G24G12G19
 120865365.176 7  94180884.46545  22999926.188                    22999932.211
        44.200          31.800
                  89003527.737 5  21444712.563                    21444714.207
                        35.800
 129211301.021 6 100684166.75443  24588096.898                    24588100.324
        40.900          18.300
                  86460501.561 5  20795430.539                    20795432.750
                        35.100
                  88574261.860 5  21326289.398                    21326289.539
                        34.800
                  80844300.433 6  19499381.016                    19499383.645
                        40.800
                  88137528.143 6  21206228.125                    21206231.828
                        37.200
                  87104262.135 6  20979724.313                    20979725.719
                        40.600
                  87250324.245 6  20970680.984                    20970684.883
                        36.200
 117236793.705 7  91353351.82045  22309418.344                    22309421.906
        47.400          33.200
 120671258.062 7  94029504.75544  22962977.414                    22962979.539
        45.000          27.900
 123537701.589 7  96263018.40544  23508418.922                    23508424.484
        45.200          29.600
 124157096.381 7  96745792.96143  23626312.094                    23626314.563
        42.700          22.500
 118280761.924 7  92166828.48545  22508079.117                    22508085.691
        43.100          31.600
 110726648.205 8  86280551.97946  21070588.258                    21070593.969
        49.700          37.100
 125880955.330 6  98088932.12042  23954314.664                    23954317.039
        41.300          15.600
 120019760.104 7  93521901.00344  22839001.367                    22839002.637
        44.500          29.900
 18  3 11 13 17 59.0000000  0 17G10R06G15R05R13R14R15R22R23G17G11G32
                                G28G01G24G12G19
 120867822.442 7  94182799.20745  23000394.578                    23000399.676
        44.700          32.200
                  89001660.053 6  21444262.820                    21444264.297
                        36.400
 129215451.167 6 100687400.60443  24588886.484                    24588890.098
        41.100          18.600
                  86462276.795 5  20795856.969                    20795859.359
                        35.000
                  88577360.676 5  21327033.922                    21327035.543
                        35.400
                  80844393.618 6  19499404.141                    19499405.992
                        40.700
                  88135088.105 6  21205640.883                    21205644.930
                        37.000
                  87106222.666 6  20980196.508                    20980198.363
                        40.600
                  87248494.501 6  20970241.531                    20970245.336
                        36.400
 117235644.065 7  91352455.99945  22309199.914                    22309202.844
        47.500          33.000
 120673241.843 7  94031050.56444  22963354.531                    22963357.551
        45.000          27.200
 123535216.755 7  96261082.14744  23507946.188                    23507951.754
        44.900          29.300
 124160496.351 7  96748442.28143  23626958.977                    23626961.859
        43.000          22.500
 118280790.150 7  92166850.47145  22508084.781                    22508091.703
        43.400          30.200
 110726675.032 8  86280572.88446  21070593.430                    21070598.934
        49.100          37.100
 125877366.179 6  98086135.33042  23953631.727                    23953634.145
        41.300          14.800
 120017028.572 7  93519772.55244  22838481.664                    22838482.527
        44.800          29.700
 18  3 11 13 18  0.0000000  0 17G10R06G15R05R13R14R15R22R23G17G11G32
                                G28G01G24G12G19
 120870280.262 7  94184714.39045  23000862.000                    23000867.570
        44.200          31.900
                  88999792.952 6  21443813.297                    21443814.422
                        36.200
 129219601.474 6 100690634.63243  24589676.422                    24589679.797
        40.200          19.600
                  86464052.633 5  20796285.250                    20796286.746
                        34.600
                  88580459.819 5  21327781.039                    21327781.457
                        35.100
                  80844487.483 6  19499426.234                    19499428.344
                        40.700
                  88132648.413 6  21205053.813                    21205058.180
                        36.900
                  87108183.858 6  20980668.242                    20980670.535
                        40.500
                  87246665.331 6  20969801.336                    20969805.949
                        36.300
 117234494.993 8  91351560.62245  22308982.086                    22308984.738
        48.000          32.800
 120675226.303 7  94032596.90944  22963731.594                    22963734.680
        44.600          27.100
 123532732.309 7  96259146.18044  23507473.258                    23507478.809
        44.300          28.600
 124163896.574 7  96751091.78943  23627606.125                    23627608.734
        43.300          23.200
 118280819.142 7  92166873.05545  22508090.766                    22508097.145
        43.600          32.300
 110726702.528 8  86280594.31546  21070598.281                    21070604.297
        49.100          37.400
 125873777.206 6  98083338.70542  23952948.727                    23952951.395
        40.800          17.400
 120014297.525 7  93517644.46844  22837962.305                    22837963.242
        45.100          29.500
 18  3 11 13 18  1.0000000  0 17G10R06G15R05R13R14R15R22R23G17G11G32
                                G28G01G24G12G19
 120872738.666 7  94186630.03345  23001329.000                    23001335.324
        43.300          31.300
                  88997926.386 6  21443364.094                    21443365.082
                        36.300
 129223751.917 6 100693868.74943  24590466.625                    24590469.742
        40.400          20.400
                  86465829.157 5  20796711.688                    20796714.129
                        34.900
                  88583559.326 5  21328526.633                    21328527.723
                        35.400
                  80844582.005 6  19499449.813                    19499451.246
                        40.500
                  88130209.151 6  21204468.203                    21204470.875
                        36.600
                  87110145.655 6  20981142.211                    20981143.160
                        40.500
                  87244836.734 6  20969362.281                    20969366.008
                        37.000
 117233346.482 8  91350665.67845  22308762.969                    22308765.781
        48.000          33.200
 120677211.426 7  94034143.77344  22964109.148                    22964112.570
        43.600          26.800
 123530248.269 7  96257210.54844  23506999.117                    23507006.043
        43.300          25.900
 124167297.048 7  96753741.50143  23628253.617                    23628255.871
        43.600          22.800
 118280848.846 7  92166896.18945  22508096.609                    22508102.539
        43.600          31.400
 110726730.660 8  86280616.23446  21070604.133                    21070609.941
        48.800          37.500
 125870188.465 6  98080542.30442  23952265.289                    23952268.371
        40.800          16.300
 120011566.942 7  93515516.73444  22837442.180                    22837443.559
        44.700          29.300
 18  3 11 13 18  2.0000000  0 17G10R06G15R05R13R14R15R22R23G17G11G32
                                G28G01G24G12G19
 120875197.684 7  94188546.15745  23001796.883                    23001803.242
        42.900          31.700
                  88996060.394 6  21442914.844                    21442914.848
                        36.100
 129227902.572 6 100697103.04243  24591255.922                    24591259.281
        40.900          19.900
                  86467606.358 5  20797138.414                    20797141.273
                        34.800
                  88586659.274 5  21329272.875                    21329273.945
                        35.700
                  80844677.211 6  19499471.945                    19499474.070
                        40.600
                  88127770.255 6  21203880.102                    21203884.293
                        36.900
                  87112108.146 6  20981613.367                    20981615.898
                        40.500
                  87243008.771 6  20968922.797                    20968927.008
                        36.900
 117232198.591 8  91349771.22545  22308544.797                    22308547.398
        48.200          33.300
 120679197.256 7  94035691.18144  22964486.977                    22964490.609
        43.000          27.400
 123527764.698 6  96255275.28444  23506525.406                    23506533.230
        41.700          25.600
 124170697.804 7  96756391.43644  23628900.516                    23628903.176
        43.600          24.000
 118280879.317 7  92166919.93545  22508103.094                    22508108.414
        44.100          31.400
 110726759.514 8  86280638.71846  21070609.445                    21070615.070
        48.900          37.500
 125866599.901 6  98077746.02342  23951583.031                    23951585.473
        40.800          15.600
 120008836.869 7  93513389.39844  22836922.195                    22836924.172
        44.200          29.600
 18  3 11 13 18  3.0000000  0 17G10R06G15R05R13R14R15R22R23G17G11G32
                                G28G01G24G12G19
 120877657.236 7  94190462.67545  23002265.555                    23002271.055
        43.800          31.800
                  88994194.968 6  21442466.445                    21442465.500
                        36.100
 129232053.373 6 100700337.43743  24592045.844                    24592049.129
        41.300          19.300
                  86469384.230 5  20797566.656                    20797569.496
                        35.100
                  88589759.527 6  21330021.094                    21330020.867
                        36.000
                  80844773.049 6  19499495.078                    19499497.039
                        40.500
                  88125331.791 6  21203294.445                    21203297.559
                        37.000
                  87114071.275 6  20982086.688                    20982088.473
                        40.400
                  87241181.390 6  20968483.188                    20968487.223
                        36.800
 117231051.286 8  91348877.21845  22308326.609                    22308329.426
        48.400          33.200
 120681183.820 7  94037239.14844  22964865.430                    22964868.684
        43.000          27.800
 123525281.549 6  96253340.36344  23506052.609                    23506060.336
        40.000          24.300
 124174098.861 7  96759041.61343  23629547.609                    23629550.438
        43.400          22.500
 118280910.512 7  92166944.23145  22508108.711                    22508114.871
        43.900          31.700
 110726789.074 8  86280661.75346  21070614.813                    21070620.844
        48.800          37.600
 125863011.596 6  98074949.92042  23950900.008                    23950902.477
        40.800          15.600
 120006107.271 7  93511262.43944  22836402.891                    22836404.676
        44.300          29.300
 18  3 11 13 18  4.0000000  0 17G10R06G15R05R13R14R15R22R23G17G11G32
                                G28G01G24G12G19
 120880117.436 7  94192379.70045  23002734.156                    23002739.430
        44.000          32.500
                  88992330.123 6  21442017.320                    21442016.375
                        36.100
 129236204.448 6 100703572.02143  24592835.641                    24592838.996
        41.200          19.600
                  86471162.803 5  20797994.828                    20797996.875
                        34.400
                  88592860.235 5  21330766.719                    21330766.992
                        35.800
                  80844869.574 6  19499518.711                    19499520.910
                        40.200
                  88122893.723 6  21202707.023                    21202711.051
                        36.800
                  87116035.077 6  20982559.531                    20982561.902
                        40.900
                  87239354.670 6  20968045.188                    20968048.039
                        37.000
 117229904.612 8  91347983.70745  22308108.016                    22308110.992
        48.700          33.100
 120683171.073 7  94038787.64144  22965243.914                    22965246.426
        42.900          27.900
 123522798.831 6  96251405.81244  23505581.047                    23505587.688
        40.200          25.400
 124177500.221 7  96761692.02543  23630194.641                    23630197.609
        43.300          22.800
 118280942.518 7  92166969.18345  22508114.742                    22508120.301
        43.900          30.700
 110726819.352 8  86280685.34746  21070620.750                    21070626.672
        49.100          37.400
 125859423.506 6  98072154.02842  23950217.430                    23950220.047
        40.600          16.300
 120003378.217 7  93509135.91045  22835883.680                    22835885.301
        45.100          30.000
 18  3 11 13 18  5.0000000  0 17G10R06G15R05R13R14R15R22R23G17G11G32
                                G28G01G24G12G19
 120882578.198 7  94194297.17045  23003201.500                    23003207.535
        43.900          31.800
                  88990465.792 5  21441567.094                    21441567.473
                        35.700
 129240355.626 6 100706806.70643  24593625.773                    24593629.063
        41.300          19.300
                  86472942.024 5  20798422.281                    20798424.977
                        35.000
                  88595961.285 6  21331513.398                    21331513.586
                        36.200
                  80844966.731 6  19499542.023                    19499544.309
                        40.200
                  88120456.057 6  21202119.938                    21202124.238
                        36.900
                  87117999.481 6  20983033.750                    20983034.828
                        40.400
                  87237528.488 6  20967605.125                    20967609.219
                        37.000
 117228758.495 8  91347090.63445  22307890.266                    22307893.105
        48.800          33.200
 120685159.003 7  94040336.66444  22965622.992                    22965624.480
        43.600          26.500
 123520316.541 6  96249471.59144  23505109.313                    23505114.836
        41.600          24.600
 124180901.819 7  96764342.62043  23630842.984                    23630844.414
        43.200          22.300
 118280975.242 7  92166994.68845  22508120.734                    22508127.352
        44.000          31.400
 110726850.313 8  86280709.47046  21070626.641                    21070632.238
        48.900          37.300
 125855835.610 6  98069358.24942  23949534.164                    23949537.422
        40.600          17.400
 120000649.637 7  93507009.75244  22835364.961                    22835366.066
        45.300          29.400
 18  3 11 13 18  6.0000000  0 17G10R06G15R05R13R14R15R22R23G17G11G32
                                G28G01G24G12G19
 120885039.513 7  94196215.06245  23003671.063                    23003675.539
        44.800          31.800
                  88988602.044 5  21441116.789                    21441117.656
                        35.900
 129244506.974 6 100710041.52143  24594415.750                    24594419.027
        41.600          19.600
                  86474721.915 5  20798850.875                    20798852.973
                        34.400
                  88599062.713 5  21332259.914                    21332260.391
                        35.300
                  80845064.569 6  19499565.641                    19499567.676
                        40.500
                  88118018.784 6  21201533.570                    21201537.992
                        36.700
                  87119964.541 6  20983505.492                    20983508.102
                        40.300
                  87235702.924 6  20967166.695                    20967169.945
                        37.000
 117227612.947 8  91346197.99945  22307671.625                    22307674.938
        48.100          32.800
 120687147.616 7  94041886.22344  22966001.883                    22966003.215
        44.200          27.300
 123517834.741 7  96247537.74344  23504638.109                    23504643.121
        43.400          27.000
 124184303.715 7  96766993.44643  23631489.195                    23631492.156
        42.900          22.500
 118281008.686 7  92167020.75545  22508126.852                    22508133.230
        43.800          31.500
 110726881.916 8  86280734.09946  21070632.531                    21070638.473
        49.100          37.500
 125852247.907 6  98066562.66642  23948851.789                    23948854.648
        40.000          16.900
 119997921.552 7  93504883.96844  22834845.094                    22834846.891
        45.000          29.100
 18  3 11 13 18  7.0000000  0 17G10R06G15R05R13R14R15R22R23G17G11G32
                                G28G01G24G12G19
 120887501.463 7  94198133.45845  23004139.445                    23004144.191
        46.000          31.800
                  88986738.898 5  21440667.563                    21440669.523
                        35.700
 129248658.580 7 100713276.54143  24595205.422                    24595209.008
        42.000          18.600
                  86476502.521 5  20799279.844                    20799280.883
                        35.000
                  88602164.562 6  21333006.813                    21333007.789
                        36.300
                  80845163.129 6  19499589.711                    19499591.277
                        40.400
                  88115581.943 6  21200947.766                    21200951.383
                        37.200
                  87121930.280 6  20983980.477                    20983981.281
                        40.200
                  87233877.971 6  20966727.625                    20966731.500
                        36.600
 117226468.048 8  91345305.87045  22307454.016                    22307456.766
        48.000          33.000
 120689136.893 7  94043436.31344  22966380.734                    22966381.695
        44.800          27.700
 123515353.450 7  96245604.27144  23504166.820                    23504170.668
        45.100          28.100
 124187705.909 7  96769644.50343  23632137.109                    23632139.914
        43.000          23.000
 118281042.965 7  92167047.47545  22508132.617                    22508140.324
        43.800          30.900
 110726914.271 8  86280759.31046  21070638.867                    21070644.402
        49.500          37.300
 125848660.492 6  98063767.29342  23948168.906                    23948171.773
        39.700          17.800
 119995193.994 7  93502758.58944  22834326.125                    22834327.863
        44.700          29.600
 18  3 11 13 18  8.0000000  0 17G10R06G15R05R13R14R15R22R23G17G11G32
                                G28G01G24G12G19
 120889963.926 7  94200052.26845  23004607.555                    23004613.000
        45.600          31.400
                  88984876.325 6  21440219.797                    21440220.738
                        36.000
 129252810.335 6 100716511.67943  24595995.102                    24595999.031
        41.300          18.300
                  86478283.770 5  20799707.781                    20799709.254
                        35.300
                  88605266.751 6  21333754.219                    21333754.070
                        36.300
                  80845262.313 6  19499613.055                    19499615.281
                        40.400
                  88113145.477 6  21200361.961                    21200365.191
                        37.100
                  87123896.614 6  20984453.898                    20984455.500
                        40.400
                  87232053.591 6  20966289.406                    20966293.355
                        36.700
 117225323.729 8  91344414.19445  22307236.945                    22307238.730
        49.100          33.100
 120691126.878 7  94044986.97044  22966758.820                    22966760.270
        45.200          27.100
 123512872.573 7  96243671.11244  23503694.703                    23503698.703
        45.500          29.600
 124191108.376 7  96772295.78343  23632785.578                    23632786.645
        43.900          22.900
 118281077.977 7  92167074.76245  22508139.180                    22508146.250
        43.300          30.800
 110726947.237 8  86280784.99746  21070645.211                    21070651.129
        49.500          37.500
 125845073.240 6  98060972.00842  23947486.492                    23947489.313
        39.100          17.400
 119992466.903 7  93500633.58244  22833806.992                    22833809.043
        44.600          29.400
 18  3 11 13 18  9.0000000  0 17G10R06G15R05R13R14R15R22R23G17G11G32
                                G28G01G24G12G19
 120892427.005 7  94201971.56545  23005076.109                    23005081.984
        44.400          32.100
                  88983014.319 5  21439771.547                    21439771.836
                        35.600
 129256962.256 6 100719746.94343  24596786.000                    24596788.750
        41.000          18.600
                  86480065.688 5  20800136.961                    20800137.902
                        34.500
                  88608369.330 5  21334501.570                    21334500.895
                        35.400
                  80845362.146 6  19499637.391                    19499639.516
                        40.300
                  88110709.391 6  21199774.523                    21199778.914
                        37.000
                  87125863.679 6  20984926.008                    20984929.207
                        40.400
                  87230229.808 6  20965850.859                    20965855.180
                        36.900
 117224179.987 8  91343522.96845  22307018.289                    22307021.934
        48.300          33.100
 120693117.542 7  94046538.16144  22967136.133                    22967139.648
        44.300          26.800
 123510392.139 7  96241738.28944  23503222.281                    23503226.949
        45.600          29.300
 124194511.121 7  96774947.26143  23633430.719                    23633434.449
        42.800          22.600
 118281113.738 7  92167102.63445  22508146.695                    22508153.426
        43.300          31.000
 110726980.911 8  86280811.23546  21070651.313                    21070657.000
        49.500          37.700
 125841486.205 6  98058176.90242  23946803.172                    23946806.656
        39.000          16.300
 119989740.302 7  93498508.96644  22833288.617                    22833290.527
        44.500          29.600
 18  3 11 13 18 10.0000000  0 17G10R06G15R05R13R14R15R22R23G17G11G32
                                G28G01G24G12G19
 120894890.646 7  94203891.29345  23005545.070                    23005550.305
        44.900          31.900
                  88981152.874 6  21439323.023                    21439323.031
                        36.000
 129261114.336 6 100722982.32343  24597576.156                    24597579.238
        40.600          19.600
                  86481848.238 5  20800565.750                    20800566.730
                        34.600
                  88611472.271 5  21335246.914                    21335248.238
                        35.600
                  80845462.620 6  19499661.508                    19499663.445
                        40.500
                  88108273.690 6  21199189.711                    21199193.359
                        37.400
                  87127831.339 6  20985401.734                    20985402.094
                        40.500
                  87228406.604 6  20965412.445                    20965416.891
                        37.200
 117223036.802 8  91342632.15745  22306800.602                    22306804.160
        48.000          33.500
 120695108.901 7  94048089.89944  22967513.750                    22967518.645
        42.700          27.100
 123507912.096 7  96239805.77444  23502749.711                    23502755.363
        45.000          29.500
 124197914.090 7  96777598.90943  23634079.766                    23634082.457
        43.800          21.800
 118281150.195 7  92167131.03945  22508153.563                    22508160.184
        43.900          30.900
 110727015.226 8  86280837.97446  21070657.805                    21070663.887
        49.200          37.300
 125837899.345 6  98055381.95342  23946120.984                    23946124.238
        39.000          16.900
 119987014.184 7  93496384.73844  22832770.484                    22832771.270
        44.900          29.400
 18  3 11 13 18 11.0000000  0 17G10R06G15R05R13R14R15R22R23G17G11G32
                                G28G01G24G12G19
 120897354.881 7  94205811.47545  23006014.820                    23006019.305
        45.300          32.400
                  88979292.021 5  21438875.266                    21438874.602
                        35.800
 129265266.674 6 100726217.92943  24598366.063                    24598369.496
        40.500          18.300
                  86483631.505 5  20800993.984                    20800995.793
                        34.600
                  88614575.615 5  21335995.109                    21335995.207
                        35.700
                  80845563.831 6  19499685.914                    19499687.727
                        40.400
                  88105838.423 6  21198602.641                    21198607.555
                        37.600
                  87129799.662 6  20985876.875                    20985877.234
                        40.600
                  87226584.065 6  20964975.180                    20964978.652
                        36.900
 117221894.271 8  91341741.88245  22306584.156                    22306586.398
        49.100          33.500
 120697101.017 6  94049642.20344  22967892.766                    22967897.449
        40.600          27.100
 123505432.557 7  96237873.65244  23502277.352                    23502283.656
        44.300          28.300
 124201317.395 7  96780250.84243  23634727.180                    23634730.410
        42.600          22.900
 118281187.443 7  92167160.05645  22508160.875                    22508167.414
        44.300          30.900
 110727050.286 8  86280865.29346  21070664.711                    21070670.156
        49.400          37.500
 125834312.797 6  98052587.25042  23945438.664                    23945441.465
        38.500          16.300
 119984288.621 7  93494260.91444  22832251.742                    22832252.473
        45.300          29.700
 18  3 11 13 18 12.0000000  0 17G10R06G15R05R13R14R15R22R23G17G11G32
                                G28G01G24G12G19
 120899819.670 7  94207732.09345  23006483.328                    23006488.699
        45.100          32.300
                  88977431.670 6  21438426.359                    21438426.578
                        36.000
 129269419.119 6 100729453.61743  24599156.141                    24599159.746
        40.600          19.000
                  86485415.390 5  20801422.766                    20801425.035
                        34.200
                  88617679.312 5  21336741.836                    21336742.883
                        35.600
                  80845665.675 6  19499710.547                    19499712.945
                        40.400
                  88103403.564 6  21198017.766                    21198021.379
                        37.800
                  87131768.664 6  20986347.594                    20986351.566
                        40.400
                  87224762.093 6  20964537.930                    20964540.895
                        37.100
 117220752.311 8  91340852.03345  22306366.883                    22306369.574
        49.100          33.300
 120699093.809 6  94051195.00244  22968273.281                    22968276.441
        41.800          28.000
 123502953.400 7  96235941.84244  23501805.188                    23501812.230
        42.600          27.000
 124204720.963 7  96782902.97543  23635376.320                    23635377.234
        43.700          23.000
 118281225.413 7  92167189.62845  22508167.695                    22508174.434
        44.400          31.700
 110727085.979 8  86280893.11146  21070671.266                    21070677.250
        49.300          37.200
 125830726.364 6  98049792.64742  23944756.078                    23944759.430
        39.000          16.300
 119981563.520 7  93492137.45544  22831732.648                    22831734.078
        45.000          29.600
 18  3 11 13 18 13.0000000  0 17G10R06G15R05R13R14R15R22R23G17G11G32
                                G28G01G24G12G19
 120902285.104 7  94209653.21645  23006952.086                    23006957.949
        44.300          31.900
                  88975571.886 6  21437976.758                    21437978.363
                        36.400
 129273571.788 6 100732689.44043  24599945.781                    24599949.875
        40.200          18.600
                  86487199.989 5  20801852.141                    20801853.551
                        34.200
                  88620783.432 5  21337489.758                    21337489.984
                        35.900
                  80845768.190 6  19499735.617                    19499737.438
                        40.400
                  88100969.072 6  21197431.563                    21197435.754
                        37.500
                  87133738.336 6  20986824.102                    20986825.121
                        40.600
                  87222940.753 6  20964099.727                    20964103.492
                        37.100
 117219610.935 8  91339962.64545  22306148.898                    22306152.043
        48.100          33.100
 120701087.241 7  94052748.28744  22968655.070                    22968656.039
        44.100          27.400
 123500474.728 6  96234010.41544  23501332.016                    23501340.340
        40.900          24.100
 124208124.804 7  96785555.33243  23636021.813                    23636024.828
        43.100          22.900
 118281264.120 7  92167219.79245  22508175.836                    22508182.465
        44.300          31.200
 110727122.380 8  86280921.47346  21070678.227                    21070684.164
        49.100          37.100
 125827140.182 6  98046998.20942  23944073.352                    23944077.145
        38.400          16.300
 119978838.902 7  93490014.36344  22831213.602                    22831215.695
        43.500          29.000
 18  3 11 13 18 14.0000000  0 17G10R06G15R05R13R14R15R22R23G17G11G32
                                G28G01G24G12G19
 120904751.043 7  94211574.73145  23007421.109                    23007427.285
        44.600          32.100
                  88973712.665 6  21437529.070                    21437530.695
                        36.200
 129277724.586 6 100735925.39343  24600736.523                    24600740.090
        40.200          19.900
                  86488985.200 5  20802282.016                    20802282.906
                        34.100
                  88623887.878 6  21338237.672                    21338237.555
                        36.000
                  80845871.339 6  19499760.477                    19499762.176
                        40.500
                  88098534.981 6  21196846.516                    21196850.016
                        37.200
                  87135708.574 6  20987299.852                    20987299.879
                        40.600
                  87221119.973 6  20963661.422                    20963665.219
                        36.900
 117218470.121 8  91339073.68545  22305931.828                    22305934.922
        48.000          33.700
 120703081.325 7  94054302.09944  22969035.297                    22969035.395
        45.900          27.000
 123497996.360 6  96232079.25044  23500860.539                    23500868.578
        39.900          26.500
 124211528.935 7  96788207.89743  23636669.328                    23636673.484
        42.900          22.500
 118281303.606 7  92167250.56345  22508183.055                    22508189.070
        44.100          32.400
 110727159.437 8  86280950.34246  21070685.430                    21070691.266
        49.300          37.600
 125823554.171 6  98044203.90042  23943390.711                    23943394.344
        38.600          15.600
 119976114.757 7  93487891.65144  22830694.336                    22830697.324
        42.400          29.600
 18  3 11 13 18 15.0000000  0 17G10R06G15R05R13R14R15R22R23G17G11G32
                                G28G01G24G12G19
 120907217.580 7  94213496.70845  23007890.914                    23007896.426
        45.400          31.600
                  88971854.027 5  21437080.992                    21437082.988
                        35.900
 129281877.607 6 100739161.51643  24601526.188                    24601530.367
        40.400          19.600
                  86490771.112 5  20802710.891                    20802712.344
                        34.900
                  88626992.700 6  21338984.266                    21338985.527
                        36.000
                  80845975.136 6  19499785.438                    19499786.711
                        40.600
                  88096101.277 6  21196260.148                    21196264.531
                        37.500
                  87137679.513 6  20987772.891                    20987774.980
                        40.700
                  87219299.795 6  20963225.063                    20963228.238
                        36.800
 117217329.925 8  91338185.22245  22305715.508                    22305718.324
        48.200          32.500
 120705076.106 7  94055856.48644  22969414.367                    22969415.090
        46.400          27.300
 123495518.539 6  96230148.51244  23500390.234                    23500396.977
        41.300          24.400
 124214933.294 7  96790860.64643  23637319.016                    23637321.570
        43.100          22.000
 118281343.815 7  92167281.89745  22508191.047                    22508196.949
        44.500          31.400
 110727197.193 8  86280979.76346  21070692.414                    21070698.621
        49.600          37.700
 125819968.387 6  98041409.81842  23942709.070                    23942712.457
        38.400          16.300
 119973391.110 7  93485769.35444  22830177.414                    22830178.672
        43.600          27.300
 18  3 11 13 18 16.0000000  0 17G10R06G15R05R13R14R15R22R23G17G11G32
                                G28G01G24G12G19
 120909684.713 7  94215419.15245  23008360.219                    23008366.047
        45.300          31.800
                  88969995.985 6  21436634.906                    21436635.160
                        36.100
 129286030.845 6 100742397.81143  24602317.008                    24602321.016
        40.400          19.600
                  86492557.731 5  20803140.711                    20803142.723
                        34.800
                  88630097.957 5  21339732.617                    21339732.828
                        35.600
                  80846079.643 6  19499810.766                    19499812.289
                        40.300
                  88093667.992 6  21195675.398                    21195679.109
                        37.500
                  87139651.137 6  20988247.250                    20988249.480
                        40.500
                  87217480.235 6  20962786.352                    20962790.844
                        36.400
 117216190.383 8  91337297.27145  22305499.055                    22305501.223
        48.300          33.400
 120707071.617 7  94057411.46044  22969792.539                    22969795.070
        45.500          28.500
 123493041.227 7  96228218.18544  23499919.641                    23499925.133
        43.200          25.200
 124218338.028 7  96793513.68043  23637966.672                    23637968.570
        43.500          22.600
 118281384.825 7  92167313.85345  22508198.766                    22508204.602
        44.300          32.300
 110727235.703 8  86281009.77146  21070700.336                    21070705.820
        49.200          37.600
 125816382.913 6  98038615.97742  23942026.023                    23942030.004
        38.400          14.800
 119970668.050 7  93483647.51444  22829660.320                    22829660.559
        45.400          29.300
 18  3 11 13 18 17.0000000  0 17G10R06G15R05R13R14R15R22R23G17G11G32
                                G28G01G24G12G19
 120912152.408 7  94217342.03845  23008829.242                    23008835.855
        44.400          31.600
                  88968138.472 6  21436187.016                    21436187.699
                        36.000
 129290184.189 6 100745634.18043  24603107.797                    24603111.285
        40.400          18.600
                  86494344.946 5  20803570.852                    20803571.945
                        34.400
                  88633203.500 5  21340480.086                    21340480.629
                        35.600
                  80846184.771 6  19499835.914                    19499837.715
                        40.500
                  88091235.071 6  21195090.383                    21195093.918
                        37.200
                  87141623.320 6  20988724.141                    20988724.742
                        40.300
                  87215661.243 6  20962350.203                    20962353.438
                        36.500
 117215051.361 7  91336409.71045  22305281.836                    22305284.805
        47.600          33.000
 120709067.758 7  94058966.93644  22970170.320                    22970174.801
        44.100          27.200
 123490564.280 7  96226288.10344  23499448.633                    23499453.766
        43.700          25.800
 124221742.961 7  96796166.85343  23638614.383                    23638616.242
        43.600          22.800
 118281426.543 7  92167346.37045  22508205.805                    22508212.566
        43.600          30.800
 110727274.845 8  86281040.27146  21070707.492                    21070713.301
        49.200          37.300
 125812797.522 6  98035822.17542  23941344.055                    23941347.984
        38.300          15.600
 119967945.417 7  93481525.98644  22829142.625                    22829142.551
        46.000          29.600
 18  3 11 13 18 18.0000000  0 17G10R06G15R05R13R14R15R22R23G17G11G32
                                G28G01G24G12G19
 120914620.720 7  94219265.39645  23009299.125                    23009304.859
        44.000          31.800
                  88966281.570 6  21435738.922                    21435740.020
                        36.000
 129294337.729 6 100748870.70343  24603897.602                    24603901.480
        40.300          19.600
                  86496132.884 5  20804001.063                    20804002.762
                        35.300
                  88636309.462 5  21341227.930                    21341228.305
                        35.800
                  80846290.603 6  19499861.789                    19499863.629
                        40.400
                  88088802.539 6  21194504.156                    21194508.609
                        38.000
                  87143596.158 6  20989198.922                    20989200.035
                        40.500
                  87213842.861 6  20961912.672                    20961915.840
                        36.400
 117213912.961 7  91335522.64045  22305064.063                    22305067.973
        47.300          33.500
 120711064.685 6  94060523.00344  22970549.516                    22970554.789
        41.900          27.000
 123488087.848 7  96224358.40544  23498977.703                    23498982.266
        44.100          26.700
 124225148.209 7  96798820.29743  23639260.422                    23639264.930
        42.500          22.800
 118281469.044 7  92167379.48445  22508213.875                    22508220.980
        43.200          31.600
 110727314.726 8  86281071.35346  21070714.883                    21070721.258
        49.300          37.700
 125809212.458 6  98033028.60042  23940661.375                    23940665.648
        38.100          16.900
 119965223.344 7  93479404.88044  22828623.906                    22828624.508
        45.900          29.700
 18  3 11 13 18 19.0000000  0 17G10R06G15R05R13R14R15R22R23G17G11G32
                                G28G01G24G12G19
 120917089.617 7  94221189.21645  23009769.188                    23009775.102
        43.800          31.700
                  88964425.285 6  21435293.047                    21435293.094
                        36.200
 129298491.481 6 100752107.39643  24604688.922                    24604692.254
        40.600          19.300
                  86497921.492 5  20804430.555                    20804432.855
                        35.100
                  88639415.824 5  21341975.367                    21341976.355
                        35.400
                  80846397.110 6  19499886.453                    19499889.477
                        40.500
                  88086370.444 6  21193920.016                    21193923.270
                        37.300
                  87145569.734 6  20989672.188                    20989675.289
                        40.200
                  87212025.112 6  20961475.750                    20961479.762
                        36.700
 117212775.153 8  91334636.04545  22304849.305                    22304851.484
        48.500          33.500
 120713062.336 6  94062079.59844  22970930.375                    22970934.438
        41.700          27.900
 123485611.851 7  96222429.01744  23498506.336                    23498511.031
        44.700          27.000
 124228553.734 7  96801473.93943  23639911.719                    23639913.090
        43.500          22.300
 118281512.251 7  92167413.15545  22508222.250                    22508229.316
        43.300          31.100
 110727355.329 8  86281102.98646  21070722.859                    21070728.379
        50.000          37.600
 125805627.531 6  98030235.13142  23939979.313                    23939982.988
        38.600          16.900
 119962501.769 7  93477284.13544  22828104.945                    22828106.465
        44.100          29.800
 18  3 11 13 18 20.0000000  0 17G10R06G15R05R13R14R15R22R23G17G11G32
                                G28G01G24G12G19
 120919559.022 7  94223113.42845  23010238.477                    23010244.926
        43.600          30.900
                  88962569.516 6  21434845.914                    21434845.582
                        36.200
 129302645.382 6 100755344.16743  24605479.383                    24605482.773
        41.100          19.300
                  86499710.749 5  20804860.938                    20804863.512
                        35.100
                  88642522.542 5  21342723.578                    21342724.773
                        35.300
                  80846504.252 6  19499912.898                    19499914.387
                        40.700
                  88083938.693 6  21193333.961                    21193338.371
                        37.200
                  87147543.892 6  20990149.977                    20990150.488
                        40.300
                  87210207.938 6  20961039.305                    20961043.133
                        36.900
 117211637.960 8  91333749.91445  22304632.992                    22304635.332
        48.500          33.300
 120715060.614 7  94063636.65344  22971312.633                    22971314.973
        43.400          27.300
 123483136.308 7  96220499.97844  23498034.961                    23498039.797
        44.600          28.500
 124231959.520 7  96804127.80943  23640559.219                    23640560.297
        43.600          22.600
 118281556.258 7  92167447.43845  22508230.617                    22508237.668
        43.200          30.100
 110727396.550 8  86281135.11046  21070730.320                    21070736.078
        49.800          37.700
 125802042.880 6  98027441.83542  23939297.508                    23939301.520
        37.900          17.400
 119959780.613 7  93475163.73744  22827586.172                    22827588.473
        42.500          29.100
 18  3 11 13 18 21.0000000  0 17G10R06G15R05R13R14R15R22R23G17G11G32
                                G28G01G24G12G19
 120922029.043 7  94225038.12645  23010708.789                    23010715.164
        43.200          31.800
                  88960714.290 5  21434397.906                    21434398.324
                        35.800
 129306799.407 6 100758581.06743  24606269.523                    24606273.195
        41.300          20.100
                  86501500.639 5  20805291.617                    20805293.145
                        35.300
                  88645629.561 5  21343471.234                    21343472.906
                        35.400
                  80846612.049 6  19499938.813                    19499940.309
                        40.600
                  88081507.338 6  21192750.328                    21192753.461
                        36.900
                  87149518.675 6  20990624.578                    20990626.895
                        40.000
                  87208391.352 6  20960602.602                    20960606.188
                        37.000
 117210501.303 7  91332864.19545  22304414.789                    22304418.707
        47.300          32.200
 120717059.516 7  94065194.20544  22971693.727                    22971694.902
        45.300          26.800
 123480661.138 7  96218571.25644  23497563.695                    23497568.555
        44.300          28.400
 124235365.603 7  96806781.89143  23641205.039                    23641207.789
        42.900          22.800
 118281600.960 7  92167482.26545  22508239.391                    22508246.148
        42.700          31.400
 110727438.426 8  86281167.74146  21070738.328                    21070744.379
        49.600          37.900
 125798458.336 6  98024648.68142  23938615.125                    23938619.699
        37.200          14.800
 119957059.902 7  93473043.71244  22827068.492                    22827070.848
        42.600          29.200
 18  3 11 13 18 22.0000000  0 17G10R06G15R05R13R14R15R22R23G17G11G32
                                G28G01G24G12G19
 120924499.649 7  94226963.26945  23011179.727                    23011184.871
        43.800          32.700
                  88958859.660 6  21433952.086                    21433952.148
                        36.500
 129310953.657 6 100761818.16043  24607059.828                    24607063.656
        41.300          20.400
                  86503291.244 5  20805722.664                    20805724.371
                        34.500
                  88648737.026 5  21344220.492                    21344220.805
                        35.300
                  80846720.518 6  19499964.898                    19499967.043
                        40.500
                  88079076.377 6  21192164.336                    21192168.234
                        37.200
                  87151494.136 6  20991100.367                    20991102.180
                        40.100
                  87206575.384 6  20960165.930                    20960169.715
                        37.200
 117209365.237 7  91331978.94745  22304199.680                    22304202.492
        47.500          32.800
 120719059.122 7  94066752.32744  22972074.672                    22972075.711
        45.000          27.400
 123478186.426 7  96216642.88844  23497092.375                    23497098.152
        43.000          28.100
 124238771.898 7  96809436.15043  23641855.117                    23641857.816
        42.800          22.600
 118281646.439 7  92167517.70145  22508248.430                    22508254.293
        42.600          31.200
 110727480.997 8  86281200.91746  21070746.773                    21070752.387
        49.600          37.300
 125794874.091 6                  23937933.023
        37.600
 119954339.740 7  93470924.13844  22826552.414                    22826553.234
        45.000          29.800
 18  3 11 13 18 23.0000000  0 17G10R06G15R05R13R14R15R22R23G17G11G32
                                G28G01G24G12G19
 120926970.795 7  94228888.82645  23011649.969                    23011655.301
        44.500          32.200
                  88957005.561 6  21433503.820                    21433505.719
                        36.100
 129315108.077 6 100765055.38443  24607850.758                    24607854.316
        41.600          19.900
                  86505082.505 5  20806152.867                    20806154.922
                        34.800
                  88651844.812 5  21344969.117                    21344968.813
                        35.800
                  80846829.613 6  19499991.047                    19499993.500
                        40.400
                  88076645.803 6  21191579.086                    21191583.523
                        37.400
                  87153470.224 6  20991576.680                    20991578.191
                        40.000
                  87204760.013 6  20959729.773                    20959733.832
                        37.600
 117208229.803 8  91331094.19645  22303984.328                    22303986.578
        48.500          33.000
 120721059.390 7  94068310.99544  22972455.078                    22972456.359
        45.400          27.300
 123475712.165 6  96214714.89644  23496620.938                    23496627.168
        41.800          26.900
 124242178.503 7  96812090.65343  23642502.789                    23642505.438
        42.600          23.000
 118281692.656 7  92167553.71145  22508257.078                    22508262.953
        43.000          32.100
 110727524.281 8  86281234.64446  21070754.891                    21070760.813
        49.600          37.600
 125791290.054 6                  23937251.477
        37.500
 119951620.105 7  93468804.96744  22826036.094                    22826035.531
        46.400          29.300
 18  3 11 13 18 24.0000000  0 17G10R06G15R05R13R14R15R22R23G17G11G32
                                G28G01G24G12G19
 120929442.571 7  94230814.88545  23012119.930                    23012126.094
        44.700          31.500
                  88955152.069 6  21433057.523                    21433058.941
                        36.000
 129319262.708 6 100768292.75143  24608641.820                    24608645.398
        41.300          19.900
                  86506874.451 5  20806585.289                    20806586.434
                        34.700
                  88654953.080 5  21345717.016                    21345717.527
                        35.500
                  80846939.438 6  19500017.813                    19500019.605
                        40.200
                  88074215.704 6  21190995.852                    21190998.781
                        37.100
                  87155447.004 6  20992052.547                    20992054.535
                        40.000
                  87202945.259 6  20959293.117                    20959297.043
                        37.300
 117207094.982 7  91330209.90945  22303767.359                    22303770.574
        47.800          32.100
 120723060.428 7  94069870.27344  22972834.688                    22972836.980
        44.900          27.100
 123473238.332 6  96212787.25544  23496149.258                    23496156.461
        40.600          27.300
 124245585.436 7  96814745.40543  23643152.273                    23643153.680
        43.500          22.500
 118281739.661 7  92167590.33945  22508265.703                    22508271.855
        43.100          31.500
 110727568.319 8  86281268.95946  21070762.930                    21070768.875
        49.600          37.900
 125787706.226 6                  23936569.406
        38.100
 119948901.023 7  93466686.19644  22825518.586                    22825518.242
        46.700          29.400
 18  3 11 13 18 25.0000000  0 17G10R06G15R05R13R14R15R22R23G17G11G32
                                G28G01G24G12G19
 120931914.869 7  94232741.35645  23012590.117                    23012596.293
        44.400          32.400
                  88953299.094 5  21432610.180                    21432612.094
                        35.600
 129323417.440 6 100771530.19843  24609431.664                    24609435.625
        41.800          20.100
                  86508667.017 5  20807014.688                    20807016.715
                        34.400
                  88658061.604 5  21346465.445                    21346465.848
                        34.800
                  80847049.864 6  19500044.445                    19500046.406
                        40.300
                  88071785.907 6  21190410.570                    21190414.102
                        37.200
                  87157424.387 6  20992528.508                    20992530.477
                        39.900
                  87201131.063 6  20958858.000                    20958861.176
                        37.000
 117205960.659 7  91329326.01645  22303551.406                    22303554.141
        47.900          32.900
 120725062.072 7  94071430.01744  22973214.656                    22973218.117
        44.100          27.800
 123470764.917 6  96210859.95944  23495679.508                    23495685.883
        40.600          26.900
 124248992.581 7  96817400.31443  23643798.789                    23643801.941
        42.600          23.000
 118281787.346 7  92167627.49745  22508275.039                    22508281.242
        43.400          31.200
 110727612.938 8  86281303.72946  21070772.039                    21070777.703
        49.500          37.500
 125784122.559 6                  23935887.602
        37.900
 119946182.359 7  93464567.73644  22825000.563                    22825001.102
        45.700          29.700
 18  3 11 13 18 26.0000000  0 17G10R06G15R05R13R14R15R22R23G17G11G32
                                G28G01G24G12G19
 120934387.731 7  94234668.27145  23013061.617                    23013067.004
        44.700          31.800
                  88951446.670 6  21432163.758                    21432165.703
                        36.200
 129327572.372 7 100774767.80543  24610222.742                    24610226.289
        42.000          20.900
                  86510460.252 5  20807445.648                    20807448.086
                        34.600
                  88661170.559 5  21347214.539                    21347214.449
                        35.300
                  80847160.983 6  19500071.203                    19500073.063
                        40.500
                  88069356.548 6  21189826.719                    21189829.809
                        36.900
                  87159402.427 6  20993006.305                    20993006.676
                        39.900
                  87199317.466 6  20958420.789                    20958424.906
                        37.100
 117204826.966 8  91328442.61745  22303336.219                    22303339.445
        48.000          33.200
 120727064.445 7  94072990.32044  22973595.023                    22973599.484
        43.100          27.600
 123468291.899 7  96208932.98144  23495209.227                    23495215.707
        42.100          27.400
 124252400.023 7  96820055.45743  23644446.922                    23644450.590
        42.500          22.300
 118281835.766 7  92167665.22045  22508284.430                    22508290.438
        43.700          31.600
 110727658.287 8  86281339.06446  21070780.383                    21070786.379
        49.600          37.400
 125780539.137 6                  23935205.906
        38.100
 119943464.182 7  93462449.64444  22824481.352                    22824483.867
        44.200          29.600
 18  3 11 13 18 27.0000000  0 17G10R06G15R05R13R14R15R22R23G17G11G32
                                G28G01G24G12G19
 120936861.181 7  94236595.63045  23013532.188                    23013537.176
        45.300          32.100
                  88949594.828 6  21431718.906                    21431719.582
                        36.500
 129331727.433 6 100778005.50543  24611013.258                    24611017.047
        41.500          21.500
                  86512254.135 5  20807877.930                    20807880.031
                        34.600
                  88664279.863 5  21347962.039                    21347963.020
                        35.900
                  80847272.731 6  19500098.234                    19500100.777
                        40.500
                  88066927.561 6  21189241.406                    21189245.547
                        37.200
                  87161381.068 6  20993482.594                    20993483.551
                        40.300
                  87197504.448 6  20957985.477                    20957989.465
                        36.500
 117203693.833 8  91327559.65245  22303120.563                    22303123.438
        48.200          33.400
 120729067.492 7  94074551.13144  22973976.109                    22973980.715
        42.500          27.900
 123465819.367 7  96207006.37144  23494740.023                    23494745.203
        43.300          27.600
 124255807.676 7  96822710.77143  23645097.391                    23645099.035
        42.600          22.500
 118281884.966 7  92167703.55345  22508294.367                    22508299.789
        43.900          32.000
 110727704.271 8  86281374.90046  21070789.078                    21070795.316
        49.800          37.300
 125776955.869 6                  23934523.602
        37.500
 119940746.446 7  93460331.91944  22823963.797                    22823966.992
        42.600          28.800
 18  3 11 13 18 28.0000000  0 17G10R06G15R05R13R14R15R22R23G17G11G32
                                G28G01G24G12G19
 120939335.193 7  94238523.44845  23014002.453                    23014008.180
        45.100          32.300
                  88947743.530 6  21431272.484                    21431273.137
                        36.400
 129335882.736 6 100781243.39243  24611804.031                    24611807.820
        40.900          20.900
                  86514048.727 5  20808309.711                    20808311.695
                        34.700
                  88667389.564 5  21348711.477                    21348711.492
                        35.700
                  80847385.149 6  19500125.617                    19500127.828
                        40.400
                  88064499.028 6  21188657.320                    21188661.082
                        37.100
                  87163360.441 6  20993957.133                    20993960.238
                        40.000
                  87195692.057 6  20957549.531                    20957553.777
                        36.700
 117202561.331 8  91326677.18045  22302904.969                    22302908.355
        48.000          33.200
 120731071.264 7  94076112.49044  22974358.320                    22974361.930
        42.900          27.200
 123463347.296 7  96205080.09744  23494269.594                    23494274.660
        44.300          27.900
 124259215.696 7  96825366.37343  23645744.984                    23645746.945
        42.600          22.900
 118281934.881 7  92167742.44845  22508303.406                    22508309.660
        44.100          31.600
 110727750.968 8  86281411.28746  21070798.234                    21070803.859
        49.600          36.800
 125773372.892 6                  23933841.695
        37.300
 119938029.238 7  93458214.63944  22823447.320                    22823449.383
        43.400          28.900
 18  3 11 13 18 29.0000000  0 17G10R06G15R05R13R14R15R22R23G17G11G32
                                G28G01G24G12G19
 120941809.807 7  94240451.72645  23014473.242                    23014479.266
        44.500          32.300
                  88945892.832 6  21430826.430                    21430827.215
                        36.700
 129340038.171 6 100784481.39043  24612595.164                    24612598.816
        40.200          20.100
                  86515843.974 5  20808741.766                    20808742.766
                        34.300
                  88670499.631 5  21349460.359                    21349460.871
                        35.300
                  80847498.212 6  19500152.203                    19500154.441
                        40.400
                  88062070.854 6  21188072.883                    21188076.785
                        37.300
                  87165340.418 6  20994436.398                    20994437.430
                        40.000
                  87193880.254 6  20957113.859                    20957118.063
                        36.900
 117201429.391 7  91325795.14045  22302688.805                    22302692.625
        47.900          33.300
 120733075.687 7  94077674.34944  22974740.805                    22974743.199
        44.200          27.400
 123460875.662 7  96203154.14044  23493799.813                    23493804.734
        45.300          28.300
 124262623.937 7  96828022.15044  23646393.180                    23646396.105
        42.700          24.200
 118281985.556 7  92167781.93945  22508313.102                    22508319.137
        43.900          30.400
 110727798.381 8  86281448.23246  21070807.250                    21070812.699
        49.100          37.300
 125769790.049 6                  23933159.727
        37.600
 119935312.556 7  93456097.77544  22822931.813                    22822932.336
        45.600          29.600
 18  3 11 13 18 30.0000000  0 17G10R06G15R05R13R14R15R22R23G17G11G32
                                G28G01G24G12G19
 120944284.960 7  94242380.42745  23014943.891                    23014949.984
        44.500          32.400
                  88944042.695 6  21430382.148                    21430381.598
                        36.800
 129344193.785 6 100787719.53343  24613385.305                    24613389.238
        40.500          19.600
                  86517639.854 5  20809173.430                    20809175.328
                        34.600
                  88673610.082 5  21350209.297                    21350209.141
                        35.100
                  80847611.929 6  19500179.570                    19500181.605
                        40.400
                  88059643.089 6  21187489.094                    21187492.621
                        37.300
                  87167321.005 6  20994913.094                    20994914.223
                        40.400
                  87192069.062 6  20956680.039                    20956682.914
                        36.400
 117200298.029 8  91324913.56245  22302474.148                    22302477.109
        48.200          33.000
 120735080.725 7  94079236.70344  22975123.266                    22975124.355
        45.600          28.100
 123458404.485 7  96201228.51744  23493328.883                    23493334.039
        45.300          26.600
 124266032.448 7  96830678.13243  23647042.219                    23647044.461
        42.400          22.800
 118282036.983 7  92167822.01645  22508322.625                    22508329.043
        44.400          32.000
 110727846.448 8  86281485.69146  21070816.094                    21070821.922
        49.100          37.300
 125766207.441 6                  23932478.414
        37.700
 119932596.380 7  93453981.29044  22822415.594                    22822415.621
        46.500          29.700
 18  3 11 13 18 31.0000000  0 17G10R06G15R05R13R14R15R22R23G17G11G32
                                G28G01G24G12G19
 120946760.708 7  94244309.57945  23015415.867                    23015421.270
        45.100          31.900
                  88942193.146 6  21429936.922                    21429935.730
                        36.900
 129348349.604 6 100790957.83443  24614176.398                    24614179.871
        40.900          19.300
                  86519436.435 5  20809606.906                    20809607.453
                        34.500
                  88676720.907 5  21350958.445                    21350958.105
                        35.600
                  80847726.340 6  19500207.867                    19500209.547
                        40.400
                  88057215.734 6  21186904.633                    21186908.949
                        37.300
                  87169302.292 6  20995389.328                    20995391.633
                        40.400
                  87190258.458 6  20956243.773                    20956248.184
                        36.500
 117199167.330 8  91324032.49545  22302259.602                    22302262.332
        48.800          33.200
 120737086.491 7  94080799.63744  22975504.797                    22975506.563
        45.400          27.200
 123455933.756 7  96199303.24044  23492858.094                    23492864.117
        44.900          26.500
 124269441.255 7  96833334.34843  23647691.367                    23647693.355
        43.000          22.600
 118282089.173 7  92167862.69445  22508332.766                    22508339.258
        44.200          31.400
 110727895.225 8  86281523.70146  21070825.320                    21070831.391
        48.800          37.300
 125762625.082 6                  23931796.766
        37.600
 119929880.716 7  93451865.17844  22821899.172                    22821899.605
        46.100          29.300
 18  3 11 13 18 32.0000000  0 17G10R06G15R05R13R14R15R22R23G17G11G32
                                G28G01G24G12G19
 120949237.035 7  94246239.18945  23015886.633                    23015892.406
        45.000          32.400
                  88940344.171 6  21429492.055                    21429490.910
                        36.700
 129352505.593 6 100794196.26843  24614966.750                    24614970.680
        40.200          19.600
                  86521233.641 5  20810038.094                    20810040.285
                        35.100
                  88679832.085 5  21351708.070                    21351707.430
                        35.600
                  80847841.364 6  19500235.109                    19500237.293
                        40.400
                  88054788.766 6  21186320.414                    21186324.301
                        36.900
                  87171284.206 6  20995866.938                    20995868.820
                        40.400
                  87188448.459 6  20955808.875                    20955812.965
                        36.900
 117198037.171 7  91323151.84045  22302043.703                    22302047.176
        47.600          33.400
 120739092.937 7  94082363.12744  22975885.695                    22975887.980
        45.300          26.100
 123453463.477 7  96197378.31544  23492387.461                    23492393.609
        44.200          26.000
 124272850.312 7  96835990.75843  23648339.539                    23648342.137
        43.100          21.800
 118282142.103 7  92167903.94945  22508341.992                    22508349.047
        43.900          30.900
 110727944.649 8  86281562.21246  21070834.578                    21070841.145
        48.700          37.100
 125759042.907 6                  23931114.984
        37.200
 119927165.533 7  93449749.43244  22821380.820                    22821382.617
        44.200          28.900
 18  3 11 13 18 33.0000000  0 17G10R06G15R05R13R14R15R22R23G17G11G32
                                G28G01G24G12G19
 120951713.926 7  94248169.23245  23016356.969                    23016363.438
        44.100          31.600
                  88938495.741 6  21429046.063                    21429045.484
                        36.500
 129356661.733 6 100797434.81343  24615757.477                    24615761.438
        39.700          19.600
                  86523031.525 5  20810470.102                    20810472.508
                        35.200
                  88682943.653 5  21352456.672                    21352456.906
                        35.800
                  80847957.054 6  19500263.773                    19500265.031
                        40.400
                  88052362.187 6  21185736.391                    21185740.531
                        37.200
                  87173266.737 6  20996345.203                    20996346.648
                        40.500
                  87186639.010 6  20955373.961                    20955377.992
                        36.700
 117196907.577 7  91322271.63345  22301827.914                    22301831.934
        47.500          33.500
 120741100.052 7  94083927.13644  22976266.648                    22976269.996
        44.100          27.100
 123450993.567 7  96195453.68444  23491917.656                    23491923.473
        43.300          24.300
 124276259.628 7  96838647.36543  23648987.789                    23648990.578
        43.000          22.200
 118282195.729 7  92167945.73945  22508351.727                    22508359.305
        43.200          31.400
 110727994.767 8  86281601.26646  21070844.516                    21070850.168
        49.300          37.200
 125755460.938 6                  23930433.758
        37.000
 119924450.780 7  93447634.01244  22820863.539                    22820866.113
        42.900          29.500
 18  3 11 13 18 34.0000000  0 17G10R06G15R05R13R14R15R22R23G17G11G32
                                G28G01G24G12G19
 120954191.475 7  94250099.78545  23016829.133                    23016835.148
        44.400          31.800
                  88936647.937 6  21428599.578                    21428600.723
                        36.200
 129360818.107 6 100800673.54443  24616548.070                    24616552.566
        39.900          19.300
                  86524830.109 5  20810903.289                    20810905.031
                        35.300
                  88686055.627 6  21353206.133                    21353206.406
                        36.000
                  80848073.448 6  19500291.055                    19500293.242
                        40.600
                  88049936.074 6  21185153.305                    21185156.762
                        37.100
                  87175249.984 6  20996822.180                    20996824.480
                        40.400
                  87184830.239 6  20954939.922                    20954943.027
                        36.700
 117195778.674 8  91321391.96945  22301615.023                    22301616.980
        48.900          33.200
 120743107.947 7  94085491.74544  22976647.242                    22976652.465
        42.100          27.500
 123448524.179 7  96193529.46644  23491447.266                    23491453.492
        42.900          25.700
 124279669.291 7  96841304.23743  23649637.961                    23649639.762
        43.300          22.500
 118282250.233 7  92167988.19845  22508362.352                    22508369.594
        42.900          31.400
 110728045.600 8  86281640.87846  21070854.344                    21070859.570
        49.500          37.400
 125751879.245 6                  23929751.742
        37.300
 119921736.602 7  93445519.07044  22820347.063                    22820349.355
        43.200          29.300
 18  3 11 13 18 35.0000000  0 17G10R06G15R05R13R14R15R22R23G17G11G32
                                G28G01G24G12G19
 120956669.548 7  94252030.74145  23017301.234                    23017306.441
        45.400          32.600
                  88934800.660 5  21428154.039                    21428155.684
                        35.800
 129364974.650 6 100803912.40643  24617339.844                    24617343.645
        40.500          19.600
                  86526629.350 5  20811336.055                    20811337.207
                        35.100
                  88689167.963 5  21353954.555                    21353955.438
                        35.500
                  80848190.478 6  19500319.656                    19500321.332
                        40.500
                  88047510.292 6  21184569.172                    21184573.387
                        37.500
                  87177233.850 6  20997299.898                    20997302.254
                        40.600
                  87183022.027 6  20954504.633                    20954508.566
                        37.000
 117194650.324 8  91320512.73745  22301400.484                    22301402.816
        49.100          33.500
 120745116.521 6  94087056.85344  22977030.938                    22977034.441
        41.800          27.600
 123446055.192 7  96191605.57544  23490977.188                    23490983.543
        42.400          24.700
 124283079.204 7  96843961.31343  23650285.539                    23650288.098
        42.900          23.600
 118282305.391 7  92168031.17545  22508373.070                    22508380.508
        43.600          32.600
 110728097.125 8  86281681.02646  21070863.625                    21070869.387
        49.700          37.300
 125748297.707 6                  23929070.914
        37.300
 119919022.899 7  93443404.52944  22819831.922                    22819832.871
        44.700          29.200
 18  3 11 13 18 36.0000000  0 17G10R06G15R05R13R14R15R22R23G17G11G32
                                G28G01G24G12G19
 120959148.177 7  94253962.14745  23017772.711                    23017778.363
        45.500          31.900
                  88932953.942 6  21427707.820                    21427710.105
                        36.100
 129369131.345 6 100807151.38843  24618130.563                    24618134.727
        40.700          19.900
                  86528429.269 5  20811769.156                    20811770.555
                        35.000
                  88692280.658 5  21354704.094                    21354705.023
                        35.600
                  80848308.213 6  19500347.875                    19500349.977
                        40.400
                  88045084.956 6  21183986.445                    21183990.180
                        37.400
                  87179218.393 6  20997777.500                    20997780.023
                        40.600
                  87181214.449 6  20954070.609                    20954074.551
                        37.100
 117193522.554 7  91319633.94345  22301184.102                    22301188.047
        47.900          33.400
 120747125.738 7  94088622.44344  22977414.523                    22977416.613
        43.200          27.800
 123443586.661 7  96189682.05044  23490507.258                    23490513.570
        42.200          25.400
 124286489.400 7  96846618.58843  23650935.398                    23650937.902
        43.200          22.200
 118282361.373 7  92168074.79245  22508383.898                    22508390.727
        43.700          32.100
 110728149.328 8  86281721.71246  21070873.625                    21070879.496
        49.800          37.200
 125744716.416 6                  23928389.023
        37.500
 119916309.736 7  93441290.38644  22819316.234                    22819316.500
        46.000          28.900
 18  3 11 13 18 37.0000000  0 17G10R06G15R05R13R14R15R22R23G17G11G32
                                G28G01G24G12G19
 120961627.436 7  94255894.03745  23018244.047                    23018250.188
        44.700          32.000
                  88931107.828 6  21427263.656                    21427264.777
                        36.400
 129373288.216 6 100810390.49743  24618921.617                    24618925.688
        40.400          20.400
                  86530229.851 5  20812201.281                    20812203.727
                        35.400
                  88695393.728 5  21355454.891                    21355454.086
                        35.700
                  80848426.607 6  19500376.742                    19500378.852
                        40.300
                  88042660.015 6  21183402.023                    21183406.566
                        37.200
                  87181203.555 6  20998256.531                    20998258.043
                        40.500
                  87179407.475 6  20953635.672                    20953639.457
                        37.000
 117192395.387 8  91318755.62845  22300970.188                    22300973.641
        48.600          33.300
 120749135.666 7  94090188.60144  22977797.695                    22977799.074
        44.600          27.400
 123441118.595 7  96187758.90944  23490038.969                    23490044.469
        43.100          24.800
 124289899.839 7  96849276.07443  23651584.375                    23651586.402
        43.300          23.000
 118282418.054 7  92168118.95345  22508395.133                    22508401.770
        43.800          31.400
 110728202.239 8  86281762.94146  21070883.625                    21070889.504
        49.800          37.300
 125741135.366 6                  23927707.680
        37.300
 119913597.058 7  93439176.61444  22818799.383                    22818800.781
        46.000          29.800
 18  3 11 13 18 38.0000000  0 17G10R06G15R05R13R14R15R22R23G17G11G32
                                G28G01G24G12G19
 120964107.297 7  94257826.39045  23018717.180                    23018722.145
        45.000          32.400
                  88929262.311 6  21426820.461                    21426820.035
                        36.400
 129377445.328 6 100813629.79443  24619712.797                    24619717.051
        40.200          19.600
                  86532031.125 5  20812635.383                    20812636.539
                        35.000
                  88698507.196 5  21356204.141                    21356204.336
                        35.400
                  80848545.699 6  19500404.766                    19500407.551
                        40.600
                  88040235.499 6  21182819.039                    21182822.777
                        37.200
                  87183189.409 6  20998734.172                    20998736.270
                        40.500
                  87177601.147 6  20953201.664                    20953205.547
                        36.900
 117191268.883 8  91317877.84045  22300756.352                    22300759.184
        48.600          33.100
 120751146.303 7  94091755.33144  22978179.992                    22978181.871
        45.000          27.800
 123438650.991 7  96185836.12944  23489569.711                    23489574.660
        44.100          27.700
 124293310.646 7  96851933.85943  23652232.453                    23652234.898
        43.300          21.700
 118282475.549 7  92168163.75045  22508406.727                    22508412.668
        43.800          31.400
 110728255.837 8  86281804.70746  21070894.133                    21070900.148
        49.600          37.500
 125737554.553 6                  23927026.625
        37.400
 119910884.920 7  93437063.24644  22818282.898                    22818284.172
        45.200          29.600
 18  3 11 13 18 39.0000000  0 17G10R06G15R05R13R14R15R22R23G17G11G32
                                G28G01G24G12G19
 120966587.691 7  94259759.15545  23019189.391                    23019194.168
        45.900          32.300
                  88927417.337 6  21426375.766                    21426375.727
                        36.700
 129381602.601 6 100816869.23343  24620503.945                    24620508.012
        39.800          18.600
                  86533833.024 5  20813068.570                    20813070.145
                        34.400
                  88701621.054 5  21356952.672                    21356953.617
                        35.500
                  80848665.396 6  19500434.594                    19500436.480
                        40.700
                  88037811.384 6  21182236.477                    21182239.734
                        37.600
                  87185175.875 6  20999212.984                    20999214.688
                        40.400
                  87175795.365 6  20952767.977                    20952771.773
                        36.900
 117190142.933 7  91317000.47845  22300541.641                    22300545.059
        47.800          33.900
 120753157.604 7  94093322.59944  22978562.406                    22978564.715
        44.400          27.700
 123436183.849 7  96183913.69944  23489100.305                    23489105.297
        44.800          29.500
 124296721.709 7  96854591.83743  23652881.539                    23652884.715
        42.600          22.000
 118282533.764 7  92168209.11245  22508417.078                    22508423.660
        43.700          30.900
 110728310.104 8  86281846.99546  21070904.555                    21070909.793
        49.200          37.500
 125733973.906 6                  23926345.078
        37.000
 119908173.257 7  93434950.24544  22817766.086                    22817768.438
        44.100          28.600
 18  3 11 13 18 40.0000000  0 17G10R06G15R05R13R14R15R22R23G17G11G32
                                G28G01G24G12G19
 120969068.693 7  94261692.40545  23019661.273                    23019666.496
        45.400          32.400
                  88925572.915 6  21425933.172                    21425931.840
                        36.700
 129385760.080 6 100820108.84143  24621294.859                    24621299.195
        40.300          18.600
                  86535635.641 5  20813501.742                    20813503.871
                        35.000
                  88704735.263 5  21357703.102                    21357704.055
                        35.000
                  80848785.806 6  19500462.891                    19500465.047
                        40.700
                  88035387.672 6  21181652.086                    21181657.113
                        37.200
                  87187163.020 6  20999691.063                    20999693.746
                        40.200
                  87173990.253 6  20952333.688                    20952337.520
                        36.700
 117189017.608 7  91316123.59645  22300327.094                    22300330.594
        47.500          34.200
 120755169.648 7  94094890.45244  22978943.828                    22978947.715
        43.600          28.400
 123433717.198 7  96181991.64244  23488631.023                    23488636.922
        44.900          29.300
 124300133.045 7  96857250.02443  23653530.492                    23653533.441
        42.500          21.700
 118282592.766 7  92168255.09945  22508428.516                    22508434.641
        43.900          31.200
 110728365.102 8  86281889.84946  21070914.766                    21070920.578
        49.200          37.400
 125730393.554 6                  23925663.742
        36.700
 119905462.095 7  93432837.64844  22817250.180                    22817252.219
        44.200          29.600
 18  3 11 13 18 41.0000000  0 17G10R06G15R05R13R14R15R22R23G17G11G32
                                G28G01G24G12G19
 120971550.272 7  94263626.11445  23020132.898                    23020138.930
        44.500          32.100
                  88923729.059 6  21425488.313                    21425487.738
                        36.400
 129389917.724 6 100823348.57543  24622086.438                    24622090.574
        41.000          19.300
                  86537438.904 5  20813935.563                    20813937.254
                        35.300
                  88707849.886 5  21358452.781                    21358453.805
                        35.300
                  80848906.867 6  19500492.359                    19500494.441
                        40.800
                  88032964.393 6  21181070.109                    21181073.852
                        37.300
                  87189150.811 6  21000171.023                    21000171.898
                        40.200
                  87172185.743 6  20951900.242                    20951904.793
                        36.200
 117187892.854 7  91315247.16345  22300113.547                    22300116.469
        47.600          33.600
 120757182.363 6  94096458.81144  22979326.609                    22979330.496
        41.700          28.400
 123431250.995 7  96180069.91544  23488161.180                    23488167.285
        44.700          28.800
 124303544.661 7  96859908.41643  23654181.250                    23654182.832
        42.700          21.800
 118282652.509 7  92168301.65645  22508439.703                    22508445.801
        43.900          32.000
 110728420.792 8  86281933.25346  21070925.531                    21070931.410
        49.400          37.600
 125726813.357 6                  23924982.461
        36.900
 119902751.433 7  93430725.46244  22816734.844                    22816736.402
        44.500          28.900
 18  3 11 13 18 42.0000000  0 17G10R06G15R05R13R14R15R22R23G17G11G32
                                G28G01G24G12G19
 120974032.409 7  94265560.24945  23020604.961                    23020610.672
        45.100          31.500
                  88921885.725 6  21425043.273                    21425042.438
                        36.500
 129394075.496 6 100826588.36943  24622877.695                    24622881.129
        41.400          19.000
                  86539242.823 5  20814369.484                    20814371.570
                        34.900
                  88710964.876 5  21359203.102                    21359203.152
                        35.800
                  80849028.611 6  19500521.258                    19500524.316
                        40.600
                  88030541.448 6  21180485.789                    21180490.012
                        36.600
                  87191139.222 6  21000649.906                    21000651.582
                        40.500
                  87170381.786 6  20951466.469                    20951470.121
                        36.800
 117186768.698 8  91314371.20045  22299900.227                    22299902.594
        48.400          33.700
 120759195.815 6  94098027.72044  22979710.125                    22979713.371
        41.800          27.600
 123428785.213 7  96178148.51444  23487691.922                    23487698.063
        44.600          27.700
 124306956.560 7  96862567.02343  23654830.023                    23654831.594
        42.800          22.000
 118282712.991 7  92168348.79645  22508451.164                    22508457.574
        44.000          31.300
 110728477.146 8  86281977.16546  21070936.117                    21070941.855
        49.900          37.300
 125723233.383 6                  23924299.930
        36.600
 119900041.282 7  93428613.67044  22816220.109                    22816220.574
        45.200          28.900
 18  3 11 13 18 43.0000000  0 17G10R06G15R05R13R14R15R22R23G17G11G32
                                G28G01G24G12G19
 120976515.186 7  94267494.87445  23021078.688                    23021083.398
        45.700          32.300
                  88920043.022 6  21424598.367                    21424598.578
                        36.200
 129398233.515 6 100829828.39543  24623669.156                    24623672.805
        41.600          19.300
                  86541047.443 5  20814803.781                    20814804.871
                        35.200
                  88714080.224 5  21359952.906                    21359953.543
                        35.500
                  80849151.042 6  19500551.445                    19500553.297
                        40.200
                  88028118.959 6  21179903.641                    21179907.816
                        37.000
                  87193128.347 6  21001127.836                    21001130.063
                        40.600
                  87168578.470 6  20951033.156                    20951037.145
                        36.600
 117185645.189 8  91313495.73145  22299686.391                    22299689.434
        48.700          33.800
 120761209.913 7  94099597.12244  22980094.867                    22980096.797
        43.300          27.900
 123426319.900 7  96176227.48544  23487222.141                    23487228.965
        43.600          28.000
 124310368.733 7  96865225.86243  23655478.086                    23655481.516
        42.400          22.200
 118282774.256 7  92168396.53745  22508462.234                    22508469.402
        44.100          30.900
 110728534.251 8  86282021.66446  21070946.820                    21070952.684
        49.900          37.600
 125719653.711 5                  23923618.492
        35.400
 119897331.670 7  93426502.28845  22815704.883                    22815705.289
        45.600          30.200
 18  3 11 13 18 44.0000000  0 17G10R06G15R05R13R14R15R22R23G17G11G32
                                G28G01G24G12G19
 120978998.449 7  94269429.88845  23021551.461                    23021556.031
        45.600          31.700
                  88918200.829 6  21424153.117                    21424155.414
                        36.000
 129402391.672 6 100833068.51243  24624460.633                    24624463.715
        41.100          19.000
                  86542852.688 5  20815238.469                    20815239.566
                        34.600
                  88717195.974 5  21360703.008                    21360703.441
                        35.800
                  80849274.099 6  19500581.328                    19500583.063
                        40.600
                  88025696.826 6  21179320.297                    21179325.160
                        36.900
                  87195118.068 6  21001607.078                    21001609.598
                        40.600
                  87166775.727 6  20950599.758                    20950603.941
                        37.100
 117184522.197 7  91312620.65945  22299471.305                    22299475.477
        47.700          33.500
 120763224.694 7  94101167.06644  22980478.906                    22980480.449
        44.800          27.100
 123423854.975 7  96174306.76644  23486753.117                    23486759.883
        42.700          25.700
 124313781.165 7  96867884.88443  23656128.336                    23656131.715
        42.000          23.300
 118282836.245 7  92168444.83645  22508474.078                    22508481.180
        44.100          31.900
 110728591.983 8  86282066.64946  21070958.219                    21070963.871
        50.100          37.300
 125716074.181 5                  23922938.023
        35.500
 119894622.527 7  93424391.25944  22815188.563                    22815189.375
        45.200          28.600
 18  3 11 13 18 45.0000000  0 17G10R06G15R05R13R14R15R22R23G17G11G32
                                G28G01G24G12G19
 120981482.309 7  94271365.37245  23022023.133                    23022028.551
        45.500          31.900
                  88916359.245 5  21423709.828                    21423711.531
                        35.600
 129406549.966 6 100836308.73843  24625251.297                    24625255.539
        41.400          19.600
                  86544658.605 5  20815672.773                    20815673.770
                        34.600
                  88720312.037 5  21361454.633                    21361453.637
                        35.100
                  80849397.795 6  19500610.805                    19500612.844
                        40.400
                  88023275.075 6  21178737.578                    21178742.324
                        37.200
                  87197108.431 6  21002087.203                    21002088.902
                        40.400
                  87164973.579 6  20950166.375                    20950170.508
                        36.500
 117183399.809 7  91311746.06945  22299258.289                    22299261.602
        47.900          33.300
 120765240.114 7  94102737.52544  22980862.344                    22980864.145
        45.600          27.400
 123421390.504 6  96172386.41444  23486283.883                    23486290.691
        41.600          25.600
 124317193.856 7  96870544.14043  23656778.883                    23656780.430
        42.900          22.500
 118282898.958 7  92168493.69045  22508486.352                    22508492.504
        43.700          31.900
 110728650.400 8  86282112.17046  21070969.031                    21070975.055
        50.200          37.200
 125712494.846 6                  23922256.391
        36.200
 119891913.897 7  93422280.63545  22814672.367                    22814673.824
        44.700          30.000
 18  3 11 13 18 46.0000000  0 17G10R06G15R05R13R14R15R22R23G17G11G32
                                G28G01G24G12G19
 120983966.771 7  94273301.31645  23022495.867                    23022501.523
        45.500          31.900
                  88914518.256 6  21423265.898                    21423267.621
                        36.000
 129410708.493 6 100839549.15343  24626043.133                    24626046.668
        40.900          20.600
                  86546465.214 5  20816106.273                    20816108.152
                        34.900
                  88723428.480 5  21362204.617                    21362204.504
                        35.600
                  80849522.157 6  19500640.914                    19500643.188
                        40.400
                  88020853.754 6  21178156.266                    21178159.867
                        37.300
                  87199099.456 6  21002567.164                    21002568.199
                        40.400
                  87163172.014 6  20949733.539                    20949737.570
                        36.500
 117182278.049 8  91310871.98145  22299046.063                    22299048.707
        48.800          33.600
 120767256.264 7  94104308.56344  22981245.352                    22981247.891
        45.000          27.900
 123418926.477 7  96170466.40544  23485815.023                    23485821.652
        42.000          24.500
 124320606.857 7  96873203.61943  23657426.586                    23657429.121
        42.800          21.800
 118282962.418 7  92168543.13945  22508498.555                    22508505.074
        43.900          31.500
 110728709.519 8  86282158.23546  21070980.039                    21070986.613
        49.800          37.400
 125708915.742 5                  23921575.742
        35.900
 119889205.768 7  93420170.40744  22814157.125                    22814159.000
        44.500          29.000
 18  3 11 13 18 47.0000000  0 17G10R06G15R05R13R14R15R22R23G17G11G32
                                G28G01G24G12G19
 120986451.801 7  94275237.70045  23022969.047                    23022974.277
        45.800          31.700
                  88912677.864 6  21422822.461                    21422824.203
                        36.200
 129414867.189 6 100842789.69243  24626834.383                    24626838.188
        40.800          20.600
                  86548272.509 5  20816542.969                    20816542.926
                        34.900
                  88726545.333 5  21362953.266                    21362954.680
                        35.500
                  80849647.216 6  19500671.258                    19500673.176
                        40.400
                  88018432.852 6  21177573.547                    21177576.938
                        36.900
                  87201091.130 6  21003046.344                    21003048.285
                        40.500
                  87161371.118 6  20949301.531                    20949305.059
                        36.400
 117181156.896 7  91309998.34845  22298831.656                    22298835.242
        47.600          33.300
 120769273.103 7  94105880.15144  22981628.391                    22981631.855
        44.200          27.100
 123416462.925 7  96168546.76244  23485346.688                    23485352.563
        42.500          24.600
 124324020.142 7  96875863.32243  23658075.727                    23658079.543
        42.500          22.300
 118283026.697 7  92168593.23245  22508511.125                    22508517.629
        44.300          31.500
 110728769.373 8  86282204.87346  21070991.625                    21070997.516
        49.600          37.300
 125705336.917 6                  23920894.961
        36.000
 119886498.136 7  93418060.57245  22813642.117                    22813643.336
        44.700          30.300
 18  3 11 13 18 48.0000000  0 17G10R06G15R05R13R14R15R22R23G17G11G32
                                G28G01G24G12G19
 120988937.402 7  94277174.54445  23023441.781                    23023447.438
        45.200          32.400
                  88910838.016 5  21422380.945                    21422381.168
                        35.800
 129419026.040 6 100846030.34843  24627625.594                    24627629.449
        41.100          20.100
                  86550080.437 5  20816976.227                    20816977.629
                        34.700
                  88729662.536 5  21363704.508                    21363705.180
                        35.600
                  80849772.910 6  19500700.789                    19500703.871
                        40.400
                  88016012.321 6  21176991.125                    21176994.469
                        37.500
                  87203083.429 6  21003526.102                    21003528.020
                        40.200
                  87159570.789 6  20948867.828                    20948872.098
                        36.800
 117180036.286 7  91309125.14245  22298617.797                    22298621.520
        47.400          33.400
 120771290.623 7  94107452.26144  22982011.852                    22982015.219
        43.900          27.200
 123413999.810 7  96166627.45444  23484877.711                    23484883.313
        42.900          25.400
 124327433.684 7  96878523.23043  23658727.508                    23658729.195
        42.700          22.600
 118283091.658 7  92168643.85445  22508523.484                    22508529.688
        43.800          31.600
 110728829.861 8  86282252.01046  21071003.297                    21071009.273
        49.200          37.500
 125701758.247 5                  23920213.977
        35.800
 119883790.995 7  93415951.11744  22813127.242                    22813128.250
        45.000          29.700
 18  3 11 13 18 49.0000000  0 17G10R06G15R05R13R14R15R22R23G17G11G32
                                G28G01G24G12G19
 120991423.557 7  94279111.81045  23023914.023                    23023920.785
        44.100          32.700
                  88908998.689 5  21421937.367                    21421938.215
                        35.800
 129423185.023 6 100849271.13843  24628417.250                    24628420.906
        41.400          19.900
                  86551889.042 5  20817410.016                    20817413.043
                        35.000
                  88732780.088 6  21364455.234                    21364456.063
                        36.000
                  80849899.251 6  19500731.922                    19500733.828
                        40.300
                  88013592.171 6  21176408.516                    21176412.746
                        37.100
                  87205076.361 6  21004006.266                    21004008.320
                        40.400
                  87157771.057 6  20948435.641                    20948439.441
                        36.400
 117178916.271 8  91308252.41445  22298406.156                    22298408.387
        48.400          33.200
 120773308.813 7  94109024.87644  22982395.352                    22982399.625
        42.600          27.500
 123411537.123 7  96164708.47044  23484410.391                    23484414.695
        43.300          26.000
 124330847.438 7  96881183.28343  23659376.516                    23659378.465
        43.100          22.600
 118283157.347 7  92168695.04345  22508535.680                    22508541.953
        43.900          31.200
 110728891.015 8  86282299.66446  21071014.711                    21071020.512
        49.100          37.000
 125698179.796 5                  23919533.031
        35.500
 119881084.321 7  93413842.02145  22812611.719                    22812613.488
        45.400          30.000
