     2.11           OBSERVATION DATA    M (MIXED)           RINEX VERSION / TYPE
teqc  2018Mar15                         20180319 14:17:32UTCPGM / RUN BY / DATE
Linux 2.6.32-573.12.1.x86_64|x86_64|gcc -static|Linux 64|=+ COMMENT
END OF STATIC MODE OBSERVATION                              COMMENT
BIT 2 OF LLI FLAGS DATA COLLECTED UNDER A/S CONDITION       COMMENT
-Unknown-                                                   MARKER NAME
4625                                                        MARKER NUMBER
-Unknown-           -Unknown-                               OBSERVER / AGENCY
5127468778          TRIMBLE             4.63                REC # / TYPE / VERS
47477114                            NONE                    ANT # / TYPE
  2987588.5862        0.0000  5616259.1068                  APPROX POSITION XYZ
        0.0000        0.0000        0.0000                  ANTENNA: DELTA H/E/N
     1     1                                                WAVELENGTH FACT L1/2
     7    L1    L2    C1    P1    P2    S1    S2            # / TYPES OF OBSERV
    18                                                      LEAP SECONDS
 SNR is mapped to RINEX snr flag value [0-9]                COMMENT
  L1 & L2: min(max(int(snr_dBHz/6), 0), 9)                  COMMENT
  2018     3    11    11    29    1.0000000     GPS         TIME OF FIRST OBS
                                                            END OF HEADER
 18  3 11 11 29  1.0000000  0 17G11R21R04R13R14G20R22R03G24G28R05G30
                                R12G10G08G15G13
 124618981.714 7  97105847.51843  23714235.672                    23714238.238
        42.700          23.200
                  85626518.815 7  20573181.883                    20573182.309
                        42.600
                  82491347.301 7  19806016.500                    19806016.898
                        43.300
                  80998002.868 6  19502131.672                    19502132.473
                        41.000
                  93336207.201 6  22512387.859                    22512390.543
                        41.200
 123828308.036 7  96489645.49343  23563754.211                    23563755.746
        44.500          19.000
                  90634774.572 7  21830077.016                    21830078.566
                        42.600
                  91305550.209 7  21929973.063                    21929974.215
                        42.300
 124493151.963 7  97007688.26445  23690261.242                    23690267.996
        43.200          30.000
 112387058.613 8  87574376.94445  21386555.398                    21386557.910
        48.200          35.200
                  90895496.146 5  21862136.945                    21862139.137
                        34.100
 122872081.999 7  95744497.46945  23381781.094                    23381786.566
        45.400          31.900
                                  21006944.352

 120483907.072 7  93883597.68145  22927325.781                    22927331.555
        43.000          32.400
 119584103.754 7  93182437.12345  22756098.500                    22756104.957
        45.600          33.400
 111741622.816 8  87071409.06546  21263725.008                    21263727.324
        52.100          38.100
 113440745.449 8  88395395.25546  21587056.883                    21587059.117
        49.700          36.200
 18  3 11 11 29  2.0000000  0 17G11R21R04R13R14G20R22R03G24G28R05G30
                                R12G10G08G15G13
 124616440.505 7  97103867.36043  23713751.992                    23713754.184
        42.600          22.800
                  85627294.839 7  20573367.359                    20573368.914
                        42.600
                  82491807.333 7  19806127.531                    19806127.793
                        43.300
                  80997222.863 6  19501944.211                    19501945.133
                        40.900
                  93333132.761 6  22511646.430                    22511649.438
                        40.700
 123831944.230 7  96492478.98543  23564445.969                    23564447.242
        44.800          19.900
                  90632272.955 7  21829474.141                    21829475.828
                        42.600
                  91308979.909 7  21930797.086                    21930798.594
                        42.800
 124489821.928 7  97005093.43844  23689627.602                    23689633.934
        42.900          29.900
 112387289.995 8  87574557.23845  21386599.125                    21386601.918
        48.500          35.500
                  90892982.012 5  21861531.977                    21861534.770
                        34.200
 122875888.063 7  95747463.23445  23382504.844                    23382510.492
        45.800          31.700
                                  21007653.469

 120482004.923 7  93882115.49145  22926963.992                    22926969.684
        43.700          32.900
 119586335.010 7  93184175.77045  22756523.563                    22756529.309
        45.800          33.500
 111742631.540 8  87072195.08446  21263916.438                    21263919.723
        52.100          37.900
 113443374.458 8  88397443.84946  21587556.250                    21587559.438
        49.400          36.300
 18  3 11 11 29  3.0000000  0 17G11R21R04R13R14G20R22R03G24G28R05G30
                                R12G10G08G15G13
 124613899.800 7  97101887.61644  23713268.422                    23713270.645
        43.300          24.600
                  85628071.651 7  20573554.055                    20573555.270
                        42.300
                  82492268.105 7  19806237.898                    19806238.121
                        43.500
                  80996443.518 6  19501756.016                    19501756.785
                        41.300
                  93330058.513 6  22510904.250                    22510907.168
                        39.800
 123835580.783 7  96495312.71243  23565137.938                    23565139.176
        44.700          21.800
                  90629771.832 7  21828870.922                    21828874.211
                        42.400
                  91312409.963 7  21931620.867                    21931622.438
                        42.900
 124486492.164 7  97002498.81944  23688993.852                    23689000.449
        43.000          29.900
 112387522.019 8  87574738.03345  21386644.078                    21386646.027
        48.400          35.800
                  90890468.296 5  21860927.859                    21860930.113
                        33.800
 122879694.399 7  95750429.22345  23383228.969                    23383235.293
        45.500          30.800
                                  21008364.305

 120480103.356 7  93880633.76345  22926602.117                    22926608.004
        43.600          33.600
 119588566.872 7  93185914.89545  22756947.484                    22756953.934
        46.000          33.400
 111743640.986 8  87072981.66246  21264108.797                    21264111.594
        52.600          38.300
 113446004.078 8  88399492.91446  21588056.141                    21588060.000
        49.100          36.000
 18  3 11 11 29  4.0000000  0 17G11R21R04R13R14G20R22R03G24G28R05G30
                                R12G10G08G15G13
 124611359.548 7  97099908.21244  23712785.867                    23712787.352
        44.000          24.400
                  85628849.180 7  20573741.063                    20573741.785
                        42.600
                  82492729.604 7  19806348.414                    19806349.051
                        43.100
                  80995664.780 6  19501568.180                    19501569.723
                        41.000
                  93326984.445 6  22510162.281                    22510163.746
                        38.900
 123839217.655 7  96498146.64944  23565829.734                    23565830.980
        44.700          24.200
                  90627271.161 7  21828270.086                    21828270.930
                        42.100
                  91315840.335 7  21932445.117                    21932446.125
                        43.200
 124483162.625 7  96999904.37744  23688360.563                    23688366.910
        43.400          29.100
 112387754.600 8  87574919.27145  21386688.086                    21386690.090
        48.200          35.200
                  90887954.989 5  21860323.602                    21860324.898
                        34.200
 122883501.071 7  95753395.47045  23383951.492                    23383959.273
        42.600          30.700
                                  21009071.758

 120478202.299 7  93879152.42845  22926240.266                    22926247.027
        43.700          33.600
 119590799.310 7  93187654.46545  22757371.813                    22757378.684
        46.200          33.300
 111744651.089 8  87073768.75446  21264301.039                    21264304.145
        52.900          38.400
 113448634.257 8  88401542.40146  21588556.641                    21588560.313
        48.800          36.100
 18  3 11 11 29  5.0000000  0 17G11R21R04R13R14G20R22R03G24G28R05G30
                                R12G10G08G15G13
 124608819.826 7  97097929.20644  23712303.305                    23712303.961
        45.100          24.000
                  85629627.497 7  20573927.984                    20573929.227
                        42.400
                  82493191.865 7  19806460.086                    19806460.332
                        43.000
                  80994886.741 6  19501380.469                    19501381.449
                        41.100
                  93323910.631 6  22509419.391                    22509422.543
                        38.300
 123842854.912 7  96500980.86844  23566521.656                    23566523.359
        43.900          24.700
                  90624771.004 7  21827668.844                    21827668.574
                        42.400
                  91319271.088 7  21933268.734                    21933269.984
                        43.000
 124479833.357 7  96997310.13944  23687726.586                    23687732.977
        43.100          29.000
 112387987.837 8  87575101.01245  21386732.023                    21386734.516
        48.000          35.400
                  90885442.130 5  21859718.523                    21859720.910
                        33.200
 122887308.041 7  95756361.92145  23384677.594                    23384683.570
        44.100          31.200
                                  21009781.828

 120476301.842 7  93877671.55445  22925878.711                    22925885.246
        43.600          33.600
 119593032.416 7  93189394.56645  22757796.820                    22757802.883
        46.000          33.700
 111745661.928 8  87074556.42646  21264493.383                    21264496.039
        52.500          38.700
 113451265.021 8  88403592.34246  21589057.875                    21589060.828
        49.100          36.100
 18  3 11 11 29  6.0000000  0 17G11R21R04R13R14G20R22R03G24G28R05G30
                                R12G10G08G15G13
 124606280.633 7  97095950.59543  23711819.266                    23711820.629
        44.900          23.800
                  85630406.604 7  20574115.797                    20574116.031
                        42.300
                  82493654.899 7  19806570.648                    19806570.746
                        43.300
                  80994109.366 6  19501194.133                    19501195.332
                        41.100
                  93320837.051 6  22508677.758                    22508680.246
                        38.200
 123846492.533 7  96503815.36544  23567213.336                    23567216.098
        43.600          26.900
                  90622271.316 7  21827066.148                    21827067.277
                        42.300
                  91322702.197 7  21934093.383                    21934094.297
                        42.600
 124476504.369 7  96994716.12144  23687093.234                    23687099.242
        42.900          28.800
 112388221.700 8  87575283.24345  21386776.586                    21386779.098
        48.200          35.700
                  90882929.711 5  21859114.164                    21859115.953
                        31.900
 122891115.305 7  95759328.60045  23385402.773                    23385407.824
        45.300          31.000
                                  21010490.867

 120474401.961 7  93876191.13045  22925517.328                    22925524.047
        44.200          34.300
 119595266.160 7  93191135.15645  22758221.797                    22758228.086
        46.500          33.700
 111746673.505 8  87075344.67346  21264685.656                    21264688.664
        52.600          38.300
 113453896.415 8  88405642.77046  21589558.570                    21589561.313
        49.300          36.500
 18  3 11 11 29  7.0000000  0 17G11R21R04R13R14G20R22R03G24G28R05G30
                                R12G10G08G15G13
 124603741.883 7  97093972.31844  23711336.273                    23711337.816
        44.600          25.100
                  85631186.427 7  20574302.984                    20574303.926
                        42.100
                  82494118.669 7  19806682.070                    19806682.246
                        43.400
                  80993332.645 6  19501007.172                    19501007.820
                        40.900
                  93317763.677 6  22507936.914                    22507938.934
                        37.800
 123850130.493 7  96506650.12444  23567905.117                    23567908.457
        42.700          25.600
                  90619772.064 7  21826462.422                    21826465.129
                        42.100
                  91326133.607 7  21934917.273                    21934918.105
                        42.600
 124473175.652 7  96992122.30444  23686460.031                    23686465.672
        43.200          28.600
 112388456.158 7  87575465.93645  21386821.359                    21386823.895
        47.800          34.900
                  90880417.694 5  21858510.953                    21858512.629
                        32.800
 122894922.803 7  95762295.47945  23386127.297                    23386132.953
        45.800          31.300
                                  21011201.570

 120472502.650 7  93874711.14945  22925156.328                    22925163.039
        44.400          34.800
 119597500.473 7  93192876.18545  22758646.789                    22758653.039
        46.700          33.400
 111747685.768 8  87076133.45646  21264878.266                    21264881.090
        52.300          38.500
 113456528.351 8  88407693.62846  21590059.477                    21590062.602
        48.700          36.300
 18  3 11 11 29  8.0000000  0 17G11R21R04R13R14G20R22R03G24G28R05G30
                                R12G10G08G15G13
 124601203.568 7  97091994.38544  23710853.172                    23710854.594
        44.200          24.700
                  85631966.965 7  20574490.469                    20574491.281
                        42.000
                  82494583.096 7  19806793.172                    19806793.742
                        43.100
                  80992556.519 6  19500820.648                    19500821.047
                        41.100
                  93314690.474 6  22507196.008                    22507198.352
                        38.900
 123853768.745 7  96509485.09544  23568596.945                    23568600.949
        42.000          26.000
                  90617273.235 7  21825860.086                    21825863.395
                        42.100
                  91329565.336 7  21935740.633                    21935742.520
                        42.300
 124469847.093 7  96989528.61044  23685827.023                    23685832.121
        42.900          28.600
 112388691.169 7  87575649.06245  21386866.102                    21386868.543
        47.700          34.800
                  90877906.050 5  21857907.055                    21857907.969
                        32.400
 122898730.589 7  95765262.59045  23386850.352                    23386857.836
        44.700          31.200
                                  21011911.313

 120470603.845 7  93873231.56845  22924794.508                    22924802.008
        44.900          34.900
 119599735.335 7  93194617.64945  22759072.266                    22759078.617
        46.700          33.100
 111748698.686 8  87076922.73846  21265070.773                    21265074.227
        51.900          38.400
 113459160.816 8  88409744.89746  21590560.164                    21590563.461
        49.000          36.500
 18  3 11 11 29  9.0000000  0 17G11R21R04R13R14G20R22R03G24G28R05G30
                                R12G10G08G15G13
 124598665.776 7  97090016.89244  23710370.078                    23710372.117
        43.700          25.800
                  85632748.323 7  20574677.211                    20574679.051
                        42.100
                  82495048.297 7  19806905.219                    19806905.430
                        43.100
                  80991781.058 6  19500633.586                    19500634.359
                        40.800
                  93311617.534 6  22506456.180                    22506457.148
                        39.300
 123857407.417 6  96512320.40044  23569288.313                    23569293.480
        40.900          26.500
                  90614774.965 7  21825260.922                    21825261.785
                        42.200
                  91332997.412 7  21936565.047                    21936567.285
                        42.100
 124466518.831 7  96986935.15144  23685193.203                    23685198.621
        42.400          29.000
 112388926.858 8  87575832.71545  21386910.828                    21386913.195
        48.000          35.700
                  90875394.866 5  21857302.719                    21857303.582
                        32.200
 122902538.690 7  95768229.94545  23387575.695                    23387582.152
        45.200          30.600
                                  21012620.531

 120468705.633 7  93871752.44545  22924433.469                    22924440.848
        45.000          35.200
 119601970.854 7  93196359.61845  22759497.063                    22759504.023
        46.200          33.500
 111749712.356 8  87077712.61646  21265263.531                    21265266.906
        51.300          38.300
 113461793.938 8  88411796.68046  21591061.531                    21591064.418
        49.100          36.200
 18  3 11 11 29 10.0000000  0 17G11R21R04R13R14G20R22R03G24G28R05G30
                                R12G10G08G15G13
 124596128.486 7  97088039.78144  23709887.117                    23709888.773
        43.300          24.500
                  85633530.433 7  20574866.094                    20574867.027
                        42.200
                  82495514.214 7  19807016.852                    19807017.285
                        43.200
                  80991006.259 6  19500446.578                    19500448.117
                        40.800
                  93308544.830 6  22505715.867                    22505717.219
                        40.200
 123861046.450 6  96515155.98244  23569980.789                    23569986.332
        40.100          25.900
                  90612277.148 7  21824658.758                    21824660.383
                        42.100
                  91336429.826 7  21937389.336                    21937390.855
                        42.100
 124463190.845 7  96984341.92344  23684559.914                    23684565.285
        42.500          29.600
 112389163.143 7  87576016.83145  21386955.516                    21386958.563
        47.800          35.500
                  90872884.103 5  21856698.258                    21856699.066
                        31.900
 122906347.095 7  95771197.53745  23388299.992                    23388306.961
        44.600          31.800
                                  21013331.242

 120466808.000 7  93870273.77345  22924072.797                    22924079.891
        45.300          34.900
 119604206.995 7  93198102.07145  22759922.523                    22759929.539
        45.600          32.800
 111750726.727 8  87078503.03046  21265456.617                    21265460.098
        51.200          38.500
 113464427.610 8  88413848.88846  21591563.484                    21591565.324
        49.600          36.100
 18  3 11 11 29 11.0000000  0 17G11R21R04R13R14G20R22R03G24G28R05G30
                                R12G10G08G15G13
 124593591.707 7  97086063.07444  23709404.172                    23709406.332
        43.000          25.400
                  85634313.280 7  20575053.305                    20575055.023
                        42.100
                  82495980.891 7  19807129.000                    19807129.441
                        43.100
                  80990232.139 6  19500260.984                    19500261.832
                        40.600
                  93305472.353 6  22504975.250                    22504976.621
                        40.900
 123864685.814 6  96517991.82044  23570673.406                    23570679.066
        39.800          24.500
                  90609779.793 7  21824056.297                    21824058.695
                        42.100
                  91339862.612 7  21938213.906                    21938215.676
                        42.300
 124459863.119 7  96981748.89244  23683926.734                    23683932.098
        42.300          29.800
 112389400.060 7  87576201.43945  21387000.688                    21387003.516
        47.700          35.800
                  90870373.760 5  21856092.891                    21856095.578
                        31.800
 122910155.829 7  95774165.38145  23389025.563                    23389031.609
        44.700          31.400
                                  21014041.484

 120464910.934 7  93868795.54545  22923711.742                    22923718.883
        45.800          35.200
 119606443.770 7  93199845.01445  22760348.461                    22760355.020
        45.200          32.500
 111751741.813 8  87079294.00446  21265650.281                    21265653.438
        51.900          38.100
 113467061.872 8  88415901.55846  21592064.602                    21592066.695
        50.100          36.300
 18  3 11 11 29 12.0000000  0 17G11R21R04R13R14G20R22R03G24G28R05G30
                                R12G10G08G15G13
 124591055.424 7  97084086.76244  23708921.688                    23708923.695
        42.600          24.700
                  85635096.873 7  20575241.742                    20575242.832
                        42.300
                  82496448.298 7  19807241.328                    19807242.160
                        43.000
                  80989458.659 6  19500074.172                    19500074.609
                        40.600
                  93302400.104 6  22504234.695                    22504236.188
                        41.600
 123868325.563 6  96520827.94644  23571366.500                    23571371.824
        39.900          25.900
                  90607282.923 7  21823455.422                    21823457.746
                        42.200
                  91343295.729 7  21939038.094                    21939039.703
                        42.500
 124456535.662 7  96979156.07045  23683293.398                    23683299.445
        42.700          30.000
 112389637.582 7  87576386.52445  21387045.938                    21387048.289
        47.500          35.300
                  90867863.876 5  21855489.742                    21855491.629
                        33.100
 122913964.804 7  95777133.40445  23389750.953                    23389756.730
        45.400          31.200
                                  21014751.758

 120463014.443 7  93867317.76345  22923350.938                    22923357.746
        45.500          34.600
 119608681.162 7  93201588.43845  22760773.844                    22760780.879
        45.200          32.700
 111752757.630 8  87080085.54446  21265843.461                    21265846.031
        51.900          38.100
 113469696.697 8  88417954.68146  21592565.570                    21592568.336
        50.000          36.300
 18  3 11 11 29 13.0000000  0 17G11R21R04R13R14G20R22R03G24G28R05G30
                                R12G10G08G15G13
 124588519.482 7  97082110.70244  23708438.922                    23708441.492
        42.200          24.500
                  85635881.196 6  20575429.828                    20575431.754
                        41.900
                  82496916.383 7  19807353.641                    19807354.070
                        42.500
                  80988685.776 6  19499887.969                    19499889.676
                        40.000
                  93299328.003 6  22503493.398                    22503495.594
                        41.400
 123871965.535 6  96523664.26244  23572059.266                    23572064.355
        40.700          25.100
                  90604786.409 7  21822851.953                    21822856.027
                        42.300
                  91346729.141 6  21939863.430                    21939865.477
                        41.900
 124453208.388 7  96976563.39644  23682660.641                    23682666.043
        42.700          29.800
 112389875.632 7  87576572.01945  21387091.492                    21387094.055
        47.800          35.200
                  90865354.360 5  21854886.852                    21854888.070
                        32.500
 122917773.981 7  95780101.59145  23390475.922                    23390481.566
        45.400          30.100
                                  21015461.375

 120461118.412 7  93865840.33845  22922990.023                    22922996.887
        45.500          34.900
 119610919.051 7  93203332.25545  22761199.758                    22761206.426
        44.700          32.600
 111753774.050 8  87080877.56146  21266037.000                    21266039.898
        52.200          37.500
 113472332.046 8  88420008.20745  21593066.391                    21593069.551
        49.500          35.800
 18  3 11 11 29 14.0000000  0 17G11R21R04R13R14G20R22R03G24G28R05G30
                                R12G10G08G15G13
 124585984.007 7  97080135.01244  23707956.867                    23707959.324
        42.300          25.200
                  85636666.264 6  20575619.375                    20575620.254
                        41.900
                  82497385.190 7  19807466.180                    19807466.863
                        42.500
                  80987913.511 6  19499701.961                    19499703.215
                        40.400
                  93296256.084 6  22502752.969                    22502755.375
                        41.800
 123875605.820 6  96526500.81544  23572752.914                    23572757.262
        41.600          25.300
                  90602290.404 7  21822253.141                    21822254.160
                        42.400
                  91350162.879 6  21940688.109                    21940689.602
                        41.800
 124449881.340 7  96973970.89544  23682027.508                    23682033.285
        43.000          29.800
 112390114.277 7  87576757.97545  21387136.672                    21387139.215
        47.900          34.900
                  90862845.256 5  21854283.469                    21854285.574
                        33.700
 122921583.447 7  95783070.01745  23391199.914                    23391206.195
        44.800          30.700
                                  21016172.609

 120459222.928 7  93864363.33845  22922629.367                    22922636.180
        45.100          34.100
 119613157.563 7  93205076.55145  22761626.219                    22761632.391
        44.600          31.500
 111754791.147 8  87081670.10546  21266230.633                    21266233.770
        52.300          37.400
 113474967.938 8  88422062.15645  21593567.695                    21593571.313
        49.300          35.300
 18  3 11 11 29 15.0000000  0 17G11R21R04R13R14G20R22R03G24G28R05G30
                                R12G10G08G15G13
 124583449.116 7  97078159.79444  23707474.445                    23707477.020
        43.200          24.700
                  85637452.151 6  20575808.297                    20575809.559
                        41.700
                  82497854.795 7  19807579.125                    19807579.855
                        42.400
                  80987141.984 6  19499516.680                    19499517.254
                        40.200
                  93293184.461 7  22502011.320                    22502014.887
                        42.100
 123879246.530 7  96529337.70444  23573446.375                    23573450.582
        42.500          25.400
                  90599794.950 7  21821652.430                    21821653.328
                        42.400
                  91353597.010 7  21941513.344                    21941515.125
                        42.100
 124446554.628 7  96971378.65744  23681393.922                    23681400.000
        42.800          29.600
 112390353.595 8  87576944.46145  21387182.008                    21387184.434
        48.200          35.000
                  90860336.660 5  21853680.414                    21853682.277
                        33.900
 122925393.271 7  95786038.71445  23391924.867                    23391931.227
        45.100          31.200
                                  21016881.055

 120457328.074 7  93862886.82745  22922269.180                    22922275.477
        45.200          33.100
 119615396.765 7  93206821.39145  22762052.086                    22762058.313
        43.900          31.600
 111755809.036 8  87082463.27046  21266424.117                    21266427.148
        52.200          37.500
 113477604.517 8  88424116.62945  21594070.180                    21594073.051
        49.000          35.200
 18  3 11 11 29 16.0000000  0 17G11R21R04R13R14G20R22R03G24G28R05G30
                                R12G10G08G15G13
 124580914.681 7  97076184.91544  23706992.867                    23706994.270
        44.400          24.500
                  85638238.732 6  20575996.883                    20575998.246
                        41.700
                  82498325.093 7  19807691.586                    19807691.855
                        42.200
                  80986371.068 6  19499331.375                    19499331.594
                        40.400
                  93290113.041 7  22501270.188                    22501273.484
                        42.300
 123882887.574 7  96532174.86144  23574139.273                    23574143.457
        42.800          24.400
                  90597299.927 6  21821051.109                    21821052.055
                        41.900
                  91357031.458 6  21942337.281                    21942339.117
                        41.900
 124443228.121 7  96968786.58044  23680761.086                    23680766.938
        43.300          28.700
 112390593.500 8  87577131.40045  21387227.711                    21387230.301
        48.600          34.700
                  90857828.473 5  21853077.594                    21853079.633
                        34.500
 122929203.365 7  95789007.63245  23392648.859                    23392656.434
        43.800          30.000
                                  21017593.453

 120455433.752 7  93861410.72945  22921908.633                    22921914.820
        44.900          32.300
 119617636.523 7  93208566.65045  22762477.914                    22762484.641
        43.400          30.500
 111756827.587 8  87083256.94746  21266617.938                    21266620.633
        51.900          37.700
 113480241.595 8  88426171.48945  21594572.008                    21594574.750
        49.100          35.000
 18  3 11 11 29 17.0000000  0 17G11R21R04R13R14G20R22R03G24G28R05G30
                                R12G10G08G15G13
 124578380.845 7  97074210.50343  23706510.586                    23706512.727
        44.700          23.400
                  85639026.154 6  20576186.773                    20576187.852
                        41.900
                  82498796.241 7  19807804.969                    19807805.430
                        42.600
                  80985600.903 6  19499146.055                    19499145.789
                        40.500
                  93287041.917 7  22500528.914                    22500532.926
                        42.000
 123886529.008 7  96535012.34444  23574832.375                    23574836.176
        42.600          24.000
                  90594805.448 6  21820450.672                    21820451.828
                        41.300
                  91360466.305 6  21943162.813                    21943164.770
                        41.800
 124439901.990 7  96966194.79444  23680128.359                    23680134.184
        43.200          28.100
 112390834.091 8  87577318.86845  21387273.703                    21387275.844
        48.100          34.500
                  90855320.791 5  21852474.617                    21852476.926
                        34.600
 122933013.848 7  95791976.83244  23393374.156                    23393381.336
        43.500          29.900
                                  21018302.742

 120453540.087 7  93859935.14245  22921547.547                    22921553.930
        44.100          31.400
 119619877.030 7  93210312.49145  22762904.563                    22762910.953
        42.600          32.100
 111757846.920 8  87084051.23646  21266812.266                    21266815.090
        51.800          37.400
 113482879.351 8  88428226.87945  21595074.133                    21595077.223
        48.900          35.200
 18  3 11 11 29 18.0000000  0 17G11R21R04R13R14G20R22R03G24G28R05G30
                                R12G10G08G15G13
 124575847.500 7  97072236.46644  23706028.828                    23706030.906
        45.200          24.700
                  85639814.352 6  20576375.203                    20576377.180
                        41.800
                  82499268.131 7  19807918.359                    19807918.184
                        42.400
                  80984831.360 6  19498960.430                    19498961.137
                        40.500
                  93283971.003 6  22499787.484                    22499791.887
                        41.400
 123890170.771 7  96537850.08243  23575525.539                    23575529.246
        43.000          22.800
                  90592311.380 6  21819848.078                    21819851.102
                        41.900
                  91363901.477 7  21943987.516                    21943990.129
                        42.100
 124436576.108 7  96963603.20544  23679495.109                    23679501.332
        42.700          28.200
 112391075.300 7  87577506.81545  21387319.664                    21387322.098
        47.800          34.900
                  90852813.557 5  21851871.445                    21851874.070
                        34.600
 122936824.587 7  95794946.21545  23394100.469                    23394106.273
        45.200          30.200
                                  21019013.867

 120451646.955 7  93858459.97345  22921187.406                    22921193.566
        43.200          31.300
 119622118.099 6  93212058.76745  22763331.375                    22763337.398
        41.800          32.100
 111758866.961 8  87084846.07046  21267005.703                    21267008.574
        51.900          37.500
 113485517.680 8  88430282.72245  21595575.602                    21595578.789
        48.500          35.700
 18  3 11 11 29 19.0000000  0 17G11R21R04R13R14G20R22R03G24G28R05G30
                                R12G10G08G15G13
 124573314.632 7  97070262.77244  23705546.289                    23705548.910
        44.600          25.100
                  85640603.286 6  20576565.188                    20576566.953
                        41.900
                  82499740.762 7  19808032.078                    19808032.320
                        42.300
                  80984062.482 6  19498775.180                    19498775.996
                        40.700
                  93280900.299 6  22499045.523                    22499050.141
                        41.000
 123893812.911 7  96540688.12643  23576218.461                    23576222.773
        43.000          22.200
                  90589817.861 6  21819248.414                    21819250.004
                        41.800
                  91367336.992 7  21944812.352                    21944814.793
                        42.000
 124433250.488 7  96961011.81044  23678862.477                    23678868.215
        42.700          27.900
 112391317.121 8  87577695.24445  21387365.555                    21387368.082
        48.200          34.500
                  90850306.728 5  21851269.781                    21851270.961
                        34.300
 122940635.617 7  95797915.82845  23394826.188                    23394831.445
        46.500          31.500
                                  21019725.492

 120449754.416 7  93856985.27045  22920826.742                    22920833.004
        42.900          30.700
 119624359.803 7  93213805.52945  22763758.383                    22763764.090
        42.700          32.400
 111759887.724 8  87085641.47646  21267199.844                    21267202.922
        51.400          37.300
 113488156.626 8  88432339.03445  21596077.945                    21596081.230
        48.500          35.400
 18  3 11 11 29 20.0000000  0 17G11R21R04R13R14G20R22R03G24G28R05G30
                                R12G10G08G15G13
 124570782.274 7  97068289.49144  23705063.656                    23705066.930
        43.100          24.600
                  85641393.004 7  20576754.711                    20576756.426
                        42.000
                  82500214.158 7  19808145.555                    19808145.789
                        42.100
                  80983294.264 6  19498590.492                    19498590.863
                        40.200
                  93277829.853 6  22498304.258                    22498309.863
                        40.400
 123897455.424 7  96543526.46043  23576911.148                    23576915.695
        42.800          20.600
                  90587324.838 6  21818647.914                    21818649.824
                        41.600
                  91370772.861 6  21945637.992                    21945639.984
                        41.600
 124429925.173 7  96958420.64844  23678229.555                    23678235.434
        42.600          28.000
 112391559.590 8  87577884.18245  21387411.789                    21387414.078
        48.100          34.300
                  90847800.385 5  21850665.742                    21850668.461
                        34.200
 122944446.931 7  95800885.69944  23395551.406                    23395557.465
        46.300          28.800
                                  21020435.773

 120447862.451 7  93855511.01744  22920466.211                    22920472.578
        42.500          29.600
 119626602.127 7  93215552.78045  22764185.797                    22764190.727
        43.600          32.400
 111760909.211 8  87086437.43546  21267394.695                    21267397.578
        51.700          37.100
 113490796.162 8  88434395.81045  21596581.086                    21596583.102
        49.200          35.700
 18  3 11 11 29 21.0000000  0 17G11R21R04R13R14G20R22R03G24G28R05G30
                                R12G10G08G15G13
 124568250.383 7  97066316.59144  23704581.617                    23704585.215
        42.000          24.700
                  85642183.466 6  20576944.406                    20576945.859
                        41.900
                  82500688.241 7  19808258.906                    19808259.762
                        42.400
                  80982526.700 6  19498405.086                    19498406.355
                        40.400
                  93274759.563 6  22497563.930                    22497569.137
                        39.100
 123901098.298 6  96546365.10143  23577604.313                    23577608.516
        41.800          18.600
                  90584832.273 6  21818049.305                    21818048.945
                        41.500
                  91374209.030 6  21946462.711                    21946465.637
                        41.800
 124426600.070 6  96955829.65244  23677596.297                    23677602.254
        41.900          27.400
 112391802.632 8  87578073.56545  21387457.961                    21387460.566
        48.200          34.700
                  90845294.419 5  21850063.289                    21850065.871
                        33.700
 122948258.583 7  95803855.83944  23396275.102                    23396282.355
        44.300          29.500
                                  21021147.039

 120445971.019 6  93854037.17544  22920106.172                    22920112.695
        41.800          29.600
 119628845.030 7  93217300.48845  22764612.859                    22764617.469
        44.500          32.600
 111761931.382 8  87087233.93646  21267588.938                    21267592.094
        51.700          37.300
 113493436.240 8  88436453.01545  21597083.602                    21597086.063
        49.600          35.900
 18  3 11 11 29 22.0000000  0 17G11R21R04R13R14G20R22R03G24G28R05G30
                                R12G10G08G15G13
 124565718.920 6  97064344.02644  23704099.844                    23704103.379
        41.700          24.100
                  85642974.666 7  20577134.367                    20577136.141
                        42.300
                  82501163.024 7  19808373.688                    19808373.559
                        42.100
                  80981759.765 6  19498220.656                    19498221.926
                        40.400
                  93271689.521 6  22496824.008                    22496827.309
                        38.200
 123904741.433 6  96549203.97543  23578297.172                    23578301.922
        41.500          18.300
                  90582340.149 6  21817448.375                    21817449.340
                        41.600
                  91377645.556 6  21947288.680                    21947290.941
                        41.800
 124423275.235 6  96953238.87144  23676964.117                    23676969.527
        41.700          28.400
 112392046.271 8  87578263.41145  21387504.367                    21387506.707
        48.200          34.900
                  90842788.846 5  21849460.188                    21849462.848
                        33.600
 122952070.481 7  95806826.15745  23397001.148                    23397007.645
        44.900          30.200
                                  21021858.906

 120444080.119 6  93852563.74244  22919746.500                    22919752.504
        41.800          29.500
 119631088.530 7  93219048.66945  22765039.867                    22765045.152
        44.900          32.400
 111762954.262 8  87088030.98046  21267783.750                    21267786.641
        51.600          37.800
 113496076.881 8  88438510.66246  21597586.078                    21597588.531
        50.100          36.000
 18  3 11 11 29 23.0000000  0 17G11R21R04R13R14G20R22R03G24G28R05G30
                                R12G10G08G15G13
 124563187.989 7  97062371.89444  23703618.469                    23703621.863
        42.600          24.000
                  85643766.647 7  20577324.852                    20577326.227
                        42.200
                  82501638.538 6  19808487.734                    19808487.969
                        41.900
                  80980993.503 6  19498034.977                    19498037.164
                        40.300
                  93268619.669 6  22496085.250                    22496086.230
                        37.700
 123908384.959 6  96552043.15142  23578990.523                    23578994.516
        41.100          17.400
                  90579848.458 6  21816845.594                    21816848.938
                        41.800
                  91381082.413 6  21948114.930                    21948116.465
                        41.800
 124419950.673 7  96950648.30344  23676331.875                    23676337.043
        42.300          28.500
 112392290.557 8  87578453.76445  21387550.984                    21387553.367
        48.200          34.800
                  90840283.706 5  21848857.734                    21848859.918
                        33.100
 122955882.695 7  95809796.69444  23397726.672                    23397732.918
        44.900          29.900
                                  21022570.148

 120442189.798 6  93851090.76644  22919386.180                    22919392.371
        40.500          28.900
 119633332.655 7  93220797.34445  22765466.969                    22765471.828
        45.300          32.600
 111763977.827 8  87088828.55746  21267978.805                    21267981.512
        51.900          37.900
 113498718.109 8  88440568.77145  21598088.250                    21598091.602
        49.900          35.600
 18  3 11 11 29 24.0000000  0 17G11R21R04R13R14G20R22R03G24G28R05G30
                                R12G10G08G15G13
 124560657.547 7  97060400.14544  23703137.508                    23703140.484
        43.300          24.300
                  85644559.382 7  20577515.320                    20577516.727
                        42.400
                  82502114.796 6  19808601.664                    19808601.418
                        41.900
                  80980227.899 6  19497852.102                    19497852.887
                        40.500
                  93265550.045 6  22495345.266                    22495345.168
                        37.400
 123912028.860 6  96554882.62242  23579682.250                    23579687.453
        40.500          17.800
                  90577357.295 6  21816246.852                    21816249.070
                        41.500
                  91384519.632 7  21948940.320                    21948941.727
                        42.100
 124416626.356 7  96948057.92944  23675698.734                    23675704.305
        42.200          28.100
 112392535.423 8  87578644.56945  21387597.742                    21387599.953
        48.500          34.900
                  90837778.999 5  21848254.289                    21848257.445
                        32.200
 122959695.149 7  95812767.41545  23398453.711                    23398458.551
        47.000          30.200
                                  21023280.945

 120440300.025 6  93849618.21144  22919026.664                    22919032.594
        40.400          29.900
 119635577.369 7  93222546.47045  22765893.375                    22765899.039
        46.100          32.600
 111765002.115 8  87089626.70446  21268173.984                    21268176.316
        52.300          37.300
 113501359.931 8  88442627.34045  21598590.719                    21598594.188
        49.400          35.700
 18  3 11 11 29 25.0000000  0 17G11R21R04R13R14G20R22R03G24G28R05G30
                                R12G10G08G15G13
 124558127.630 7  97058428.78244  23702656.414                    23702659.172
        43.900          25.900
                  85645352.861 7  20577705.844                    20577707.492
                        42.100
                  82502591.799 7  19808716.609                    19808716.648
                        42.300
                  80979462.922 6  19497667.672                    19497668.359
                        40.100
                  93262480.627 6  22494605.383                    22494604.719
                        38.100
 123915673.137 6  96557722.35143  23580376.508                    23580380.879
        39.900          18.600
                  90574866.576 6  21815646.445                    21815648.699
                        41.800
                  91387957.187 7  21949765.828                    21949767.164
                        42.100
 124413302.285 7  96945467.74444  23675066.492                    23675071.676
        43.000          29.200
 112392780.895 8  87578835.83945  21387644.297                    21387646.547
        49.000          35.100
                  90835274.694 5  21847652.555                    21847654.625
                        30.400
 122963507.900 7  95815738.39645  23399178.953                    23399184.438
        46.900          31.000
                                  21023991.867

 120438410.812 6  93848146.10344  22918667.211                    22918673.254
        40.100          28.500
 119637822.701 7  93224296.08145  22766320.820                    22766326.363
        46.000          32.900
 111766027.103 8  87090425.39646  21268369.031                    21268371.477
        52.500          37.700
 113504002.336 8  88444686.36545  21599093.008                    21599096.531
        48.900          35.700
 18  3 11 11 29 26.0000000  0 17G11R21R04R13R14G20R22R03G24G28R05G30
                                R12G10G08G15G13
 124555598.007 7  97056457.65144  23702174.234                    23702177.855
        43.900          25.100
                  85646146.968 6  20577896.891                    20577898.121
                        41.900
                  82503069.434 7  19808831.844                    19808831.625
                        42.400
                  80978698.458 6  19497483.203                    19497484.605
                        39.800
                  93259411.303 6  22493865.461                    22493864.445
                        38.400
 123919317.522 6  96560562.09743  23581070.023                    23581074.449
        39.600          20.600
                  90572376.229 6  21815049.203                    21815048.949
                        41.600
                  91391394.930 7  21950591.750                    21950592.883
                        42.400
 124409978.289 7  96942877.61145  23674434.266                    23674439.664
        43.300          30.800
 112393026.851 8  87579027.49545  21387690.617                    21387693.754
        48.400          35.200
                  90832770.715 4  21847049.625                    21847052.504
                        29.300
 122967320.774 7  95818709.48545  23399902.938                    23399910.094
        45.000          30.500
                                  21024704.047

 120436522.006 6  93846674.31344  22918308.500                    22918313.301
        40.200          28.900
 119640068.483 7  93226046.04945  22766748.367                    22766753.781
        45.800          32.700
 111767052.620 8  87091224.50646  21268563.852                    21268566.422
        52.700          38.300
 113506645.149 8  88446745.69545  21599596.016                    21599599.508
        48.800          35.900
 18  3 11 11 29 27.0000000  0 17G11R21R04R13R14G20R22R03G24G28R05G30
                                R12G10G08G15G13
 124553068.895 7  97054486.90044  23701692.781                    23701696.820
        43.700          25.600
                  85646941.841 6  20578089.117                    20578089.184
                        41.900
                  82503547.809 7  19808946.320                    19808946.117
                        42.400
                  80977934.669 6  19497299.344                    19497300.125
                        39.900
                  93256342.229 6  22493125.570                    22493124.156
                        39.500
 123922962.300 6  96563402.14543  23581764.023                    23581768.168
        39.700          21.100
                  90569886.339 6  21814449.086                    21814449.887
                        41.500
                  91394833.036 7  21951416.977                    21951418.172
                        42.200
 124406654.576 7  96940287.70644  23673801.211                    23673807.082
        43.000          29.100
 112393273.409 8  87579219.61345  21387737.992                    21387740.328
        48.600          34.300
                  90830267.163 4  21846447.141                    21846449.270
                        28.400
 122971133.969 7  95821680.82444  23400627.953                    23400635.383
        42.900          29.600
                                  21025415.797

 120434633.802 6  93845202.98844  22917949.344                    22917953.613
        41.300          29.700
 119642314.901 7  93227796.50445  22767174.930                    22767181.281
        46.400          32.600
 111768078.860 8  87092024.17546  21268758.867                    21268762.195
        52.800          37.900
 113509288.538 8  88448805.47345  21600099.039                    21600102.320
        49.100          35.200
 18  3 11 11 29 28.0000000  0 17G11R21R04R13R14G20R22R03G24G28R05G30
                                R12G10G08G15G13
 124550540.300 7  97052516.56743  23701211.813                    23701215.883
        43.600          23.800
                  85647737.525 6  20578279.766                    20578280.668
                        41.900
                  82504026.929 6  19809060.805                    19809061.355
                        41.900
                  80977171.570 6  19497115.680                    19497117.113
                        39.800
                  93253273.403 6  22492385.844                    22492385.754
                        39.800
 123926607.465 6  96566242.48743  23582458.055                    23582461.844
        40.000          21.800
                  90567396.911 6  21813847.453                    21813849.938
                        41.800
                  91398271.515 7  21952242.656                    21952244.559
                        42.200
 124403331.142 7  96937698.01344  23673169.430                    23673174.637
        42.400          28.500
 112393520.638 8  87579412.26045  21387784.852                    21387787.504
        48.300          34.700
                  90827764.077 5  21845845.641                    21845846.867
                        30.000
 122974947.539 7  95824652.41944  23401354.195                    23401360.820
        43.200          29.400
                                  21026127.531

 120432746.158 6  93843732.10445  22917590.648                    22917594.680
        41.800          30.100
 119644561.944 7  93229547.45445  22767602.922                    22767609.172
        46.800          33.200
 111769105.859 8  87092824.43846  21268954.008                    21268957.477
        52.500          37.600
 113511932.553 8  88450865.73445  21600602.031                    21600605.715
        48.300          35.700
 18  3 11 11 29 29.0000000  0 17G11R21R04R13R14G20R22R03G24G28R05G30
                                R12G10G08G15G13
 124548012.155 7  97050546.59944  23700730.938                    23700734.801
        43.800          25.600
                  85648533.926 6  20578470.750                    20578471.629
                        41.800
                  82504506.763 6  19809175.750                    19809177.031
                        41.900
                  80976409.080 6  19496932.391                    19496933.273
                        40.000
                  93250204.779 6  22491645.477                    22491645.977
                        40.800
 123930252.936 6  96569083.06143  23583152.539                    23583155.328
        40.400          23.600
                  90564907.983 6  21813248.938                    21813250.039
                        41.900
                  91401710.326 7  21953067.883                    21953070.418
                        42.500
 124400007.946 7  96935108.51444  23672536.789                    23672542.410
        42.400          29.100
 112393768.419 8  87579605.33945  21387832.313                    21387834.750
        48.100          34.600
                  90825261.354 5  21845243.945                    21845244.605
                        30.300
 122978761.303 7  95827624.16444  23402081.617                    23402086.449
        44.600          29.300
                                  21026839.016

 120430859.083 7  93842261.65745  22917231.539                    22917235.664
        42.500          30.900
 119646809.584 7  93231298.86545  22768030.188                    22768037.059
        46.300          32.800
 111770133.508 8  87093625.21046  21269149.680                    21269153.117
        52.200          37.700
 113514577.125 8  88452926.43645  21601105.141                    21601108.637
        48.200          35.900
 18  3 11 11 29 30.0000000  0 17G11R21R04R13R14G20R22R03G24G28R05G30
                                R12G10G08G15G13
 124545484.552 7  97048577.03644  23700249.961                    23700253.621
        43.900          25.400
                  85649331.101 6  20578662.320                    20578663.145
                        41.500
                  82504987.334 6  19809291.492                    19809291.770
                        41.900
                  80975647.290 6  19496749.008                    19496750.309
                        40.100
                  93247136.412 6  22490904.930                    22490907.621
                        41.300
 123933898.749 6  96571923.92544  23583845.648                    23583849.188
        41.600          25.700
                  90562419.548 6  21812648.398                    21812651.039
                        41.400
                  91405149.483 7  21953894.164                    21953896.016
                        42.400
 124396685.023 7  96932519.22444  23671904.070                    23671909.793
        42.400          27.800
 112394016.834 8  87579798.91045  21387879.055                    21387881.785
        48.200          34.400
                  90822759.090 5  21844641.797                    21844642.895
                        30.900
 122982575.355 7  95830596.13344  23402807.539                    23402812.082
        46.400          29.700
                                  21027550.492

 120428972.589 7  93840791.65045  22916872.266                    22916876.707
        43.000          31.900
 119649057.830 7  93233050.75145  22768458.289                    22768464.914
        46.300          32.600
 111771161.908 8  87094426.55546  21269345.281                    21269348.602
        51.500          37.400
 113517222.295 8  88454987.60145  21601609.211                    21601612.344
        48.300          34.900
 18  3 11 11 29 31.0000000  0 17G11R21R04R13R14G20R22R03G24G28R05G30
                                R12G10G08G15G13
 124542957.409 7  97046607.83144  23699769.195                    23699773.082
        43.800          26.900
                  85650128.998 6  20578854.664                    20578855.246
                        41.400
                  82505468.646 7  19809407.336                    19809407.652
                        42.000
                  80974886.110 6  19496566.000                    19496566.887
                        39.900
                  93244068.261 6  22490163.633                    22490167.594
                        41.800
 123937544.897 7  96574765.06744  23584540.391                    23584543.758
        42.500          26.400
                  90559931.581 6  21812051.102                    21812051.301
                        41.600
                  91408588.938 7  21954720.945                    21954722.875
                        42.600
 124393362.301 7  96929930.09744  23671271.398                    23671277.441
        42.700          26.000
 112394265.858 8  87579992.95945  21387926.656                    21387929.063
        48.200          34.300
                  90820257.278 5  21844040.094                    21844041.273
                        32.100
 122986389.663 7  95833568.33944  23403532.320                    23403538.512
        45.500          29.600
                                  21028262.938

 120427086.619 7  93839322.06445  22916513.398                    22916518.223
        43.800          32.000
 119651306.656 7  93234803.08945  22768886.203                    22768892.777
        47.000          32.900
 111772190.972 8  87095228.41346  21269541.266                    21269544.465
        51.400          37.100
 113519867.999 8  88457049.18045  21602113.125                    21602115.785
        48.800          35.600
 18  3 11 11 29 32.0000000  0 17G11R21R04R13R14G20R22R03G24G28R05G30
                                R12G10G08G15G13
 124540430.733 7  97044638.98344  23699287.953                    23699292.430
        43.100          25.900
                  85650927.648 6  20579045.453                    20579046.406
                        41.500
                  82505950.691 6  19809522.336                    19809523.051
                        41.900
                  80974125.580 6  19496382.703                    19496382.863
                        40.200
                  93241000.306 6  22489422.820                    22489428.207
                        41.800
 123941191.352 7  96577606.44944  23585234.656                    23585237.875
        42.600          27.300
                  90557444.068 6  21811453.039                    21811452.906
                        41.500
                  91412028.699 7  21955548.164                    21955548.602
                        42.500
 124390039.816 7  96927341.15644  23670639.109                    23670645.398
        42.500          26.000
 112394515.457 8  87580187.45345  21387974.289                    21387976.887
        48.300          34.800
                  90817755.910 5  21843439.063                    21843440.438
                        32.700
 122990204.284 7  95836540.79944  23404257.258                    23404264.332
        44.100          29.700
                                  21028974.047

 120425201.197 7  93837852.90245  22916154.688                    22916159.625
        43.900          32.200
 119653556.089 7  93236555.90245  22769314.047                    22769320.871
        46.400          32.600
 111773220.720 8  87096030.81446  21269737.844                    21269740.188
        52.000          37.300
 113522514.233 8  88459111.17645  21602616.836                    21602618.941
        49.300          35.400
 18  3 11 11 29 33.0000000  0 17G11R21R04R13R14G20R22R03G24G28R05G30
                                R12G10G08G15G13
 124537904.530 6  97042670.50944  23698806.875                    23698811.734
        41.800          26.200
                  85651727.066 6  20579238.094                    20579239.074
                        41.500
                  82506433.454 7  19809638.609                    19809638.836
                        42.200
                  80973365.706 6  19496198.742                    19496200.242
                        40.300
                  93237932.557 7  22488682.188                    22488687.961
                        42.200
 123944838.145 7  96580448.11444  23585928.750                    23585932.027
        43.000          27.600
                  90554957.005 6  21810852.281                    21810854.176
                        41.600
                  91415468.803 7  21956374.391                    21956375.359
                        42.300
 124386717.620 7  96924752.43944  23670007.328                    23670013.148
        42.500          27.200
 112394765.659 8  87580382.42545  21388021.891                    21388024.273
        48.200          34.600
                  90815254.928 5  21842836.664                    21842839.078
                        33.400
 122994019.211 7  95839513.47245  23404982.594                    23404990.004
        42.900          30.200
                                  21029687.586

 120423316.379 7  93836384.20745  22915796.133                    22915801.102
        44.700          33.200
 119655806.155 7  93238309.20445  22769741.047                    22769748.891
        45.800          32.800
 111774251.163 8  87096833.74746  21269933.633                    21269936.832
        52.200          37.400
 113525161.086 8  88461173.66645  21603120.516                    21603122.953
        49.600          35.800
 18  3 11 11 29 34.0000000  0 17G11R21R04R13R14G20R22R03G24G28R05G30
                                R12G10G08G15G13
 124535378.789 6  97040702.40744  23698326.172                    23698330.652
        41.100          24.500
                  85652527.229 6  20579429.867                    20579431.195
                        41.600
                  82506916.961 7  19809754.773                    19809755.188
                        42.100
                  80972606.510 6  19496017.000                    19496017.270
                        40.000
                  93234865.054 6  22487941.883                    22487948.023
                        41.800
 123948485.321 7  96583290.07744  23586622.734                    23586626.219
        43.400          27.400
                  90552470.401 6  21810253.172                    21810254.617
                        41.300
                  91418909.277 6  21957201.250                    21957201.691
                        41.800
 124383395.688 7  96922163.92444  23669375.242                    23669380.926
        43.000          26.800
 112395016.502 8  87580577.88945  21388069.398                    21388072.180
        48.400          34.500
                  90812754.436 5  21842235.172                    21842238.621
                        34.600
 122997834.417 7  95842486.33445  23405710.578                    23405716.016
        44.100          30.200
                                  21030399.539

 120421432.078 7  93834915.91745  22915437.188                    22915443.496
        44.100          32.900
 119658056.812 7  93240062.96045  22770169.609                    22770177.145
        44.900          32.600
 111775282.313 8  87097637.24646  21270130.063                    21270132.801
        52.400          37.500
 113527808.504 8  88463236.59545  21603623.883                    21603626.840
        49.500          35.900
 18  3 11 11 29 35.0000000  0 17G11R21R04R13R14G20R22R03G24G28R05G30
                                R12G10G08G15G13
 124532853.600 6  97038734.73744  23697846.234                    23697850.336
        41.800          24.800
                  85653328.197 6  20579622.883                    20579623.703
                        41.900
                  82507401.236 7  19809871.289                    19809871.227
                        42.100
                  80971847.977 6  19495834.227                    19495834.840
                        39.900
                  93231797.806 6  22487202.664                    22487208.039
                        41.500
 123952132.852 7  96586132.30544  23587316.172                    23587320.832
        43.400          26.700
                  90549984.319 6  21809653.195                    21809655.902
                        41.400
                  91422350.124 6  21958026.070                    21958027.965
                        41.200
 124380074.071 7  96919575.64644  23668743.203                    23668748.984
        43.200          26.200
 112395267.993 8  87580773.86545  21388117.477                    21388119.746
        48.200          34.600
                  90810254.425 5  21841633.836                    21841637.930
                        34.500
 123001649.926 7  95845459.43844  23406437.453                    23406442.219
        46.000          29.800
                                  21031112.258

 120419548.430 7  93833448.14145  22915079.094                    22915085.043
        43.900          33.400
 119660308.142 7  93241817.23245  22770598.773                    22770606.156
        45.400          32.300
 111776314.222 8  87098441.33246  21270326.445                    21270328.820
        52.200          37.500
 113530456.533 8  88465300.00045  21604127.484                    21604130.699
        49.400          35.700
 18  3 11 11 29 36.0000000  0 17G11R21R04R13R14G20R22R03G24G28R05G30
                                R12G10G08G15G13
 124530328.905 7  97036767.46243  23697366.000                    23697369.730
        42.700          22.900
                  85654129.895 6  20579815.055                    20579816.082
                        41.600
                  82507886.242 7  19809987.766                    19809988.090
                        42.000
                  80971090.099 6  19495652.031                    19495652.676
                        40.000
                  93228730.770 6  22486463.039                    22486467.793
                        41.300
 123955780.714 7  96588974.79044  23588010.875                    23588014.500
        43.200          25.600
                  90547498.750 6  21809055.680                    21809056.621
                        41.400
                  91425791.309 6  21958853.742                    21958854.594
                        41.400
 124376752.672 7  96916987.53344  23668111.539                    23668116.492
        42.800          26.400
 112395520.072 8  87580970.29045  21388165.523                    21388167.559
        48.000          34.500
                  90807754.800 5  21841033.492                    21841036.656
                        35.000
 123005465.724 7  95848432.79244  23407162.000                    23407168.555
        45.300          29.700
                                  21031825.148

 120417665.302 7  93831980.77045  22914721.000                    22914727.059
        44.100          34.300
 119662560.051 7  93243571.96445  22771027.148                    22771034.180
        45.600          32.100
 111777346.817 8  87099245.96246  21270522.602                    21270526.008
        51.900          37.500
 113533105.152 8  88467363.86746  21604631.563                    21604635.027
        49.000          36.400
 18  3 11 11 29 37.0000000  0 17G11R21R04R13R14G20R22R03G24G28R05G30
                                R12G10G08G15G13
 124527804.732 7  97034800.58544  23696885.977                    23696889.379
        43.600          24.200
                  85654932.396 7  20580007.586                    20580009.176
                        42.000
                  82508372.029 7  19810103.727                    19810104.453
                        42.200
                  80970332.905 6  19495469.430                    19495470.176
                        40.100
                  93225663.977 6  22485724.141                    22485727.578
                        40.700
 123959428.979 7  96591817.57944  23588703.609                    23588709.012
        42.100          24.800
                  90545013.681 6  21808459.164                    21808458.785
                        41.400
                  91429232.842 6  21959679.461                    21959680.797
                        41.400
 124373431.548 7  96914399.63244  23667479.375                    23667485.180
        43.200          27.700
 112395772.786 8  87581167.21445  21388213.625                    21388215.633
        48.100          34.500
                  90805255.620 5  21840431.961                    21840435.984
                        35.400
 123009281.831 7  95851406.39345  23407889.164                    23407894.559
        45.800          30.200
                                  21032537.422

 120415782.785 7  93830513.87045  22914362.617                    22914369.242
        44.400          34.200
 119664812.617 7  93245327.21045  22771455.578                    22771462.949
        45.000          32.600
 111778380.172 8  87100051.18146  21270718.578                    21270722.508
        51.800          37.600
 113535754.381 8  88469428.20445  21605135.695                    21605138.605
        49.200          35.700
 18  3 11 11 29 38.0000000  0 17G11R21R04R13R14G20R22R03G24G28R05G30
                                R12G10G08G15G13
 124525281.073 7  97032834.09643  23696406.070                    23696409.133
        43.400          23.000
                  85655735.651 7  20580200.578                    20580201.594
                        42.100
                  82508858.511 7  19810220.820                    19810220.844
                        42.300
                  80969576.347 6  19495286.977                    19495287.840
                        40.300
                  93222597.393 6  22484985.625                    22484987.879
                        40.200
 123963077.582 6  96594660.63043  23589398.070                    23589403.141
        41.200          23.000
                  90542529.068 6  21807859.766                    21807860.320
                        41.500
                  91432674.683 6  21960506.414                    21960507.840
                        41.400
 124370110.684 7  96911811.93944  23666847.297                    23666852.754
        43.400          27.900
 112396026.140 7  87581364.62945  21388261.313                    21388264.000
        47.800          34.400
                  90802756.874 5  21839830.930                    21839835.484
                        35.800
 123013098.241 7  95854380.24245  23408614.781                    23408621.063
        44.700          30.600
                                  21033250.000

 120413900.810 7  93829047.39145  22914004.383                    22914011.180
        44.100          34.700
 119667065.761 7  93247082.90845  22771883.523                    22771891.586
        44.500          31.900
 111779414.221 8  87100856.93646  21270916.047                    21270918.660
        52.100          37.700
 113538404.184 8  88471492.98745  21605639.813                    21605642.871
        49.100          35.500
 18  3 11 11 29 39.0000000  0 17G11R21R04R13R14G20R22R03G24G28R05G30
                                R12G10G08G15G13
 124522757.861 7  97030867.94243  23695925.609                    23695929.012
        42.400          23.200
                  85656539.614 6  20580393.586                    20580394.777
                        41.800
                  82509345.690 7  19810337.797                    19810338.445
                        42.000
                  80968820.420 6  19495105.344                    19495105.902
                        40.400
                  93219530.984 6  22484246.680                    22484247.641
                        39.500
 123966726.502 6  96597503.94943  23590092.336                    23590097.766
        40.000          22.000
                  90540044.880 6  21807260.039                    21807262.176
                        41.300
                  91436116.833 6  21961332.406                    21961334.605
                        41.400
 124366790.081 7  96909224.45244  23666215.422                    23666220.633
        43.200          27.200
 112396280.038 7  87581562.47045  21388310.250                    21388312.555
        47.800          34.800
                  90800258.519 5  21839230.539                    21839234.648
                        35.400
 123016914.907 7  95857354.28545  23409340.000                    23409347.051
        43.800          30.000
                                  21033962.453

 120412019.368 7  93827581.33745  22913646.461                    22913653.402
        44.000          33.700
 119669319.494 7  93248839.06345  22772312.984                    22772320.309
        43.600          32.400
 111780448.932 8  87101663.19846  21271112.734                    21271115.789
        52.300          37.400
 113541054.522 8  88473558.18245  21606143.492                    21606147.105
        48.600          35.400
 18  3 11 11 29 40.0000000  0 17G11R21R04R13R14G20R22R03G24G28R05G30
                                R12G10G08G15G13
 124520235.138 6  97028902.16843  23695444.570                    23695448.586
        41.800          22.300
                  85657344.352 6  20580586.352                    20580588.246
                        41.900
                  82509833.646 6  19810455.125                    19810456.039
                        41.800
                  80968065.172 6  19494923.648                    19494923.883
                        40.400
                  93216464.838 6  22483507.273                    22483507.391
                        38.700
 123970375.813 6  96600347.55943  23590785.406                    23590792.297
        38.600          21.100
                  90537561.160 6  21806660.242                    21806663.422
                        41.600
                  91439559.313 6  21962159.125                    21962160.953
                        41.900
 124363469.770 7  96906637.19144  23665583.133                    23665589.242
        42.400          28.600
 112396534.583 8  87581760.82245  21388358.305                    21388360.883
        48.000          34.800
                  90797760.644 5  21838629.742                    21838633.754
                        34.900
 123020731.891 7  95860328.55645  23410066.914                    23410073.148
        44.100          30.500
                                  21034675.852

 120410138.509 7  93826115.73645  22913287.953                    22913295.645
        44.100          34.300
 119671573.901 7  93250595.74145  22772742.125                    22772749.336
        43.200          31.500
 111781484.365 8  87102470.02746  21271309.711                    21271313.047
        52.500          37.500
 113543705.473 8  88475623.85445  21606648.203                    21606651.879
        48.000          35.100
 18  3 11 11 29 41.0000000  0 17G11R21R04R13R14G20R22R03G24G28R05G30
                                R12G10G08G15G13
 124517712.847 6  97026936.74443  23694965.031                    23694968.934
        41.900          23.500
                  85658149.827 7  20580780.070                    20580782.031
                        42.000
                  82510322.309 7  19810572.555                    19810572.625
                        42.200
                  80967310.551 6  19494741.742                    19494741.930
                        39.900
                  93213398.881 6  22482767.422                    22482766.902
                        38.500
 123974025.400 6  96603191.38143  23591479.031                    23591485.926
        37.600          19.300
                  90535077.970 6  21806064.844                    21806065.039
                        41.700
                  91443002.137 6  21962986.273                    21962988.121
                        41.800
 124360149.695 7  96904050.12144  23664951.547                    23664957.195
        42.100          27.200
 112396789.703 8  87581959.61045  21388407.195                    21388409.512
        48.100          34.400
                  90795263.167 5  21838028.766                    21838032.172
                        35.000
 123024549.089 7  95863302.98244  23410793.391                    23410799.867
        44.300          29.900
                                  21035389.250

 120408258.182 7  93824650.54945  22912930.281                    22912937.688
        44.300          33.700
 119673828.838 7  93252352.83045  22773171.148                    22773178.277
        42.400          31.400
 111782520.470 8  87103277.37746  21271507.250                    21271510.199
        52.200          37.900
 113546356.976 8  88477689.94945  21607153.250                    21607156.391
        48.300          34.900
 18  3 11 11 29 42.0000000  0 17G11R21R04R13R14G20R22R03G24G28R05G30
                                R12G10G08G15G13
 124515191.109 7  97024971.77543  23694485.273                    23694488.609
        42.100          22.500
                  85658956.077 6  20580973.352                    20580975.738
                        41.800
                  82510811.740 7  19810690.117                    19810690.746
                        42.100
                  80966556.584 6  19494559.703                    19494561.172
                        40.100
                  93210333.158 6  22482028.703                    22482026.996
                        38.700
 123977675.386 6  96606035.50842  23592173.492                    23592180.820
        37.100          17.400
                  90532595.269 6  21805466.625                    21805467.695
                        41.500
                  91446445.316 6  21963813.344                    21963814.422
                        41.900
 124356829.872 7  96901463.24544  23664319.758                    23664325.535
        42.000          26.400
 112397045.456 8  87582158.90245  21388456.180                    21388458.480
        48.400          35.000
                  90792766.174 5  21837428.688                    21837432.281
                        34.100
 123028366.638 7  95866277.69244  23411520.031                    23411525.895
        44.400          29.900
                                  21036102.648

 120406378.453 7  93823185.82745  22912572.484                    22912580.480
        43.900          33.700
 119676084.438 7  93254110.43345  22773600.664                    22773607.281
        42.300          31.600
 111783557.319 8  87104085.31546  21271704.625                    21271707.684
        52.500          37.600
 113549009.080 8  88479756.52145  21607658.352                    21607660.965
        49.100          35.100
 18  3 11 11 29 43.0000000  0 17G11R21R04R13R14G20R22R03G24G28R05G30
                                R12G10G08G15G13
 124512669.828 7  97023007.16443  23694005.813                    23694008.789
        43.100          22.900
                  85659763.079 6  20581167.664                    20581169.648
                        41.800
                  82511301.887 7  19810807.695                    19810808.000
                        42.100
                  80965803.280 6  19494378.547                    19494379.980
                        40.200
                  93207267.595 6  22481288.586                    22481287.969
                        38.900
 123981325.740 6  96608880.03742  23592869.086                    23592875.023
        36.700          15.600
                  90530113.011 6  21804869.383                    21804869.473
                        41.600
                  91449888.853 6  21964639.664                    21964641.621
                        41.900
 124353510.297 6  96898876.57344  23663687.695                    23663694.105
        41.500          26.800
 112397301.805 8  87582358.65045  21388504.414                    21388506.965
        48.100          34.200
                  90790269.570 5  21836827.727                    21836831.293
                        32.900
 123032184.426 7  95869252.58544  23412247.523                    23412252.891
        45.200          29.600
                                  21036816.070

 120404499.256 7  93821721.52645  22912214.594                    22912222.293
        43.400          33.300
 119678340.647 7  93255868.50045  22774030.836                    22774036.574
        43.300          31.800
 111784594.840 8  87104893.77546  21271901.523                    21271904.945
        52.100          37.300
 113551661.715 8  88481823.50245  21608163.422                    21608165.883
        49.500          35.000
 18  3 11 11 29 44.0000000  0 17G11R21R04R13R14G20R22R03G24G28R05G30
                                R12G10G08G15G13
 124510149.012 7  97021042.89244  23693526.531                    23693529.207
        43.400          26.000
                  85660570.782 6  20581361.836                    20581363.988
                        41.600
                  82511792.732 7  19810924.945                    19810925.836
                        42.000
                  80965050.603 6  19494197.211                    19494198.488
                        40.200
                  93204202.225 6  22480549.266                    22480548.844
                        39.400
 123984976.363 6                  23593565.141
        38.100
                  90527631.160 6  21804269.672                    21804272.184
                        41.600
                  91453332.689 6  21965467.969                    21965469.289
                        41.800
 124350190.936 6  96896290.07244  23663056.234                    23663062.320
        41.600          26.700
 112397558.743 8  87582558.85945  21388553.570                    21388555.844
        48.400          34.600
                  90787773.395 5  21836227.148                    21836230.543
                        32.500
 123036002.497 7  95872227.71244  23412972.508                    23412979.273
        44.300          29.800
                                  21037528.414

 120402620.579 7  93820257.62945  22911856.867                    22911865.367
        43.100          32.700
 119680597.364 7  93257626.97045  22774460.805                    22774466.121
        44.200          32.400
 111785633.022 8  87105702.75646  21272099.180                    21272102.652
        51.900          36.600
 113554314.899 8  88483890.92445  21608668.031                    21608670.973
        49.100          35.300
 18  3 11 11 29 45.0000000  0 17G11R21R04R13R14G20R22R03G24G28R05G30
                                R12G10G08G15G13
 124507628.728 7  97019079.03243  23693046.547                    23693049.371
        43.700          23.900
                  85661379.290 6  20581556.445                    20581558.461
                        41.700
                  82512284.332 7  19811043.711                    19811043.926
                        42.400
                  80964298.620 6  19494015.258                    19494017.441
                        40.400
                  93201137.161 6  22479809.625                    22479810.461
                        40.400
 123988627.343 6                  23594260.875
        39.500
                  90525149.801 6  21803670.828                    21803674.328
                        41.700
                  91456776.890 6  21966295.734                    21966296.504
                        41.900
 124346871.935 6  96893703.85244  23662425.008                    23662430.840
        41.800          25.600
 112397816.327 8  87582759.56745  21388602.516                    21388604.945
        48.200          34.200
                  90785277.673 5  21835627.313                    21835630.027
                        30.500
 123039820.852 7  95875203.05644  23413699.695                    23413705.805
        44.500          29.500
                                  21038241.453

 120400742.524 7  93818794.21645  22911500.133                    22911507.914
        42.400          32.700
 119682854.767 7  93259385.97845  22774889.578                    22774895.855
        44.000          32.000
 111786671.974 8  87106512.32646  21272296.813                    21272300.035
        52.100          36.900
 113556968.718 8  88485958.84345  21609172.688                    21609175.465
        49.200          35.000
 18  3 11 11 29 46.0000000  0 17G11R21R04R13R14G20R22R03G24G28R05G30
                                R12G10G08G15G13
 124505108.869 7  97017115.48244  23692566.047                    23692570.047
        43.000          25.100
                  85662188.513 6  20581751.141                    20581753.340
                        41.700
                  82512776.639 7  19811161.805                    19811161.809
                        42.200
                  80963547.253 6  19493835.430                    19493836.129
                        40.600
                  93198072.314 6  22479069.172                    22479072.059
                        41.200
 123992278.644 6                  23594956.547
        40.800
                  90522668.951 6  21803075.836                    21803077.195
                        41.700
                  91460221.383 7  21967122.266                    21967124.023
                        42.000
 124343553.149 7  96891117.79544  23661793.578                    23661799.090
        42.400          26.900
 112398074.487 7  87582960.73045  21388651.508                    21388654.086
        47.900          34.400
                  90782782.308 4  21835025.492                    21835029.117
                        29.600
 123043639.503 7  95878178.63844  23414425.680                    23414432.871
        43.500          29.400
                                  21038955.109

 120398864.995 7  93817331.20945  22911142.430                    22911150.555
        42.600          32.200
 119685112.723 7  93261145.42645  22775319.328                    22775325.293
        43.600          32.300
 111787711.571 8  87107322.39646  21272495.422                    21272497.832
        52.100          37.300
 113559623.051 8  88488027.15945  21609677.594                    21609680.461
        49.300          35.200
 18  3 11 11 29 47.0000000  0 17G11R21R04R13R14G20R22R03G24G28R05G30
                                R12G10G08G15G13
 124502589.535 7  97015152.34243  23692087.195                    23692090.238
        42.600          22.500
                  85662998.495 6  20581945.305                    20581947.609
                        41.200
                  82513269.719 7  19811279.992                    19811280.074
                        42.300
                  80962796.549 6  19493654.625                    19493655.691
                        40.500
                  93195007.732 6  22478329.711                    22478333.582
                        41.600
 123995930.276 7                  23595652.055
        42.300
                  90520188.568 6  21802478.211                    21802479.914
                        41.600
                  91463666.229 6  21967949.563                    21967951.285
                        41.600
 124340234.626 7  96888531.92444  23661162.406                    23661167.551
        42.800          27.900
 112398333.257 8  87583162.37145  21388700.727                    21388703.383
        48.100          34.400
                  90780287.374 4  21834425.914                    21834428.117
                        28.700
 123047458.464 7  95881154.43645  23415154.305                    23415159.078
        44.700          30.000
                                  21039669.453

 120396988.061 7  93815868.67045  22910785.172                    22910793.168
        42.600          32.200
 119687371.324 7  93262905.36345  22775749.141                    22775754.668
        44.200          32.400
 111788751.894 8  87108133.03146  21272693.133                    21272696.051
        52.500          37.500
 113562278.003 8  88490095.96145  21610182.953                    21610185.887
        49.500          35.000
 18  3 11 11 29 48.0000000  0 17G11R21R04R13R14G20R22R03G24G28R05G30
                                R12G10G08G15G13
 124500070.727 7  97013189.64643  23691608.133                    23691611.047
        43.000          22.200
                  85663809.260 6  20582140.516                    20582142.480
                        41.400
                  82513763.539 7  19811398.813                    19811399.176
                        42.100
                  80962046.505 6  19493474.609                    19493475.070
                        40.500
                  93191943.386 7  22477589.906                    22477595.141
                        42.500
 123999582.281 7                  23596346.391
        43.500
                  90517708.663 6  21801880.789                    21801881.727
                        41.500
                  91467111.422 6  21968776.711                    21968778.867
                        41.300
 124336916.378 7  96885946.26644  23660531.227                    23660536.355
        42.600          27.300
 112398592.661 8  87583364.50345  21388750.273                    21388753.137
        48.600          34.600
                  90777792.882 4  21833826.063                    21833827.617
                        29.100
 123051277.642 7  95884130.40845  23415881.383                    23415886.031
        45.800          30.800
                                  21040383.563

 120395111.672 7  93814406.54945  22910427.789                    22910435.813
        42.400          32.100
 119689630.529 7  93264665.77545  22776180.219                    22776184.871
        45.800          32.700
 111789792.938 8  87108944.23346  21272891.484                    21272893.809
        52.500          37.300
 113564933.527 8  88492165.20745  21610687.914                    21610691.293
        49.100          35.300
 18  3 11 11 29 49.0000000  0 17G11R21R04R13R14G20R22R03G24G28R05G30
                                R12G10G08G15G13
 124497552.324 7  97011227.25843  23691129.445                    23691131.520
        43.600          22.800
                  85664620.747 6  20582335.844                    20582336.930
                        41.500
                  82514258.066 7  19811517.109                    19811517.848
                        42.000
                  80961297.073 6  19493294.469                    19493294.523
                        40.400
                  93188879.181 7  22476850.578                    22476856.273
                        42.800
 124003234.561 7                  23597042.203
        43.600
                  90515229.185 6  21801283.570                    21801284.820
                        41.600
                  91470556.905 6  21969604.195                    21969606.008
                        41.000
 124333598.383 7  96883360.80144  23659899.766                    23659904.902
        42.600          26.800
 112398852.624 8  87583567.07445  21388799.445                    21388802.242
        48.100          34.300
                  90775298.776 4  21833226.961                    21833227.465
                        29.100
 123055097.109 7  95887106.63545  23416606.086                    23416613.066
        44.800          30.000
                                  21041097.344

 120393235.814 7  93812944.84145  22910070.625                    22910079.082
        42.500          31.400
 119691890.251 7  93266426.59445  22776610.039                    22776615.043
        44.700          32.600
 111790834.623 8  87109755.94146  21273089.336                    21273092.363
        52.700          37.400
 113567589.590 8  88494234.86345  21611192.922                    21611196.605
        48.900          34.800
 18  3 11 11 29 50.0000000  0 17G11R21R04R13R14G20R22R03G24G28R05G30
                                R12G10G08G15G13
 124495034.451 7  97009265.28444  23690650.438                    23690652.512
        44.000          24.900
                  85665432.980 6  20582530.992                    20582532.574
                        41.600
                  82514753.337 7  19811636.195                    19811637.145
                        42.400
                  80960548.315 6  19493113.633                    19493114.184
                        40.200
                  93185815.209 7  22476111.367                    22476117.383
                        42.700
 124006887.195 7                  23597737.125
        43.900
                  90512750.180 6  21800685.563                    21800687.805
                        41.000
                  91474002.736 6  21970432.070                    21970434.055
                        41.100
 124330280.615 7  96880775.51244  23659268.234                    23659273.430
        42.500          26.900
 112399113.220 8  87583770.13045  21388849.438                    21388851.844
        48.300          34.800
                  90772805.124 5  21832626.648                    21832627.762
                        30.600
 123058916.842 7  95890083.06544  23417333.813                    23417339.766
        45.100          29.900
                                  21041810.250

 120391360.523 7  93811483.57345  22909714.297                    22909721.813
        42.700          31.200
 119694150.619 7  93268187.93545  22777038.977                    22777044.992
        45.100          32.300
 111791877.029 8  87110568.21646  21273287.438                    21273290.824
        52.500          37.200
 113570246.244 8  88496304.98045  21611698.492                    21611702.602
        48.600          34.700
 18  3 11 11 29 51.0000000  0 17G11R21R04R13R14G20R22R03G24G28R05G30
                                R12G10G08G15G13
 124492517.106 7  97007303.70843  23690171.055                    23690173.508
        43.600          23.200
                  85666245.988 7  20582727.461                    20582727.887
                        42.100
                  82515249.341 7  19811755.313                    19811755.996
                        42.500
                  80959800.190 6  19492932.969                    19492934.277
                        40.500
                  93182751.469 7  22475373.703                    22475378.656
                        42.600
 124010540.188 7                  23598432.031
        44.300
                  90510271.697 6  21800089.289                    21800091.105
                        41.200
                  91477448.905 6  21971260.336                    21971261.250
                        41.200
 124326963.131 7  96878190.46044  23658636.398                    23658642.063
        42.300          27.900
 112399374.419 8  87583973.66945  21388898.891                    21388901.305
        48.200          34.700
                  90770311.929 5  21832027.063                    21832028.055
                        32.300
 123062736.920 7  95893059.75444  23418059.633                    23418066.910
        43.400          29.400
                                  21042523.328

 120389485.814 7  93810022.76745  22909357.070                    22909364.930
        42.600          30.700
 119696411.627 7  93269949.76445  22777469.367                    22777475.461
        45.400          32.300
 111792920.130 8  87111381.02646  21273485.695                    21273489.059
        51.900          36.800
 113572903.469 8  88498375.53145  21612204.727                    21612207.918
        49.200          35.100
 18  3 11 11 29 52.0000000  0 17G11R21R04R13R14G20R22R03G24G28R05G30
                                R12G10G08G15G13
 124490000.231 7  97005342.49844  23689691.781                    23689694.207
        43.200          24.100
                  85667059.740 6  20582922.797                    20582923.395
                        41.900
                  82515746.095 7  19811874.609                    19811875.176
                        42.300
                  80959052.742 6  19492752.922                    19492754.098
                        40.100
                  93179687.979 7  22474635.570                    22474639.629
                        42.900
 124014193.519 7  96634443.31855  23599127.219                    23599118.512
        44.500          31.800
                  90507793.693 6  21799492.758                    21799493.805
                        41.100
                  91480895.438 6  21972087.625                    21972089.273
                        41.500
 124323645.869 7  96875605.57344  23658005.477                    23658010.938
        42.000          25.900
 112399636.243 8  87584177.69245  21388948.844                    21388951.379
        48.000          34.500
                  90767819.179 5  21831427.609                    21831429.027
                        33.100
 123066557.313 7  95896036.66644  23418787.281                    23418793.770
        43.700          29.600
                                  21043238.219

 120387611.670 7  93808562.40545  22909000.734                    22909008.172
        42.100          30.400
 119698673.247 7  93271712.06845  22777899.758                    22777905.254
        45.900          31.900
 111793963.990 8  87112194.41946  21273684.453                    21273688.055
        51.600          37.000
 113575561.296 8  88500446.55945  21612711.063                    21612713.602
        49.300          35.800
 18  3 11 11 29 53.0000000  0 17G11R21R04R13R14G20R22R03G24G28R05G30
                                R12G10G08G15G13
 124487483.759 7  97003381.59744  23689212.422                    23689215.258
        43.100          24.300
                  85667874.201 7  20583117.969                    20583118.316
                        42.100
                  82516243.543 7  19811993.789                    19811994.535
                        42.200
                  80958305.877 6  19492573.781                    19492574.426
                        39.700
                  93176624.652 7  22473897.016                    22473900.348
                        42.400
 124017847.136 7  96637290.30244  23599822.156                    23599819.027
        44.100          28.300
                  90505316.111 6  21798896.422                    21798897.004
                        41.900
                  91484342.262 6  21972915.727                    21972917.148
                        41.600
 124320328.828 7  96873020.87244  23657373.609                    23657379.645
        42.100          27.000
 112399898.613 8  87584382.13545  21388998.930                    21389001.355
        48.200          34.800
                  90765326.823 5  21830829.469                    21830829.867
                        34.300
 123070377.868 7  95899013.70044  23419515.781                    23419520.695
        45.800          29.800
                                  21043952.648

 120385738.009 6  93807102.41545  22908644.164                    22908651.285
        40.800          30.100
 119700935.390 7  93273474.77145  22778330.859                    22778335.801
        45.800          32.800
 111795008.446 8  87113008.28046  21273883.273                    21273886.910
        51.500          36.800
 113578219.595 8  88502517.95345  21613217.125                    21613219.602
        49.600          35.700
 18  3 11 11 29 54.0000000  0 17G11R21R04R13R14G20R22R03G24G28R05G30
                                R12G10G08G15G13
 124484967.856 7  97001421.15743  23688733.953                    23688736.789
        43.700          23.200
                  85668689.481 6  20583314.555                    20583314.328
                        41.800
                  82516741.802 7  19812113.391                    19812113.691
                        42.200
                  80957559.732 6  19492393.656                    19492394.637
                        39.700
                  93173561.592 6  22473159.039                    22473161.066
                        41.900
 124021501.145 7  96640137.60444  23600517.281                    23600517.684
        43.000          27.800
                  90502839.031 6  21798299.156                    21798300.992
                        41.900
                  91487789.466 6  21973743.305                    21973745.090
                        41.500
 124317012.093 6  96870436.40944  23656742.375                    23656748.730
        41.400          26.600
 112400161.653 8  87584587.09945  21389048.648                    21389051.254
        48.500          34.400
                  90762834.961 5  21830229.633                    21830231.598
                        34.500
 123074198.740 7  95901991.00044  23420243.313                    23420248.137
        47.000          29.600
                                  21044668.359

 120383864.973 6  93805642.90544  22908287.656                    22908294.262
        41.300          29.400
 119703198.201 7  93275238.00845  22778760.586                    22778766.820
        45.800          32.600
 111796053.693 8  87113822.75346  21274082.531                    21274085.414
        52.100          37.100
 113580878.546 8  88504589.86645  21613722.758                    21613725.441
        49.800          35.800
 18  3 11 11 29 55.0000000  0 17G11R21R04R13R14G20R22R03G24G28R05G30
                                R12G10G08G15G13
 124482452.408 7  96999461.08344  23688256.234                    23688258.156
        44.900          26.300
                  85669505.469 7  20583510.227                    20583510.801
                        42.300
                  82517240.754 7  19812233.313                    19812234.172
                        42.600
                  80956814.193 6  19492214.375                    19492215.336
                        40.400
                  93170498.709 6  22472420.828                    22472422.336
                        41.400
 124025155.475 7  96642985.13244  23601211.992                    23601214.738
        42.300          26.200
                  90500362.403 6  21797701.297                    21797703.758
                        41.400
                  91491236.960 6  21974571.398                    21974573.016
                        41.500
 124313695.596 7  96867852.14144  23656111.438                    23656117.617
        42.000          26.700
 112400425.273 8  87584792.51545  21389099.023                    21389101.633
        48.300          34.700
                  90760343.521 5  21829629.914                    21829633.125
                        35.200
 123078019.873 7  95904968.52544  23420968.680                    23420975.266
        45.500          29.600
                                  21045381.930

 120381992.513 6  93804183.85144  22907931.625                    22907937.930
        40.900          29.900
 119705461.599 7  93277001.69745  22779191.180                    22779197.406
        45.700          32.100
 111797099.589 8  87114637.73346  21274281.594                    21274284.391
        52.300          37.100
 113583538.042 8  88506662.20545  21614228.703                    21614231.813
        49.900          35.300
 18  3 11 11 29 56.0000000  0 17G11R21R04R13R14G20R22R03G24G28R05G30
                                R12G10G08G15G13
 124479937.519 7  96997501.44144  23687777.844                    23687779.438
        45.500          24.100
                  85670322.269 6  20583705.648                    20583706.449
                        41.700
                  82517740.452 7  19812353.344                    19812353.703
                        42.300
                  80956069.348 6  19492035.352                    19492035.547
                        39.700
                  93167436.070 6  22471682.031                    22471683.098
                        40.600
 124028810.187 6                  23601906.891
        41.300
                  90497886.277 6  21797105.672                    21797107.711
                        41.300
                  91494684.834 6  21975400.211                    21975401.516
                        41.800
 124310379.407 6  96865268.10944  23655480.742                    23655486.543
        41.800          26.300
 112400689.556 7  87584998.44645  21389149.188                    21389151.410
        47.900          35.300
                  90757852.530 5  21829030.820                    21829033.516
                        34.800
 123081841.386 7  95907946.35744  23421695.195                    23421702.762
        43.600          29.400
                                  21046095.680

 120380120.627 6  93802725.24144  22907575.844                    22907581.387
        41.100          29.400
 119707725.632 7  93278765.87945  22779622.391                    22779628.109
        45.400          32.700
 111798146.242 8  87115453.30846  21274480.867                    21274483.617
        52.400          37.900
 113586198.150 8  88508735.02245  21614734.867                    21614738.148
        50.000          35.300
 18  3 11 11 29 57.0000000  0 17G11R21R04R13R14G20R22R03G24G28R05G30
                                R12G10G08G15G13
 124477423.065 7  96995542.11644  23687299.195                    23687300.910
        45.300          25.600
                  85671139.762 6  20583902.164                    20583903.117
                        41.900
                  82518240.820 7  19812474.094                    19812473.637
                        42.400
                  80955325.124 6  19491856.773                    19491856.512
                        39.700
                  93164373.608 6  22470943.047                    22470943.320
                        39.900
 124032465.132 6  96648680.91853  23602601.180                    23602605.180
        39.500          21.800
                  90495410.603 6  21796509.211                    21796510.988
                        41.700
                  91498132.961 7  21976228.125                    21976229.938
                        42.100
 124307063.428 7  96862684.23944  23654849.797                    23654855.406
        42.600          26.900
 112400954.378 8  87585204.80345  21389199.617                    21389202.324
        48.000          35.700
                  90755361.955 5  21828432.430                    21828435.195
                        35.500
 123085663.134 7  95910924.33944  23422421.852                    23422429.504
        42.800          29.300
                                  21046810.375

 120378249.265 6  93801267.05244  22907219.797                    22907225.117
        41.600          29.500
 119709990.224 7  93280530.50045  22780052.828                    22780059.441
        45.700          32.800
 111799193.522 8  87116269.37546  21274679.672                    21274682.723
        52.200          37.800
 113588858.770 8  88510808.23245  21615241.383                    21615244.375
        49.900          35.200
 18  3 11 11 29 58.0000000  0 17G11R21R04R13R14G20R22R03G24G28R05G30
                                R12G10G08G15G13
 124474909.089 7  96993583.16344  23686820.461                    23686822.734
        44.700          25.300
                  85671958.029 7  20584099.156                    20584099.512
                        42.000
                  82518741.934 7  19812593.977                    19812594.520
                        42.100
                  80954581.555 6  19491676.594                    19491677.270
                        40.000
                  93161311.371 6  22470204.094                    22470204.277
                        39.100
 124036120.552 6  96651529.28643  23603295.969                    23603301.449
        36.700          21.100
                  90492935.436 6  21795914.039                    21795915.465
                        41.600
                  91501581.422 6  21977055.883                    21977057.746
                        41.900
 124303747.717 7  96860100.56344  23654219.336                    23654224.465
        42.900          27.000
 112401219.801 7  87585411.62845  21389249.938                    21389252.789
        47.800          35.400
                  90752871.770 5  21827832.773                    21827835.652
                        35.400
 123089485.157 7  95913902.50244  23423151.438                    23423156.297
        45.400          29.700
                                  21047524.844

 120376378.456 7  93799809.28944  22906863.891                    22906868.797
        42.300          29.200
 119712255.422 7  93282295.58845  22780483.938                    22780490.684
        44.500          32.500
 111800241.533 8  87117086.01646  21274879.141                    21274882.281
        52.100          37.700
 113591519.980 8  88512881.90445  21615747.469                    21615750.258
        50.200          34.600
 18  3 11 11 29 59.0000000  0 17G11R21R04R13R14G20R22R03G24G28R05G30
                                R12G10G08G15G13
 124472395.600 7  96991624.57544  23686341.539                    23686344.398
        43.700          25.700
                  85672777.064 6  20584295.797                    20584296.121
                        41.900
                  82519243.808 7  19812713.969                    19812714.648
                        42.300
                  80953838.645 6  19491498.156                    19491498.250
                        40.400
                  93158249.368 6  22469464.898                    22469465.184
                        38.900
 124039776.271 5                  23603990.414
        33.700
                  90490460.725 6  21795317.438                    21795319.266
                        41.800
                  91505030.241 6  21977884.180                    21977886.633
                        41.500
 124300432.259 7  96857517.08044  23653587.969                    23653593.230
        42.900          26.900
 112401485.873 8  87585618.96045  21389300.617                    21389303.391
        48.500          35.100
                  90750382.050 5  21827234.297                    21827237.586
                        35.000
 123093307.415 7  95916880.86644  23423878.289                    23423884.145
        45.700          29.600
                                  21048239.734

 120374508.231 7  93798351.97144  22906507.711                    22906512.926
        43.000          29.300
 119714521.293 7  93284061.20045  22780914.508                    22780921.449
        44.500          32.100
 111801290.258 8  87117903.20046  21275078.531                    21275082.039
        51.800          37.700
 113594181.763 8  88514956.03145  21616253.594                    21616256.965
        50.000          35.100
 18  3 11 11 30  0.0000000  0 17G11R21R04R13R14G20R22R03G24G28R05G30
                                R12G10G08G15G13
 124469882.569 7  96989666.35644  23685862.547                    23685866.270
        43.100          24.400
                  85673596.793 7  20584492.453                    20584493.242
                        42.100
                  82519746.411 7  19812834.953                    19812835.207
                        42.100
                  80953096.359 6  19491319.828                    19491319.723
                        40.600
                  93155187.560 6  22468726.195                    22468726.473
                        39.300
 124043432.374 5                  23604684.594
        31.900
                  90487986.474 6  21794721.938                    21794723.605
                        41.300
                  91508479.345 6  21978712.664                    21978714.430
                        41.700
 124297117.017 7  96854933.76244  23652957.352                    23652962.441
        42.600          27.100
 112401752.512 8  87585826.73245  21389351.172                    21389354.168
        48.300          34.700
                  90747892.712 5  21826634.586                    21826638.676
                        35.000
 123097129.941 7  95919859.45544  23424605.508                    23424611.492
        45.700          29.100
                                  21048956.055

 120372638.526 7  93796895.05845  22906151.891                    22906156.727
        43.100          30.500
 119716787.673 7  93285827.20545  22781346.250                    22781353.074
        44.800          32.300
 111802339.646 8  87118720.90646  21275278.383                    21275281.711
        51.900          37.400
 113596844.098 8  88517030.57545  21616760.148                    21616763.570
        49.500          35.200
 18  3 11 11 30  1.0000000  0 17G11R21R04R13R14G20R22R03G24G28R05G30
                                R12G10G08G15G13
 124467370.071 7  96987708.57744  23685384.922                    23685388.215
        42.800          24.200
                  85674417.333 6  20584690.016                    20584690.367
                        41.700
                  82520249.788 7  19812955.977                    19812955.691
                        42.100
                  80952354.754 6  19491140.898                    19491141.617
                        40.700
                  93152125.995 6  22467986.484                    22467987.684
                        39.300
 124047088.885 5                  23605382.508
        34.200
                  90485512.723 6  21794125.813                    21794127.902
                        41.800
                  91511928.829 6  21979541.188                    21979543.363
                        41.300
 124293802.080 7  96852350.68144  23652326.609                    23652331.664
        42.600          26.300
 112402019.799 8  87586035.00545  21389402.359                    21389405.055
        48.400          34.600
                  90745403.846 5  21826036.023                    21826040.543
                        34.900
 123100952.795 7  95922838.31844  23425332.289                    23425338.934
        44.600          29.100
                                  21049670.250

 120370769.443 7  93795438.62145  22905796.625                    22905800.969
        43.300          30.200
 119719054.717 7  93287593.72145  22781778.281                    22781784.586
        45.400          32.800
 111803389.781 8  87119539.18746  21275478.414                    21275481.402
        52.300          37.700
 113599507.051 8  88519105.60545  21617266.477                    21617270.363
        48.800          35.100
 18  3 11 11 30  2.0000000  0 17G11R21R04R13R14G20R22R03G24G28R05G30
                                R12G10G08G15G13
 124464858.062 7  96985751.17443  23684907.820                    23684909.855
        43.600          23.900
                  85675238.626 6  20584887.445                    20584887.988
                        41.700
                  82520753.912 7  19813076.922                    19813077.246
                        42.200
                  80951613.795 6  19490962.008                    19490963.438
                        40.400
                  93149064.620 6  22467247.563                    22467250.141
                        39.700
 124050745.584 6                  23606080.781
        38.000
                  90483039.457 6  21793529.883                    21793531.445
                        41.900
                  91515378.633 6  21980370.328                    21980371.500
                        41.500
 124290487.419 7  96849767.82344  23651695.539                    23651700.984
        42.400          28.100
 112402287.703 8  87586243.76745  21389453.617                    21389455.980
        48.200          34.800
                  90742915.410 5  21825436.906                    21825441.402
                        35.100
 123104776.004 7  95925817.44344  23426059.039                    23426066.137
        43.200          29.400
                                  21050385.883

 120368900.891 7  93793982.60045  22905440.820                    22905445.273
        43.700          31.000
 119721322.346 7  93289360.70145  22782209.594                    22782216.027
        44.600          31.300
 111804440.593 8  87120357.99446  21275678.906                    21275681.582
        52.700          37.500
 113602170.578 8  88521181.07345  21617773.844                    21617777.512
        48.500          35.000
 18  3 11 11 30  3.0000000  0 17G11R21R04R13R14G20R22R03G24G28R05G30
                                R12G10G08G15G13
 124462346.563 7  96983794.17744  23684430.445                    23684432.121
        44.500          25.100
                  85676060.678 6  20585084.727                    20585085.063
                        41.800
                  82521258.745 7  19813198.172                    19813198.715
                        42.100
                  80950873.502 6  19490783.906                    19490785.207
                        40.400
                  93146003.506 6  22466508.648                    22466512.988
                        40.500
 124054402.670 6                  23606778.258
        39.900
                  90480566.660 7  21792935.203                    21792935.785
                        42.000
                  91518828.800 6  21981198.789                    21981200.285
                        41.100
 124287172.989 6  96847185.14944  23651064.070                    23651070.188
        41.400          27.700
 112402556.188 8  87586452.97645  21389504.555                    21389507.098
        48.400          34.700
                  90740427.412 5  21824839.680                    21824842.848
                        34.100
 123108599.432 7  95928796.72145  23426788.734                    23426794.172
        45.100          30.100
                                  21051099.977

 120367032.929 7  93792527.02745  22905085.680                    22905089.930
        44.300          31.700
 119723590.604 7  93291128.17145  22782640.641                    22782648.176
        44.700          32.500
 111805492.126 8  87121177.36946  21275878.547                    21275881.602
        53.000          37.300
 113604834.685 8  88523256.98645  21618281.555                    21618284.227
        49.300          35.600
 18  3 11 11 30  4.0000000  0 17G11R21R04R13R14G20R22R03G24G28R05G30
                                R12G10G08G15G13
 124459835.529 7  96981837.52244  23683952.391                    23683954.465
        44.600          26.200
                  85676883.461 6  20585281.563                    20585283.098
                        41.800
                  82521764.273 6  19813319.766                    19813319.871
                        41.900
                  80950133.854 6  19490606.133                    19490606.801
                        40.400
                  93142942.611 6  22465771.070                    22465775.555
                        41.600
 124058060.065 6                  23607475.234
        41.400
                  90478094.309 6  21792340.086                    21792340.664
                        41.900
                  91522279.262 6  21982027.688                    21982028.418
                        41.200
 124283858.791 6  96844602.66544  23650433.383                    23650439.570
        41.600          26.700
 112402825.263 7  87586662.64645  21389555.766                    21389557.859
        47.800          34.800
                  90737939.826 5  21824241.766                    21824244.750
                        32.900
 123112423.090 7  95931776.19145  23427516.211                    23427521.828
        45.400          30.600
                                  21051815.477

 120365165.491 7  93791071.86845  22904730.805                    22904734.418
        45.000          31.600
 119725859.455 7  93292896.10545  22783072.375                    22783079.734
        44.000          31.900
 111806544.317 8  87121997.26646  21276079.156                    21276081.715
        52.600          37.400
 113607499.323 8  88525333.32045  21618788.906                    21618791.320
        49.300          35.300
 18  3 11 11 30  5.0000000  0 17G11R21R04R13R14G20R22R03G24G28R05G30
                                R12G10G08G15G13
 124457324.990 7  96979881.25644  23683473.242                    23683477.129
        44.000          26.500
                  85677706.981 6  20585479.750                    20585480.500
                        41.700
                  82522270.521 7  19813441.320                    19813441.586
                        42.100
                  80949394.850 6  19490427.797                    19490428.785
                        40.400
                  93139882.007 7  22465033.891                    22465038.254
                        42.100
 124061717.762 7                  23608171.336
        42.700
                  90475622.428 6  21791743.773                    21791745.000
                        41.600
                  91525730.085 6  21982856.359                    21982857.738
                        41.700
 124280544.860 6  96842020.39344  23649803.078                    23649809.055
        41.100          26.200
 112403094.970 7  87586872.81145  21389606.758                    21389609.270
        47.900          35.200
                  90735452.687 5  21823643.078                    21823645.555
                        32.500
 123116247.051 7  95934755.90444  23428244.102                    23428249.961
        45.600          29.100
                                  21052530.766

 120363298.636 7  93789617.16045  22904375.344                    22904379.637
        45.300          32.300
 119728128.915 7  93294664.51445  22783504.898                    22783511.527
        44.000          31.800
 111807597.229 8  87122817.72146  21276279.477                    21276282.133
        52.600          37.500
 113610164.539 8  88527410.11245  21619295.703                    21619298.742
        49.100          35.100
 18  3 11 11 30  6.0000000  0 17G11R21R04R13R14G20R22R03G24G28R05G30
                                R12G10G08G15G13
 124454814.922 7  96977925.34744  23682995.750                    23682999.297
        43.400          24.900
                  85678531.254 6  20585677.695                    20585678.852
                        41.700
                  82522777.506 7  19813562.297                    19813562.953
                        42.200
                  80948656.492 6  19490250.227                    19490251.320
                        40.300
                  93136821.571 7  22464296.273                    22464300.207
                        42.600
 124065375.802 7                  23608867.836
        44.000
                  90473151.023 6  21791149.125                    21791149.801
                        41.400
                  91529181.207 6  21983685.773                    21983686.770
                        41.700
 124277231.183 6  96839438.31444  23649173.086                    23649178.594
        41.300          26.900
 112403365.252 8  87587083.41445  21389658.117                    21389661.004
        48.200          35.100
                  90732965.971 5  21823046.148                    21823047.516
                        31.100
 123120071.294 7  95937735.84544  23428969.672                    23428976.953
        43.800          29.600
                                  21053245.891

 120361432.325 7  93788162.89045  22904020.063                    22904024.090
        44.900          33.200
 119730398.968 7  93296433.38245  22783936.508                    22783943.457
        44.500          32.800
 111808650.813 8  87123638.69846  21276479.500                    21276482.566
        52.100          37.400
 113612830.303 8  88529487.33345  21619803.195                    21619806.012
        48.900          35.800
 18  3 11 11 30  7.0000000  0 17G11R21R04R13R14G20R22R03G24G28R05G30
                                R12G10G08G15G13
 124452305.378 7  96975969.86144  23682517.859                    23682521.836
        43.600          24.500
                  85679356.339 6  20585876.000                    20585876.992
                        41.700
                  82523285.265 7  19813684.195                    19813685.277
                        42.300
                  80947918.827 6  19490072.617                    19490072.828
                        40.100
                  93133761.393 7  22463558.477                    22463561.754
                        42.300
 124069034.218 7                  23609564.195
        44.500
                  90470680.127 6  21790553.250                    21790554.613
                        41.300
                  91532632.696 6  21984514.914                    21984515.355
                        41.600
 124273917.855 6  96836856.51644  23648542.141                    23648548.238
        41.500          25.700
 112403636.183 8  87587294.53045  21389710.125                    21389712.125
        48.400          35.100
                  90730479.704 5  21822447.867                    21822448.965
                        31.300
 123123895.892 7  95940716.05045  23429698.320                    23429704.512
        43.800          30.700
                                  21053961.844

 120359566.633 7  93786709.09845  22903664.891                    22903669.887
        45.500          33.500
 119732669.677 7  93298202.75245  22784369.672                    22784375.789
        44.600          31.900
 111809705.157 8  87124460.26546  21276680.125                    21276683.383
        52.100          37.500
 113615496.706 8  88531565.05345  21620310.422                    21620313.328
        49.000          35.500
 18  3 11 11 30  8.0000000  0 17G11R21R04R13R14G20R22R03G24G28R05G30
                                R12G10G08G15G13
 124449796.341 7  96974014.76944  23682041.398                    23682044.344
        43.900          26.700
                  85680182.177 6  20586074.219                    20586076.395
                        41.800
                  82523793.762 7  19813807.422                    19813807.004
                        42.100
                  80947181.812 6  19489894.828                    19489895.605
                        40.200
                  93130701.414 7  22462821.648                    22462824.184
                        42.800
 124072692.980 7  96680034.28454  23610260.234                    23610253.063
        44.900          29.000
                  90468209.735 6  21789957.398                    21789960.066
                        41.200
                  91536084.504 6  21985343.219                    21985345.219
                        41.700
 124270604.745 7  96834274.88044  23647911.922                    23647917.754
        42.100          27.000
 112403907.744 8  87587506.13245  21389761.641                    21389763.926
        48.600          35.400
                  90727993.875 5  21821849.570                    21821850.766
                        30.000
 123127720.749 7  95943696.44745  23430426.383                    23430432.566
        44.000          30.500
                                  21054677.219

 120357701.507 7  93785255.74345  22903310.414                    22903315.305
        44.900          33.700
 119734940.965 7  93299972.57045  22784802.188                    22784807.617
        44.800          31.900
 111810760.209 8  87125282.38246  21276881.047                    21276884.207
        52.200          37.500
 113618163.667 8  88533643.20945  21620818.125                    21620820.875
        49.600          35.500
 18  3 11 11 30  9.0000000  0 17G11R21R04R13R14G20R22R03G24G28R05G30
                                R12G10G08G15G13
 124447287.808 7  96972060.08844  23681564.133                    23681566.988
        44.200          26.200
                  85681008.744 6  20586272.406                    20586274.531
                        41.800
                  82524302.974 6  19813928.969                    19813929.184
                        41.900
                  80946445.435 6  19489717.664                    19489718.551
                        39.800
                  93127641.646 7  22462083.852                    22462085.996
                        42.800
 124076352.033 7  96682885.52344  23610956.219                    23610953.105
        44.300          25.400
                  90465739.785 6  21789362.383                    21789364.859
                        41.400
                  91539536.660 6  21986172.102                    21986174.473
                        41.700
 124267291.880 7  96831693.42044  23647281.547                    23647287.164
        42.100          26.800
 112404179.875 8  87587718.18845  21389813.398                    21389816.258
        48.800          34.700
                  90725508.436 4  21821251.109                    21821253.035
                        28.300
 123131545.854 7  95946677.03645  23431154.781                    23431160.242
        44.300          30.200
                                  21055393.117

 120355836.920 7  93783802.80945  22902955.383                    22902960.727
        44.200          34.200
 119737212.818 7  93301742.84545  22785234.469                    22785240.547
        44.900          32.400
 111811815.930 8  87126105.02046  21277081.656                    21277084.707
        52.100          37.700
 113620831.173 8  88535721.79245  21621325.391                    21621328.133
        49.900          35.200
 18  3 11 11 30 10.0000000  0 17G11R21R04R13R14G20R22R03G24G28R05G30
                                R12G10G08G15G13
 124444779.739 7  96970105.75144  23681086.844                    23681090.289
        43.900          24.700
                  85681836.072 6  20586470.859                    20586473.313
                        41.900
                  82524812.916 7  19814051.258                    19814052.398
                        42.100
                  80945709.701 6  19489540.641                    19489541.527
                        40.200
                  93124582.114 7  22461345.383                    22461347.605
                        42.600
 124080011.458 7  96685737.03044  23611652.281                    23611651.477
        44.200          24.300
                  90463270.316 6  21788768.695                    21788769.855
                        41.500
                  91542989.108 6  21987000.625                    21987003.344
                        41.800
 124263979.282 7  96829112.16144  23646651.297                    23646657.063
        42.300          26.200
 112404452.614 8  87587930.71345  21389865.227                    21389867.867
        48.700          35.100
                  90723023.434 4  21820654.406                    21820654.238
                        28.800
 123135371.264 7  95949657.87544  23431882.297                    23431888.691
        44.200          29.900
                                  21056109.289

 120353972.859 7  93782350.28445  22902600.367                    22902605.984
        44.400          33.600
 119739485.261 7  93303513.58245  22785666.320                    22785672.746
        44.700          32.500
 111812872.366 8  87126928.22346  21277282.883                    21277285.953
        52.200          37.400
 113623499.252 8  88537800.82145  21621832.594                    21621836.172
        49.200          35.300
 18  3 11 11 30 11.0000000  0 17G11R21R04R13R14G20R22R03G24G28R05G30
                                R12G10G08G15G13
 124442272.177 7  96968151.80544  23680608.883                    23680613.141
        43.500          25.700
                  85682664.145 6  20586670.078                    20586672.242
                        41.600
                  82525323.604 7  19814174.281                    19814174.418
                        42.400
                  80944974.640 6  19489363.563                    19489364.480
                        40.200
                  93121522.812 7  22460608.031                    22460610.641
                        42.500
 124083671.241 7  96688588.82844  23612348.883                    23612348.359
        43.800          25.000
                  90460801.328 6  21788173.930                    21788175.102
                        41.500
                  91546441.916 6  21987830.930                    21987832.590
                        41.900
 124260666.954 7  96826531.12644  23646021.078                    23646026.730
        42.200          26.200
 112404726.002 8  87588143.74545  21389917.328                    21389919.660
        48.300          34.800
                  90720538.873 4  21820056.633                    21820056.332
                        29.600
 123139196.972 7  95952638.94744  23432610.875                    23432616.289
        44.700          29.600
                                  21056825.938

 120352109.436 7  93780898.26745  22902245.773                    22902252.504
        43.400          34.000
 119741758.399 7  93305284.86445  22786097.688                    22786105.184
        44.100          31.900
 111813929.519 8  87127751.97946  21277483.781                    21277487.004
        52.100          37.600
 113626167.934 8  88539880.31945  21622340.211                    21622344.102
        48.700          34.900
 18  3 11 11 30 12.0000000  0 17G11R21R04R13R14G20R22R03G24G28R05G30
                                R12G10G08G15G13
 124439765.032 7  96966198.18744  23680131.297                    23680136.313
        43.000          25.100
                  85683492.925 6  20586869.609                    20586871.648
                        41.600
                  82525835.021 7  19814297.047                    19814297.148
                        42.600
                  80944240.199 6  19489186.172                    19489187.664
                        40.000
                  93118463.695 7  22459868.844                    22459872.234
                        42.100
 124087331.308 7  96691440.83443  23613044.664                    23613045.871
        43.000          23.500
                  90458332.806 6  21787579.773                    21787580.824
                        41.800
                  91549895.027 7  21988660.070                    21988661.980
                        42.000
 124257354.826 6  96823950.22944  23645390.672                    23645396.543
        41.800          27.400
 112404999.928 8  87588357.19445  21389969.117                    21389971.836
        48.200          35.100
                  90718054.729 5  21819458.813                    21819459.063
                        30.300
 123143022.899 7  95955620.18544  23433338.367                    23433344.465
        44.700          28.900
                                  21057541.563

 120350246.498 7  93779446.62345  22901890.906                    22901898.488
        43.500          34.100
 119744032.065 7  93307056.54945  22786531.773                    22786538.000
        44.600          32.200
 111814987.313 8  87128576.23546  21277685.164                    21277688.383
        51.700          37.400
 113628837.167 8  88541960.24245  21622848.320                    21622851.848
        48.500          35.400
 18  3 11 11 30 13.0000000  0 17G11R21R04R13R14G20R22R03G24G28R05G30
                                R12G10G08G15G13
 124437258.406 7  96964244.97944  23679655.180                    23679659.160
        43.200          24.500
                  85684322.503 6  20587069.078                    20587070.773
                        41.700
                  82526347.183 7  19814419.984                    19814420.141
                        42.100
                  80943506.445 6  19489010.422                    19489010.980
                        39.900
                  93115404.827 6  22459131.859                    22459134.246
                        41.600
 124090991.746 7  96694293.12443  23613740.555                    23613742.297
        42.000          22.900
                  90455864.755 7  21786984.789                    21786986.996
                        42.000
                  91553348.495 6  21989489.594                    21989490.941
                        41.900
 124254042.989 6  96821369.57744  23644760.180                    23644765.844
        41.600          28.000
 112405274.492 8  87588571.14245  21390021.547                    21390024.328
        48.100          35.000
                  90715571.016 5  21818861.023                    21818862.094
                        30.800
 123146849.158 7  95958601.68945  23434066.813                    23434072.738
        44.900          30.600
                                  21058257.852

 120348384.173 7  93777995.46245  22901536.328                    22901544.188
        43.400          34.100
 119746306.371 7  93308828.72545  22786964.727                    22786970.723
        45.200          31.900
 111816045.852 8  87129401.07246  21277886.625                    21277889.707
        51.900          37.300
 113631506.991 8  88544040.60745  21623356.695                    21623359.535
        49.000          35.600
 18  3 11 11 30 14.0000000  0 17G11R21R04R13R14G20R22R03G24G28R05G30
                                R12G10G08G15G13
 124434752.274 7  96962292.16544  23679178.469                    23679182.145
        43.900          25.600
                  85685152.818 6  20587268.844                    20587270.438
                        41.500
                  82526860.045 7  19814542.961                    19814543.441
                        42.300
                  80942773.313 6  19488833.898                    19488834.844
                        40.400
                  93112346.163 6  22458393.023                    22458394.824
                        40.800
 124094652.502 6  96697145.66643  23614437.414                    23614439.398
        40.400          22.200
                  90453397.195 6  21786390.273                    21786392.383
                        41.900
                  91556802.286 6  21990319.250                    21990321.059
                        41.800
 124250731.380 6  96818789.10744  23644130.305                    23644135.957
        41.300          25.300
 112405549.662 8  87588785.56745  21390074.164                    21390076.543
        48.500          34.700
                  90713087.749 5  21818264.938                    21818265.086
                        32.800
 123150675.633 7  95961583.36145  23434794.586                    23434801.234
        44.300          30.000
                                  21058972.891

 120346522.373 7  93776544.72345  22901181.820                    22901189.980
        42.900          33.700
 119748581.237 7  93310601.34145  22787396.820                    22787403.449
        45.500          31.500
 111817105.074 8  87130226.43746  21278088.109                    21278091.289
        52.000          37.500
 113634177.352 8  88546121.39645  21623865.281                    21623867.914
        49.400          35.400
 18  3 11 11 30 15.0000000  0 17G11R21R04R13R14G20R22R03G24G28R05G30
                                R12G10G08G15G13
 124432246.673 7  96960339.75444  23678702.195                    23678705.313
        44.600          24.700
                  85685983.901 6  20587468.664                    20587469.457
                        41.600
                  82527373.646 7  19814666.016                    19814666.426
                        42.000
                  80942040.870 6  19488657.797                    19488658.313
                        40.600
                  93109287.752 6  22457654.367                    22457656.613
                        40.000
 124098313.622 6  96699998.48843  23615132.813                    23615136.137
        38.900          21.300
                  90450930.121 6  21785795.742                    21785798.074
                        41.400
                  91560256.426 6  21991148.664                    21991150.203
                        41.700
 124247420.049 6  96816208.85244  23643499.445                    23643505.996
        40.800          26.900
 112405825.464 8  87589000.47645  21390126.242                    21390128.984
        48.200          34.600
                  90710604.961 5  21817666.445                    21817668.461
                        33.000
 123154502.515 7  95964565.35545  23435522.102                    23435529.711
        43.900          30.000
                                  21059689.430

 120344661.166 6  93775094.44045  22900827.469                    22900836.645
        41.700          33.500
 119750856.762 7  93312374.48245  22787829.719                    22787836.039
        45.500          32.100
 111818165.021 8  87131052.36846  21278290.086                    21278292.980
        52.000          37.400
 113636848.313 8  88548202.66745  21624373.531                    21624375.965
        49.700          35.700
 18  3 11 11 30 16.0000000  0 17G11R21R04R13R14G20R22R03G24G28R05G30
                                R12G10G08G15G13
 124429741.536 7  96958387.69644  23678224.938                    23678228.582
        44.700          25.300
                  85686815.729 6  20587668.117                    20587670.117
                        41.800
                  82527887.978 7  19814789.688                    19814789.949
                        42.000
                  80941309.055 6  19488480.781                    19488481.969
                        40.400
                  93106229.510 6  22456915.906                    22456918.465
                        39.200
 124101975.052 5  96702851.53843  23615828.078                    23615832.707
        35.700          19.900
                  90448463.514 6  21785203.109                    21785203.773
                        41.400
                  91563710.888 6  21991978.789                    21991980.023
                        41.000
 124244108.994 6  96813628.80744  23642869.188                    23642875.727
        40.600          24.700
 112406101.833 8  87589215.83345  21390179.070                    21390181.262
        48.000          34.500
                  90708122.574 5  21817069.852                    21817072.035
                        33.800
 123158329.563 7  95967547.45644  23436251.516                    23436257.500
        45.200          29.700
                                  21060406.234

 120342800.500 6  93773644.58045  22900472.992                    22900482.699
        41.600          33.100
 119753132.862 7  93314148.06445  22788263.180                    22788269.258
        45.000          32.600
 111819225.645 8  87131878.82146  21278492.094                    21278495.020
        51.900          37.400
 113639519.856 8  88550284.39346  21624881.422                    21624884.832
        49.500          36.200
 18  3 11 11 30 17.0000000  0 17G11R21R04R13R14G20R22R03G24G28R05G30
                                R12G10G08G15G13
 124427236.909 7  96956436.04144  23677748.070                    23677752.113
        43.400          25.600
                  85687648.302 6  20587869.109                    20587870.129
                        41.900
                  82528403.059 7  19814913.313                    19814913.629
                        42.000
                  80940577.916 6  19488305.117                    19488305.629
                        40.400
                  93103171.506 6  22456178.203                    22456180.488
                        38.400
 124105636.937 5  96705704.95643  23616522.156                    23616529.988
        31.200          18.300
                  90445997.378 6  21784607.953                    21784609.719
                        41.600
                  91567165.697 6  21992808.547                    21992809.918
                        40.900
 124240798.220 6  96811048.99344  23642239.688                    23642246.105
        41.000          26.000
 112406378.827 7  87589431.66645  21390231.898                    21390234.375
        47.800          34.900
                  90705640.635 5  21816473.477                    21816476.406
                        35.200
 123162156.943 7  95970529.82544  23436979.648                    23436985.578
        44.900          29.200
                                  21061123.281

 120340940.413 6  93772195.18345  22900118.578                    22900128.781
        41.300          32.600
 119755409.550 7  93315922.11345  22788696.727                    22788702.387
        45.800          32.200
 111820286.977 8  87132705.84146  21278693.781                    21278696.770
        52.200          37.300
 113642191.967 8  88552366.56045  21625390.086                    21625393.238
        49.700          35.400
 18  3 11 11 30 18.0000000  0 17G11R21R04R13R14G20R22R03G24G28R05G30
                                R12G10G08G15G13
 124424732.775 7  96954484.75944  23677271.547                    23677275.781
        43.000          24.100
                  85688481.664 6  20588069.469                    20588070.570
                        41.600
                  82528918.881 7  19815037.094                    19815038.105
                        42.100
                  80939847.419 6  19488128.648                    19488130.254
                        40.200
                  93100113.745 6  22455441.102                    22455442.559
                        39.100
 124109299.74814                  23617216.555
        29.400
                  90443531.726 6  21784014.391                    21784015.254
                        41.700
                  91570620.864 6  21993637.711                    21993639.543
                        41.300
 124237487.697 6  96808469.38144  23641609.797                    23641615.461
        40.700          25.900
 112406656.484 7  87589648.02745  21390284.766                    21390286.934
        47.400          34.900
                  90703159.138 5  21815876.336                    21815879.035
                        35.700
 123165984.599 7  95973512.41044  23437708.750                    23437714.422
        45.800          29.300
                                  21061839.906

 120339080.890 6  93770746.21945  22899765.164                    22899775.156
        41.200          32.800
 119757686.869 7  93317696.65645  22789129.219                    22789135.730
        45.300          31.700
 111821349.031 8  87133533.41146  21278896.156                    21278898.980
        52.000          37.400
 113644864.665 8  88554449.18045  21625899.055                    21625901.730
        49.500          35.700
 18  3 11 11 30 19.0000000  0 17G11R21R04R13R14G20R22R03G24G28R05G30
                                R12G10G08G15G13
 124422229.110 7  96952533.84243  23676794.469                    23676799.059
        42.400          23.600
                  85689315.771 6  20588270.180                    20588270.852
                        41.500
                  82529435.447 6  19815161.383                    19815161.664
                        41.800
                  80939117.586 6  19487953.195                    19487954.555
                        40.000
                  93097056.241 6  22454704.109                    22454705.711
                        39.600
 124112961.804 5  96711412.47952  23617916.320                    23617923.324
        32.500          15.600
                  90441066.610 6  21783422.148                    21783421.977
                        41.300
                  91574076.347 6  21994467.984                    21994469.738
                        41.400
 124234177.459 6  96805889.98144  23640979.320                    23640985.910
        40.900          25.800
 112406934.708 7  87589864.82245  21390337.578                    21390340.086
        47.500          35.100
                  90700678.102 5  21815280.242                    21815283.070
                        35.800
 123169812.576 7  95976495.26144  23438435.563                    23438443.125
        45.000          28.700
                                  21062557.016

 120337221.953 6  93769297.72845  22899411.125                    22899421.203
        40.500          33.000
 119759964.813 7  93319471.69345  22789562.461                    22789568.754
        45.400          31.500
 111822411.793 8  87134361.54146  21279098.250                    21279101.438
        52.300          37.100
 113647537.936 8  88556532.25345  21626407.844                    21626410.215
        49.800          35.500
 18  3 11 11 30 20.0000000  0 17G11R21R04R13R14G20R22R03G24G28R05G30
                                R12G10G08G15G13
 124419725.978 7  96950583.36744  23676318.711                    23676322.930
        43.200          25.800
                  85690150.632 6  20588470.625                    20588471.586
                        41.400
                  82529952.729 6  19815285.344                    19815285.469
                        41.500
                  80938388.414 6  19487777.422                    19487778.434
                        40.000
                  93093998.930 6  22453968.141                    22453968.270
                        40.400
 124116624.689 6  96714266.60142  23618617.750                    23618620.219
        36.200          14.800
                  90438601.911 6  21782827.492                    21782828.172
                        41.300
                  91577532.162 6  21995298.117                    21995299.859
                        41.700
 124230867.450 6  96803310.75744  23640350.453                    23640355.699
        41.300          26.500
 112407213.565 7  87590082.10845  21390390.664                    21390393.191
        47.700          34.500
                  90698197.487 6  21814684.352                    21814686.813
                        36.000
 123173640.824 7  95979478.30444  23439164.766                    23439170.730
        44.900          28.400
                                  21063273.625

 120335363.570 6  93767849.65845  22899057.789                    22899068.086
        40.900          32.700
 119762243.372 7  93321247.19745  22789996.320                    22790002.285
        45.300          30.900
 111823475.249 8  87135190.21446  21279300.320                    21279303.469
        52.300          37.200
 113650211.753 8  88558615.74845  21626916.539                    21626919.281
        49.600          35.100
 18  3 11 11 30 21.0000000  0 17G11R21R04R13R14G20R22R03G24G28R05G30
                                R12G10G08G15G13
 124417223.355 7  96948633.28843  23675842.688                    23675846.477
        43.900          23.400
                  85690986.267 6  20588671.609                    20588672.145
                        41.100
                  82530470.799 6  19815410.266                    19815409.801
                        41.800
                  80937659.899 6  19487602.625                    19487603.551
                        39.900
                  93090941.886 6  22453231.328                    22453232.414
                        41.100
 124120287.855 6  96717120.97642  23619315.438                    23619317.594
        39.200          15.600
                  90436137.720 6  21782232.891                    21782234.184
                        41.500
                  91580988.315 6  21996128.000                    21996129.324
                        41.800
 124227557.756 6  96800731.77044  23639721.195                    23639726.578
        41.300          26.800
 112407493.048 7  87590299.88645  21390443.984                    21390446.254
        47.600          34.600
                  90695717.328 5  21814088.656                    21814090.297
                        35.900
 123177469.345 7  95982461.56344  23439893.984                    23439899.699
        44.900          28.900
                                  21063990.078

 120333505.750 6  93766402.03045  22898704.625                    22898714.672
        40.800          31.900
 119764522.525 7  93323023.16045  22790429.914                    22790436.156
        45.200          30.900
 111824539.419 8  87136019.43846  21279503.188                    21279506.000
        52.100          37.100
 113652886.188 8  88560699.73845  21627425.195                    21627428.363
        48.800          35.000
 18  3 11 11 30 22.0000000  0 17G11R21R04R13R14G20R22R03G24G28R05G30
                                R12G10G08G15G13
 124414721.218 7  96946683.58244  23675366.953                    23675370.066
        44.700          25.300
                  85691822.646 6  20588872.422                    20588872.941
                        41.400
                  82530989.592 6  19815534.742                    19815535.156
                        41.900
                  80936932.040 6  19487427.281                    19487428.016
                        40.100
                  93087885.071 6  22452494.055                    22452495.457
                        41.800
 124123951.382 6  96719975.69842  23620014.070                    23620014.395
        40.800          17.400
                  90433674.026 6  21781640.320                    21781641.539
                        41.600
                  91584444.808 6  21996958.258                    21996959.480
                        41.600
 124224248.270 6  96798152.94044  23639091.063                    23639096.453
        41.400          25.500
 112407773.113 7  87590518.11945  21390497.078                    21390499.656
        47.900          34.700
                  90693237.581 5  21813490.414                    21813494.012
                        35.300
 123181298.144 7  95985445.05144  23440622.359                    23440628.230
        44.900          28.800
                                  21064706.078

 120331648.502 6  93764954.84445  22898351.820                    22898360.918
        41.300          31.900
 119766802.279 7  93324799.59345  22790863.781                    22790869.480
        44.900          30.900
 111825604.299 8  87136849.21646  21279705.672                    21279708.691
        51.900          37.300
 113655561.181 8  88562784.15545  21627933.406                    21627937.410
        48.500          35.400
 18  3 11 11 30 23.0000000  0 17G11R21R04R13R14G20R22R03G24G28R05G30
                                R12G10G08G15G13
 124412219.505 7  96944734.19144  23674890.547                    23674894.027
        43.800          25.300
                  85692659.690 6  20589073.711                    20589074.563
                        41.500
                  82531509.041 7  19815659.109                    19815660.137
                        42.200
                  80936204.770 6  19487252.328                    19487253.254
                        39.700
                  93084828.414 7  22451756.414                    22451758.945
                        42.600
 124127615.144 7  96722830.60643  23620711.070                    23620711.738
        42.600          19.000
                  90431210.707 6  21781047.141                    21781047.895
                        41.900
                  91587901.561 6  21997788.352                    21997790.219
                        41.600
 124220939.010 6  96795574.29344  23638461.078                    23638466.555
        41.400          25.800
 112408053.721 8  87590736.77645  21390550.625                    21390553.039
        48.000          35.100
                  90690758.219 5  21812894.414                    21812897.660
                        34.800
 123185127.156 7  95988428.69744  23441350.570                    23441356.832
        45.100          29.200
                                  21065425.055

 120329791.758 6  93763508.04545  22897998.320                    22898007.207
        41.700          32.300
 119769082.560 7  93326576.43845  22791297.813                    22791303.480
        43.800          31.600
 111826669.802 8  87137679.48246  21279907.891                    21279911.383
        51.900          37.300
 113658236.688 8  88564868.96545  21628443.094                    21628446.500
        48.000          35.400
 18  3 11 11 30 24.0000000  0 17G11R21R04R13R14G20R22R03G24G28R05G30
                                R12G10G08G15G13
 124409718.321 7  96942785.21544  23674414.672                    23674418.691
        43.400          25.800
                  85693497.575 6  20589275.195                    20589275.371
                        41.600
                  82532029.295 7  19815783.922                    19815784.230
                        42.000
                  80935478.207 6  19487076.609                    19487077.875
                        40.500
                  93081772.033 7  22451019.820                    22451022.703
                        43.200
 124131279.326 7  96725685.86843  23621408.570                    23621408.758
        43.500          19.600
                  90428747.969 6  21780455.422                    21780455.000
                        41.600
                  91591358.693 6  21998619.516                    21998620.434
                        41.900
 124217630.027 6  96792995.86143  23637831.531                    23637837.145
        41.000          23.800
 112408335.015 7  87590955.97145  21390603.609                    21390606.594
        47.900          34.600
                  90688279.344 5  21812297.703                    21812301.422
                        35.000
 123188956.540 7  95991412.63544  23442079.008                    23442085.469
        43.900          29.100
                                  21066141.664

 120327935.648 7  93762061.74045  22897645.461                    22897653.895
        42.100          31.600
 119771363.501 7  93328353.79645  22791731.336                    22791737.219
        43.500          32.000
 111827736.061 8  87138510.33246  21280111.438                    21280114.063
        52.000          37.100
 113660912.808 8  88566954.24745  21628952.617                    21628955.340
        48.300          35.100
 18  3 11 11 30 25.0000000  0 17G11R21R04R13R14G20R22R03G24G28R05G30
                                R12G10G08G15G13
 124407217.621 7  96940836.59644  23673938.469                    23673942.703
        43.000          25.200
                  85694336.220 6  20589475.984                    20589476.910
                        41.400
                  82532550.278 6  19815909.383                    19815909.883
                        41.900
                  80934752.306 6  19486901.391                    19486903.070
                        40.000
                  93078715.854 7  22450282.273                    22450285.238
                        43.000
 124134943.818 7  96728541.37743  23622105.742                    23622105.656
        43.800          20.100
                  90426285.617 6  21779860.414                    21779861.625
                        41.300
                  91594816.130 6  21999449.922                    21999451.242
                        41.600
 124214321.326 6  96790417.64344  23637200.906                    23637207.105
        40.700          26.100
 112408616.881 7  87591175.60945  21390657.398                    21390660.352
        47.800          34.400
                  90685800.912 5  21811700.508                    21811704.703
                        34.000
 123192786.179 7  95994396.75544  23442807.805                    23442814.211
        44.100          29.600
                                  21066858.914

 120326080.089 7  93760615.85445  22897292.414                    22897300.594
        42.900          31.400
 119773645.043 7  93330131.62145  22792165.953                    22792171.543
        43.100          31.400
 111828803.017 8  87139341.72446  21280314.414                    21280317.109
        52.100          37.500
 113663589.490 8  88569039.96045  21629462.227                    21629464.816
        48.300          35.200
 18  3 11 11 30 26.0000000  0 17G11R21R04R13R14G20R22R03G24G28R05G30
                                R12G10G08G15G13
 124404717.361 7  96938888.34343  23673462.281                    23673466.926
        42.000          22.800
                  85695175.565 6  20589677.438                    20589678.605
                        41.500
                  82533071.933 6  19816034.484                    19816035.395
                        41.700
                  80934027.010 6  19486727.984                    19486728.371
                        40.300
                  93075659.876 7  22449545.961                    22449548.445
                        42.600
 124138608.604 7  96731397.09743  23622803.656                    23622803.262
        44.500          20.900
                  90423823.773 6  21779267.453                    21779268.621
                        41.200
                  91598273.864 6  22000280.492                    22000281.707
                        41.500
 124211012.854 6  96787839.61344  23636571.984                    23636577.707
        40.600          25.700
 112408899.330 8  87591395.69845  21390711.500                    21390714.059
        48.200          34.900
                  90683322.878 5  21811103.734                    21811108.684
                        32.800
 123196616.040 7  95997381.05144  23443537.539                    23443542.934
        45.300          29.100
                                  21067576.945

 120324225.059 7  93759170.38245  22896939.422                    22896947.543
        43.500          30.900
 119775927.142 7  93331909.87745  22792600.875                    22792605.379
        43.600          31.400
 111829870.600 8  87140173.60246  21280517.164                    21280520.113
        51.600          37.300
 113666266.690 8  88571126.09045  21629971.383                    21629974.395
        48.300          35.500
 18  3 11 11 30 27.0000000  0 17G11R21R04R13R14G20R22R03G24G28R05G30
                                R12G10G08G15G13
 124402217.581 7  96936940.47644  23672986.758                    23672991.078
        42.400          24.600
                  85696015.641 6  20589878.953                    20589880.102
                        41.800
                  82533594.303 7  19816159.500                    19816160.152
                        42.100
                  80933302.376 6  19486554.203                    19486554.418
                        40.200
                  93072604.125 7  22448808.445                    22448810.945
                        42.800
 124142273.719 7  96734253.06643  23623500.875                    23623500.461
        44.300          22.000
                  90421362.374 6  21778673.578                    21778675.957
                        41.200
                  91601731.937 6  22001111.148                    22001112.258
                        41.200
 124207704.611 6  96785261.75944  23635942.344                    23635948.004
        40.000          26.200
 112409182.375 8  87591616.24845  21390765.172                    21390767.746
        48.400          34.900
                  90680845.275 5  21810507.289                    21810511.387
                        31.500
 123200446.177 7  96000365.57344  23444266.555                    23444272.191
        44.800          29.800
                                  21068293.766

 120322370.574 7  93757725.33045  22896587.039                    22896594.059
        43.900          30.500
 119778209.841 7  93333688.59845  22793035.125                    22793040.020
        44.100          31.100
 111830938.913 8  87141006.06046  21280720.789                    21280723.531
        51.600          37.600
 113668944.483 8  88573212.68845  21630480.828                    21630483.824
        48.100          34.900
 18  3 11 11 30 28.0000000  0 17G11R21R04R13R14G20R22R03G24G28R05G30
                                R12G10G08G15G13
 124399718.338 7  96934993.03844  23672511.859                    23672515.137
        42.700          24.500
                  85696856.446 6  20590081.031                    20590082.074
                        41.000
                  82534117.425 6  19816285.672                    19816285.871
                        41.500
                  80932578.390 6  19486379.477                    19486380.090
                        39.600
                  93069548.609 6  22448070.609                    22448074.047
                        41.600
 124145939.175 7  96737109.27943  23624197.719                    23624198.004
        43.500          22.500
                  90418901.482 6  21778081.328                    21778083.250
                        40.800
                  91605190.324 6  22001941.352                    22001942.531
                        40.500
 124204396.656 6  96782684.14744  23635312.500                    23635318.980
        40.000          25.000
 112409466.037 7  87591837.28845  21390819.156                    21390821.785
        47.900          34.200
                  90678368.089 4  21809912.031                    21809915.250
                        29.100
 123204276.604 7  96003350.32644  23444994.914                    23445000.914
        44.500          29.000
                                  21069011.984

 120320516.666 7  93756280.72344  22896233.570                    22896240.738
        44.300          29.200
 119780493.137 7  93335467.79445  22793468.711                    22793474.348
        43.100          30.000
 111832007.912 8  87141839.04046  21280924.313                    21280927.137
        51.500          37.000
 113671622.831 8  88575299.71345  21630990.797                    21630993.379
        48.100          34.700
 18  3 11 11 30 29.0000000  0 17G11R21R04R13R14G20R22R03G24G28R05G30
                                R12G10G08G15G13
 124397219.605 7  96933045.98043  23672036.266                    23672039.973
        43.000          23.800
                  85697698.072 6  20590283.000                    20590284.637
                        41.900
                  82534641.322 7  19816411.570                    19816412.121
                        42.000
                  80931855.098 6  19486204.953                    19486205.340
                        40.500
                  93066493.314 6  22447331.961                    22447336.785
                        41.800
 124149605.016 7  96739965.78943  23624895.555                    23624895.930
        43.200          22.800
                  90416441.105 6  21777490.234                    21777491.105
                        41.000
                  91608649.091 6  22002772.305                    22002773.523
                        41.400
 124201088.980 6  96780106.75244  23634683.602                    23634689.352
        40.400          25.400
 112409750.347 8  87592058.82845  21390873.250                    21390875.930
        48.100          34.800
                  90675891.334 4  21809316.906                    21809319.094
                        25.900
 123208107.312 7  96006335.28444  23445723.977                    23445729.980
        45.200          29.200
                                  21069729.227

 120318663.340 7  93754836.55344  22895881.141                    22895887.250
        44.500          29.300
 119782777.114 7  93337247.52045  22793902.805                    22793909.758
        42.600          31.300
 111833077.634 8  87142672.58646  21281127.820                    21281130.824
        51.800          37.400
 113674301.788 8  88577387.20645  21631501.367                    21631503.172
        49.200          35.900
 18  3 11 11 30 30.0000000  0 17G11R21R04R13R14G20R22R03G24G28R05G30
                                R12G10G08G15G13
 124394721.339 7  96931099.27243  23671560.461                    23671564.352
        42.500          23.000
                  85698540.479 6  20590485.117                    20590486.375
                        41.800
                  82535165.941 6  19816537.695                    19816537.605
                        41.800
                  80931132.416 6  19486031.188                    19486031.773
                        40.000
                  93063438.237 6  22446594.258                    22446599.836
                        41.300
 124153271.150 7  96742822.53043  23625592.797                    23625593.727
        42.300          22.200
                  90413981.168 6  21776895.445                    21776898.273
                        40.800
                  91612108.184 6  22003603.156                    22003603.910
                        41.200
 124197781.580 6  96777529.56844  23634053.664                    23634060.043
        40.400          25.300
 112410035.247 7  87592280.83145  21390927.594                    21390929.973
        47.900          34.400
                  90673414.948 4  21808721.563                    21808722.895
                        25.700
 123211938.335 7  96009320.50745  23446452.156                    23446459.031
        44.300          30.200
                                  21070447.172

 120316810.560 7  93753392.80244  22895528.297                    22895534.246
        44.600          29.000
 119785061.664 7  93339027.67345  22794339.359                    22794344.250
        43.400          31.600
 111834148.055 8  87143506.68446  21281331.711                    21281334.594
        52.100          37.200
 113676981.281 8  88579475.11745  21632011.063                    21632013.242
        50.000          35.700
 18  3 11 11 30 31.0000000  0 17G11R21R04R13R14G20R22R03G24G28R05G30
                                R12G10G08G15G13
 124392223.560 7  96929152.95644  23671085.086                    23671089.273
        42.100          24.000
                  85699383.558 6  20590688.211                    20590689.332
                        41.900
                  82535691.276 7  19816663.406                    19816663.902
                        42.000
                  80930410.346 6  19485857.070                    19485858.063
                        40.000
                  93060383.343 6  22445857.094                    22445862.320
                        40.700
 124156937.613 6  96745679.51843  23626290.453                    23626291.793
        41.300          22.000
                  90411521.715 6  21776303.672                    21776305.590
                        41.200
                  91615567.589 6  22004433.750                    22004435.129
                        41.300
 124194474.366 6  96774952.52644  23633424.805                    23633430.367
        40.500          25.700
 112410320.707 8  87592503.26745  21390981.750                    21390984.477
        48.200          34.900
                  90670938.977 4  21808126.930                    21808126.453
                        27.100
 123215769.574 7  96012305.88644  23447182.508                    23447187.695
        45.900          29.800
                                  21071165.320

 120314958.320 7  93751949.47644  22895175.672                    22895181.031
        44.300          27.800
 119787346.755 7  93340808.25145  22794774.695                    22794779.457
        44.500          32.400
 111835219.140 8  87144341.30246  21281535.188                    21281538.387
        51.800          37.300
 113679661.289 8  88581563.44545  21632520.508                    21632523.422
        49.900          35.500
 18  3 11 11 30 32.0000000  0 17G11R21R04R13R14G20R22R03G24G28R05G30
                                R12G10G08G15G13
 124389726.253 7  96927207.00844  23670610.391                    23670613.965
        43.000          24.800
                  85700227.374 6  20590889.789                    20590892.398
                        41.900
                  82536217.327 7  19816789.539                    19816790.188
                        42.000
                  80929688.976 6  19485683.672                    19485684.137
                        40.200
                  93057328.687 6  22445120.875                    22445124.637
                        39.200
 124160604.418 6  96748536.76643  23626987.766                    23626989.168
        40.100          21.100
                  90409062.745 6  21775711.602                    21775713.609
                        41.400
                  91619027.326 6  22005264.445                    22005266.316
                        41.200
 124191167.510 6  96772375.75744  23632795.648                    23632801.555
        40.900          25.100
 112410606.789 7  87592726.18445  21391036.344                    21391038.973
        47.800          34.400
                  90668463.445 4  21807532.320                    21807530.648
                        29.000
 123219601.079 7  96015291.48244  23447910.609                    23447916.871
        44.700          29.500
                                  21071882.734

 120313106.668 7  93750506.60044  22894823.586                    22894828.102
        43.900          28.600
 119789632.492 7  93342589.33845  22795209.742                    22795214.855
        44.700          32.700
 111836290.925 8  87145176.46546  21281738.922                    21281742.020
        51.900          37.300
 113682341.906 8  88583652.25545  21633029.938                    21633033.688
        50.000          35.700
 18  3 11 11 30 33.0000000  0 17G11R21R04R13R14G20R22R03G24G28R05G30
                                R12G10G08G15G13
 124387229.473 7  96925261.46243  23670135.047                    23670138.656
        43.800          23.600
                  85701071.994 6  20591093.102                    20591094.855
                        41.600
                  82536744.102 7  19816916.305                    19816916.207
                        42.200
                  80928968.232 6  19485509.734                    19485510.332
                        40.100
                  93054274.257 6  22444384.750                    22444386.949
                        38.900
 124164271.533 6  96751394.26743  23627684.688                    23627687.102
        37.100          20.900
                  90406604.261 6  21775120.789                    21775121.672
                        41.400
                  91622487.366 6  22006096.477                    22006096.676
                        41.700
 124187860.825 6  96769799.11344  23632166.695                    23632172.559
        40.400          25.100
 112410893.471 7  87592949.58045  21391090.789                    21391093.582
        47.800          34.800
                  90665988.391 5  21806938.148                    21806935.668
                        30.900
 123223432.918 7  96018277.33044  23448639.648                    23448646.203
        44.200          29.500
                                  21072601.219

 120311255.571 7  93749064.16044  22894471.359                    22894475.051
        43.900          28.500
 119791918.815 7  93344370.88545  22795644.508                    22795650.137
        45.200          32.800
 111837363.410 8  87146012.17146  21281943.461                    21281946.785
        51.500          37.200
 113685023.099 8  88585741.50845  21633540.250                    21633543.641
        49.500          35.900
 18  3 11 11 30 34.0000000  0 17G11R21R04R13R14G20R22R03G24G28R05G30
                                R12G10G08G15G13
 124384733.157 7  96923316.27843  23669660.492                    23669663.633
        43.900          23.900
                  85701917.337 6  20591296.336                    20591297.805
                        41.500
                  82537271.618 6  19817042.781                    19817043.055
                        41.900
                  80928248.135 6  19485336.211                    19485336.750
                        39.800
                  93051220.033 6  22443649.047                    22443649.188
                        38.400
 124167938.989 5  96754252.02143  23628380.625                    23628384.992
        34.600          19.300
                  90404146.201 6  21774529.016                    21774530.016
                        41.200
                  91625947.705 6  22006927.391                    22006928.121
                        41.300
 124184554.468 6  96767222.72444  23631536.773                    23631543.117
        40.500          25.200
 112411180.754 7  87593173.43845  21391145.383                    21391148.168
        47.300          34.900
                  90663513.769 5  21806342.977                    21806341.582
                        33.300
 123227264.967 7  96021263.33244  23449369.719                    23449375.375
        45.200          29.700
                                  21073319.523

 120309405.004 7  93747622.13944  22894119.086                    22894122.750
        43.700          29.400
 119794205.691 7  93346152.86845  22796079.273                    22796085.414
        45.200          32.300
 111838436.596 8  87146848.41546  21282146.828                    21282150.855
        51.200          37.400
 113687704.856 8  88587831.19046  21634050.766                    21634053.891
        48.700          36.000
 18  3 11 11 30 35.0000000  0 17G11R21R04R13R14G20R22R03G24G28R05G30
                                R12G10G08G15G13
 124382237.315 7  96921371.46344  23669185.367                    23669188.383
        43.400          24.200
                  85702763.396 6  20591499.789                    20591501.152
                        41.600
                  82537799.853 7  19817169.492                    19817170.133
                        42.100
                  80927528.680 6  19485162.844                    19485164.305
                        40.000
                  93048166.006 6  22442914.320                    22442912.895
                        38.500
 124171606.890 5  96757110.07743  23629076.297                    23629083.152
        32.400          18.300
                  90401688.604 6  21773936.141                    21773938.098
                        41.400
                  91629408.336 6  22007759.141                    22007759.652
                        41.400
 124181248.278 6  96764646.47644  23630908.008                    23630914.066
        40.400          24.500
 112411468.641 7  87593397.76545  21391200.586                    21391202.813
        47.500          34.800
                  90661039.630 5  21805749.047                    21805746.508
                        34.600
 123231097.294 7  96024249.55744  23450097.914                    23450104.543
        44.100          29.400
                                  21074037.508

 120307555.015 7  93746180.56344  22893766.867                    22893770.363
        43.700          29.700
 119796493.185 7  93347935.32345  22796514.820                    22796521.285
        44.900          33.200
 111839510.446 8  87147685.18046  21282351.930                    21282354.723
        51.000          37.300
 113690387.167 8  88589921.29345  21634561.188                    21634564.375
        49.300          35.400
 18  3 11 11 30 36.0000000  0 17G11R21R04R13R14G20R22R03G24G28R05G30
                                R12G10G08G15G13
 124379742.021 7  96919427.05844  23668709.992                    23668713.602
        42.300          24.600
                  85703610.236 6  20591703.102                    20591704.609
                        41.800
                  82538328.853 7  19817297.063                    19817296.730
                        42.100
                  80926809.910 6  19484990.305                    19484991.168
                        39.500
                  93045112.236 6  22442178.406                    22442175.738
                        39.000
 124175275.074 5  96759968.35042  23629773.219                    23629781.375
        30.800          17.400
                  90399231.532 6  21773344.898                    21773345.684
                        41.600
                  91632869.345 6  22008589.453                    22008591.137
                        41.500
 124177942.425 6  96762070.48843  23630278.703                    23630284.539
        39.800          22.800
 112411757.168 7  87593622.59145  21391255.461                    21391258.125
        47.600          34.400
                  90658565.960 5  21805153.414                    21805152.367
                        35.300
 123234929.957 7  96027236.04344  23450827.969                    23450833.965
        45.000          29.600
                                  21074756.117

 120305705.620 7  93744739.46944  22893414.945                    22893418.520
        43.500          29.300
 119798781.343 7  93349718.31145  22796950.047                    22796956.742
        44.700          32.800
 111840585.054 8  87148522.53246  21282556.336                    21282559.445
        51.000          36.900
 113693070.073 8  88592011.86445  21635071.984                    21635074.641
        49.100          35.700
 18  3 11 11 30 37.0000000  0 17G11R21R04R13R14G20R22R03G24G28R05G30
                                R12G10G08G15G13
 124377247.159 7  96917482.99443  23668234.602                    23668238.559
        42.200          23.000
                  85704457.829 6  20591906.172                    20591907.641
                        41.700
                  82538858.584 7  19817424.094                    19817423.727
                        42.100
                  80926091.788 6  19484817.063                    19484817.969
                        39.600
                  93042058.666 6  22441441.281                    22441440.156
                        39.900
 124178943.656 5  96762826.90842  23630471.539                    23630478.766
        31.900          17.800
                  90396774.927 6  21772754.016                    21772753.828
                        41.700
                  91636330.675 6  22009421.453                    22009422.059
                        41.400
 124174636.790 6  96759494.66844  23629649.695                    23629655.430
        39.500          24.300
 112412046.278 7  87593847.87145  21391310.344                    21391312.652
        47.800          34.600
                  90656092.704 5  21804558.594                    21804559.230
                        35.900
 123238762.877 7  96030222.73744  23451557.305                    23451563.578
        44.500          29.900
                                  21075473.891

 120303856.769 7  93743298.79844  22893062.711                    22893066.949
        43.400          29.700
 119801070.058 7  93351501.71445  22797385.430                    22797392.207
        45.200          33.100
 111841660.342 8  87149360.41546  21282761.203                    21282763.836
        51.900          37.100
 113695753.559 8  88594102.88145  21635582.070                    21635585.688
        48.400          34.700
 18  3 11 11 30 38.0000000  0 17G11R21R04R13R14G20R22R03G24G28R05G30
                                R12G10G08G15G13
 124374752.800 7  96915539.36343  23667760.570                    23667763.797
        42.000          22.900
                  85705306.205 6  20592110.211                    20592111.512
                        41.500
                  82539389.074 7  19817551.313                    19817551.582
                        42.200
                  80925374.322 6  19484643.977                    19484644.859
                        39.700
                  93039005.307 6  22440704.641                    22440704.727
                        40.800
 124182612.480 5  96765685.65342  23631172.234                    23631177.320
        35.300          17.800
                  90394318.797 6  21772161.148                    21772162.441
                        41.400
                  91639792.354 6  22010252.234                    22010253.355
                        41.300
 124171331.424 6  96756919.06444  23629020.320                    23629026.652
        40.100          25.300
 112412336.021 7  87594073.64445  21391365.305                    21391367.711
        47.900          35.000
                  90653619.882 6  21803963.531                    21803964.961
                        36.800
 123242596.072 7  96033209.64044  23452286.977                    23452292.750
        44.600          29.600
                                  21076193.125

 120302008.491 7  93741858.58145  22892711.164                    22892715.730
        42.400          31.100
 119803359.358 7  93353285.58045  22797821.547                    22797827.922
        45.400          33.300
 111842736.313 8  87150198.83346  21282966.383                    21282968.719
        51.900          37.600
 113698437.606 8  88596194.34745  21636092.695                    21636096.449
        48.100          34.800
 18  3 11 11 30 39.0000000  0 17G11R21R04R13R14G20R22R03G24G28R05G30
                                R12G10G08G15G13
 124372258.865 7  96913596.06443  23667286.406                    23667288.887
        42.600          22.200
                  85706155.243 6  20592314.383                    20592315.555
                        41.700
                  82539920.229 7  19817678.273                    19817679.449
                        42.000
                  80924657.460 6  19484471.961                    19484473.211
                        39.400
                  93035952.141 6  22439968.828                    22439968.980
                        41.700
 124186281.576 6  96768544.65242  23631872.000                    23631875.207
        37.800          17.800
                  90391863.098 6  21771569.070                    21771570.398
                        41.400
                  91643254.279 6  22011083.453                    22011085.055
                        41.500
 124168026.308 6  96754343.65443  23628391.250                    23628397.508
        39.500          23.400
 112412626.293 7  87594299.83345  21391420.141                    21391423.027
        47.900          34.200
                  90651147.406 6  21803367.633                    21803371.051
                        36.500
 123246429.472 7  96036196.69844  23453016.125                    23453021.941
        44.700          29.900
                                  21076912.430

 120300160.695 7  93740418.73745  22892359.406                    22892364.539
        42.000          31.900
 119805649.190 7  93355069.86345  22798257.281                    22798264.266
        46.000          33.400
 111843812.935 8  87151037.75946  21283170.867                    21283173.863
        51.700          37.100
 113701122.181 8  88598286.21245  21636604.086                    21636607.270
        48.900          34.600
 18  3 11 11 30 40.0000000  0 17G11R21R04R13R14G20R22R03G24G28R05G30
                                R12G10G08G15G13
 124369765.508 7  96911653.19343  23666812.758                    23666814.711
        43.800          22.900
                  85707005.072 6  20592518.828                    20592519.762
                        41.400
                  82540452.099 6  19817806.586                    19817806.832
                        41.800
                  80923941.269 6  19484299.773                    19484299.973
                        39.600
                  93032899.275 7  22439232.477                    22439233.820
                        42.300
 124189951.016 6  96771403.97242  23632572.211                    23632573.500
        39.300          17.800
                  90389407.929 6  21770977.883                    21770979.063
                        41.300
                  91646716.595 6  22011915.867                    22011916.836
                        41.400
 124164721.433 6  96751768.41943  23627762.484                    23627768.918
        39.900          22.800
 112412917.212 8  87594526.52245  21391475.906                    21391478.465
        48.200          34.400
                  90648675.402 5  21802770.688                    21802776.551
                        35.800
 123250263.204 7  96039184.02044  23453746.266                    23453751.754
        44.600          29.300
                                  21077630.563

 120298313.535 7  93738979.38545  22892008.055                    22892013.172
        42.600          31.400
 119807939.647 7  93356854.63645  22798693.078                    22798700.012
        46.600          33.300
 111844890.285 8  87151877.25846  21283375.555                    21283378.477
        52.000          36.600
 113703807.344 8  88600378.54245  21637116.102                    21637118.023
        50.000          35.800
 18  3 11 11 30 41.0000000  0 17G11R21R04R13R14G20R22R03G24G28R05G30
                                R12G10G08G15G13
 124367272.631 7  96909710.69544  23666338.414                    23666340.059
        44.100          25.300
                  85707855.667 6  20592723.836                    20592724.520
                        41.200
                  82540984.682 6  19817934.844                    19817934.945
                        41.800
                  80923225.755 6  19484127.516                    19484127.805
                        39.700
                  93029846.641 7  22438495.219                    22438498.109
                        42.500
 124193620.813 6  96774263.57343  23633271.219                    23633272.152
        40.800          19.000
                  90386953.243 6  21770386.648                    21770388.262
                        41.400
                  91650179.233 6  22012746.742                    22012748.246
                        40.800
 124161416.805 6  96749193.38543  23627133.734                    23627140.066
        39.800          23.500
 112413208.741 8  87594753.68845  21391531.531                    21391533.918
        48.300          34.700
                  90646203.889 5  21802174.820                    21802181.664
                        35.900
 123254097.219 7  96042171.56345  23454475.164                    23454481.301
        44.100          30.200
                                  21078348.164

 120296466.914 7  93737540.46345  22891656.531                    22891662.203
        42.500          32.400
 119810230.725 7  93358639.88845  22799128.477                    22799136.125
        46.300          33.000
 111845968.337 8  87152717.30946  21283580.977                    21283583.953
        51.800          37.000
 113706493.043 8  88602471.29545  21637627.273                    21637629.180
        50.500          35.500
 18  3 11 11 30 42.0000000  0 17G11R21R04R13R14G20R22R03G24G28R05G30
                                R12G10G08G15G13
 124364780.231 7  96907768.53644  23665864.086                    23665865.531
        43.500          24.400
                  85708706.979 6  20592928.805                    20592929.379
                        41.400
                  82541517.997 6  19818062.180                    19818062.555
                        41.600
                  80922510.876 6  19483954.891                    19483955.953
                        39.800
                  93026794.188 7  22437757.539                    22437762.016
                        43.100
 124197290.877 6  96777123.40343  23633969.961                    23633970.758
        41.500          19.000
                  90384499.027 6  21769795.891                    21769796.766
                        41.300
                  91653642.166 6  22013578.500                    22013580.000
                        41.500
 124158112.418 6  96746618.54144  23626505.781                    23626511.227
        39.600          25.800
 112413500.839 8  87594981.29345  21391587.070                    21391589.492
        48.200          34.700
                  90643732.798 5  21801580.594                    21801587.688
                        35.600
 123257931.458 7  96045159.27444  23455205.570                    23455211.043
        44.800          29.800
                                  21079067.672

 120294620.847 7  93736101.97245  22891305.211                    22891311.602
        42.400          32.400
 119812522.382 7  93360425.59245  22799564.266                    22799572.867
        45.900          32.000
 111847047.080 8  87153557.89546  21283785.563                    21283789.133
        51.800          36.800
 113709179.303 8  88604564.49545  21638137.922                    21638140.492
        50.300          35.400
 18  3 11 11 30 43.0000000  0 17G11R21R04R13R14G20R22R03G24G28R05G30
                                R12G10G08G15G13
 124362288.301 7  96905826.75744  23665388.727                    23665391.227
        43.300          24.200
                  85709559.050 6  20593132.422                    20593134.016
                        41.300
                  82542052.079 6  19818190.922                    19818190.691
                        41.700
                  80921796.648 6  19483783.547                    19483783.523
                        40.000
                  93023741.976 7  22437019.516                    22437026.410
                        43.600
 124200961.300 7  96779983.53443  23634668.516                    23634668.805
        42.200          18.300
                  90382045.312 6  21769204.938                    21769206.508
                        40.900
                  91657105.446 6  22014410.422                    22014411.855
                        40.900
 124154808.330 6  96744043.92144  23625876.891                    23625882.688
        39.900          24.300
 112413793.562 8  87595209.39045  21391642.930                    21391645.035
        48.400          34.700
                  90641262.146 5  21800986.969                    21800992.648
                        35.000
 123261766.006 7  96048147.23544  23455934.250                    23455940.848
        43.900          29.700
                                  21079786.945

 120292775.333 7  93734663.91145  22890954.219                    22890961.164
        42.600          32.800
 119814814.638 7  93362211.76845  22799999.961                    22800008.340
        45.800          32.300
 111848126.510 8  87154399.01246  21283990.789                    21283994.492
        51.600          37.000
 113711866.127 8  88606658.14445  21638648.352                    21638652.223
        49.500          35.600
 18  3 11 11 30 44.0000000  0 17G11R21R04R13R14G20R22R03G24G28R05G30
                                R12G10G08G15G13
 124359796.833 7  96903885.34343  23664914.625                    23664917.027
        43.200          23.400
                  85710411.843 6  20593338.500                    20593338.617
                        41.900
                  82542586.885 6  19818318.969                    19818319.297
                        41.900
                  80921083.035 6  19483610.859                    19483612.297
                        40.400
                  93020689.978 7  22436282.750                    22436290.086
                        43.500
 124204632.023 7  96782843.89343  23635366.813                    23635366.883
        42.700          19.000
                  90379591.983 6  21768612.680                    21768615.441
                        41.100
                  91660569.033 6  22015242.250                    22015243.637
                        41.500
 124151504.413 6  96741469.43844  23625248.070                    23625253.676
        39.700          24.700
 112414086.843 8  87595437.92745  21391698.625                    21391700.957
        48.600          34.400
                  90638791.891 5  21800394.070                    21800398.508
                        33.300
 123265600.825 7  96051135.39644  23456665.008                    23456670.250
        44.900          29.600
                                  21080506.914

 120290930.381 7  93733226.29145  22890603.141                    22890610.789
        43.000          32.400
 119817107.482 7  93363998.39345  22800436.625                    22800444.629
        45.600          32.200
 111849206.617 8  87155240.64846  21284196.914                    21284199.906
        52.000          37.100
 113714553.511 8  88608752.22246  21639159.000                    21639163.289
        49.200          36.100
 18  3 11 11 30 45.0000000  0 17G11R21R04R13R14G20R22R03G24G28R05G30
                                R12G10G08G15G13
 124357305.919 7  96901944.36844  23664440.445                    23664443.621
        43.200          25.000
                  85711265.419 6  20593543.266                    20593543.762
                        41.900
                  82543122.472 6  19818447.969                    19818448.406
                        41.800
                  80920370.122 6  19483439.734                    19483440.707
                        40.400
                  93017638.239 7  22435547.563                    22435554.008
                        43.500
 124208303.143 7  96785704.52643  23636064.875                    23636065.637
        43.100          20.100
                  90377139.212 6  21768023.469                    21768025.465
                        41.200
                  91664032.965 6  22016074.164                    22016075.305
                        41.100
 124148200.861 6  96738895.24644  23624618.813                    23624625.270
        40.000          24.400
 112414380.787 8  87595666.97745  21391754.758                    21391757.113
        48.300          34.700
                  90636322.087 5  21799801.930                    21799804.332
                        31.600
 123269435.913 7  96054123.77944  23457394.578                    23457400.676
        45.400          29.100
                                  21081225.703

 120289086.018 7  93731789.13145  22890252.180                    22890260.313
        42.800          32.300
 119819400.945 7  93365785.50045  22800872.938                    22800880.484
        45.300          32.100
 111850287.477 8  87156082.87446  21284402.227                    21284405.742
        51.900          36.600
 113717241.527 8  88610846.77145  21639670.984                    21639674.555
        49.300          35.700
 18  3 11 11 30 46.0000000  0 17G11R21R04R13R14G20R22R03G24G28R05G30
                                R12G10G08G15G13
 124354815.479 7  96900003.77344  23663967.000                    23663969.391
        43.300          24.000
                  85712119.748 6  20593748.953                    20593749.223
                        41.600
                  82543658.760 6  19818575.914                    19818576.648
                        41.800
                  80919657.855 6  19483268.555                    19483269.031
                        40.000
                  93014586.698 7  22434812.039                    22434817.473
                        43.100
 124211974.563 7  96788565.41843  23636763.422                    23636763.902
        43.200          20.100
                  90374686.890 6  21767432.266                    21767434.555
                        41.500
                  91667497.215 6  22016906.813                    22016907.820
                        41.500
 124144897.510 6  96736321.21544  23623989.891                    23623996.512
        39.400          24.800
 112414675.320 8  87595896.48145  21391810.891                    21391813.176
        48.300          35.100
                  90633852.695 5  21799208.805                    21799209.910
                        30.200
 123273271.318 7  96057112.39945  23458123.516                    23458129.742
        44.100          30.400
                                  21081944.266

 120287242.207 6  93730352.40145  22889900.781                    22889909.922
        41.800          32.800
 119821695.002 7  93367573.07345  22801309.914                    22801317.129
        45.200          31.200
 111851369.001 8  87156925.61446  21284608.445                    21284611.473
        51.900          37.000
 113719930.071 8  88612941.73545  21640183.242                    21640186.332
        50.000          35.400
 18  3 11 11 30 47.0000000  0 17G11R21R04R13R14G20R22R03G24G28R05G30
                                R12G10G08G15G13
 124352325.545 7  96898063.57843  23663493.336                    23663495.582
        43.300          23.900
                  85712974.866 6  20593954.773                    20593954.313
                        41.900
                  82544195.777 6  19818704.875                    19818705.285
                        41.800
                  80918946.254 6  19483097.070                    19483097.605
                        40.000
                  93011535.407 7  22434076.969                    22434081.027
                        42.300
 124215646.346 7  96791426.56543  23637461.625                    23637462.328
        42.900          20.400
                  90372235.059 6  21766842.102                    21766843.906
                        41.500
                  91670961.838 6  22017737.719                    22017739.859
                        41.100
 124141594.461 6  96733747.41044  23623361.773                    23623368.098
        39.800          24.700
 112414970.501 8  87596126.49345  21391866.508                    21391869.082
        48.300          34.800
                  90631383.743 4  21798615.594                    21798615.191
                        29.400
 123277106.998 7  96060101.23945  23458854.813                    23458859.902
        44.900          30.200
                                  21082664.672

 120285399.004 7  93728916.15345  22889550.484                    22889558.938
        42.200          32.500
 119823989.689 7  93369361.15445  22801746.852                    22801753.371
        45.500          30.600
 111852451.269 8  87157768.92946  21284814.797                    21284817.730
        52.400          36.700
 113722619.200 8  88615037.15145  21640694.766                    21640697.926
        49.500          35.100
 18  3 11 11 30 48.0000000  0 17G11R21R04R13R14G20R22R03G24G28R05G30
                                R12G10G08G15G13
 124349836.130 7  96896123.78044  23663018.961                    23663021.535
        43.600          24.100
                  85713830.722 6  20594159.750                    20594160.703
                        41.600
                  82544733.540 6  19818834.227                    19818834.758
                        41.900
                  80918235.331 6  19482926.320                    19482926.379
                        40.100
                  93008484.377 6  22433343.039                    22433344.918
                        41.700
 124219318.456 7  96794287.95643  23638160.813                    23638161.801
        42.000          20.600
                  90369783.757 6  21766253.281                    21766253.477
                        41.900
                  91674426.789 6  22018570.703                    22018572.043
                        41.400
 124138291.747 6  96731173.87443  23622733.586                    23622739.340
        39.600          22.600
 112415266.310 7  87596356.99045  21391922.742                    21391925.242
        47.600          34.700
                  90628915.209 4  21798022.164                    21798020.414
                        27.500
 123280942.950 7  96063090.29645  23459584.414                    23459590.273
        45.000          30.200
                                  21083383.258

 120283556.374 7  93727480.35145  22889199.961                    22889209.422
        42.500          33.400
 119826284.988 7  93371149.70945  22802182.875                    22802190.031
        45.100          30.800
 111853534.252 8  87158612.80846  21285020.805                    21285023.504
        52.700          36.900
 113725308.938 8  88617133.05745  21641206.547                    21641209.828
        48.800          35.100
 18  3 11 11 30 49.0000000  0 17G11R21R04R13R14G20R22R03G24G28R05G30
                                R12G10G08G15G13
 124347347.194 7  96894184.34143  23662545.922                    23662547.797
        43.400          23.900
                  85714687.315 6  20594365.680                    20594366.617
                        41.500
                  82545272.062 6  19818963.961                    19818964.109
                        41.600
                  80917525.063 6  19482754.461                    19482755.578
                        39.800
                  93005433.559 6  22432607.164                    22432608.195
                        41.200
 124222990.957 6  96797149.65543  23638859.156                    23638860.297
        41.300          20.900
                  90367332.938 6  21765662.047                    21765663.719
                        41.900
                  91677892.087 6  22019403.516                    22019404.367
                        41.600
 124134989.228 6  96728600.49043  23622104.586                    23622110.949
        39.400          22.600
 112415562.720 7  87596587.96245  21391979.492                    21391982.156
        47.800          34.800
                  90626447.112 4  21797428.609                    21797426.730
                        29.200
 123284779.227 7  96066079.60844  23460314.039                    23460319.895
        45.300          29.400
                                  21084103.070

 120281714.334 6  93726045.01245  22888849.180                    22888858.691
        41.500          32.600
 119828580.899 7  93372938.74645  22802619.125                    22802626.422
        44.800          30.300
 111854617.928 8  87159457.23246  21285227.172                    21285230.223
        52.000          36.900
 113727999.249 8  88619229.39845  21641718.344                    21641721.531
        48.500          34.900
 18  3 11 11 30 50.0000000  0 17G11R21R04R13R14G20R22R03G24G28R05G30
                                R12G10G08G15G13
 124344858.691 7  96892245.25143  23662072.109                    23662074.348
        43.600          22.600
                  85715544.632 6  20594571.633                    20594572.328
                        41.500
                  82545811.241 6  19819093.031                    19819093.379
                        41.800
                  80916815.388 6  19482583.555                    19482584.617
                        39.800
                  93002382.873 6  22431871.422                    22431871.219
                        40.100
 124226663.708 6  96800011.54143  23639557.188                    23639559.020
        39.900          21.300
                  90364882.500 6  21765071.063                    21765072.941
                        41.900
                  91681357.650 6  22020235.414                    22020237.055
                        41.900
 124131686.946 6  96726027.27843  23621476.805                    23621482.238
        40.300          22.800
 112415859.667 7  87596819.34545  21392035.969                    21392038.422
        47.600          35.100
                  90623979.382 5  21796836.195                    21796832.691
                        30.600
 123288615.692 7  96069069.06744  23461043.867                    23461050.102
        43.900          29.100
                                  21084823.844

 120279872.763 6  93724610.03345  22888498.469                    22888507.895
        41.800          32.400
 119830877.360 7  93374728.20244  22803056.289                    22803062.891
        44.500          29.800
 111855702.224 8  87160302.14146  21285433.414                    21285436.363
        52.200          36.800
 113730690.053 8  88621326.12545  21642230.594                    21642233.656
        48.700          35.200
 18  3 11 11 30 51.0000000  0 17G11R21R04R13R14G20R22R03G24G28R05G30
                                R12G10G08G15G13
 124342370.657 7  96890306.50844  23661599.102                    23661600.934
        44.400          25.200
                  85716402.708 6  20594776.992                    20594778.902
                        41.900
                  82546351.177 7  19819223.125                    19819222.840
                        42.100
                  80916106.349 6  19482412.766                    19482413.688
                        39.800
                  92999332.395 6  22431135.891                    22431134.832
                        39.600
 124230336.757 6  96802873.65043  23640254.945                    23640258.516
        38.300          19.900
                  90362432.584 6  21764481.328                    21764483.109
                        41.600
                  91684823.524 7  22021067.508                    22021069.387
                        42.000
 124128384.898 6  96723454.24843  23620847.727                    23620854.352
        39.500          23.600
 112416157.226 8  87597051.20545  21392092.539                    21392094.773
        48.100          35.100
                  90621512.120 5  21796242.727                    21796239.535
                        31.600
 123292452.424 7  96072058.72344  23461773.781                    23461779.656
        43.900          29.900
                                  21085543.539

 120278031.752 6  93723175.49445  22888148.570                    22888157.918
        41.400          32.300
 119833174.390 7  93376518.09645  22803493.656                    22803499.684
        44.600          30.200
 111856787.219 8  87161147.59346  21285639.789                    21285642.746
        52.500          37.500
 113733381.414 8  88623423.28045  21642743.523                    21642745.902
        49.600          34.900
 18  3 11 11 30 52.0000000  0 17G11R21R04R13R14G20R22R03G24G28R05G30
                                R12G10G08G15G13
 124339883.187 7  96888368.20144  23661125.609                    23661127.207
        44.900          25.100
                  85717261.551 6  20594983.945                    20594984.922
                        41.900
                  82546891.847 6  19819352.641                    19819353.121
                        41.900
                  80915397.996 6  19482242.281                    19482243.270
                        40.000
                  92996282.187 6  22430400.930                    22430398.879
                        38.900
 124234010.200 6  96805736.07343  23640953.008                    23640957.613
        36.500          19.900
                  90359983.150 6  21763890.680                    21763892.652
                        41.600
                  91688289.750 6  22021900.000                    22021901.715
                        41.900
 124125083.112 6  96720881.42044  23620219.523                    23620226.164
        39.400          24.000
 112416455.410 8  87597283.55745  21392149.313                    21392151.867
        48.100          34.700
                  90619045.345 5  21795648.555                    21795646.578
                        32.900
 123296289.485 7  96075048.64745  23462504.172                    23462510.277
        43.800          30.200
                                  21086262.859

 120276191.327 6  93721741.40545  22887798.422                    22887807.797
        41.400          32.100
 119835472.058 7  93378308.48845  22803931.148                    22803936.840
        44.500          30.400
 111857872.936 8  87161993.61746  21285846.227                    21285849.277
        52.700          36.700
 113736073.359 8  88625520.89545  21643255.867                    21643258.063
        49.700          35.400
 18  3 11 11 30 53.0000000  0 17G11R21R04R13R14G20R22R03G24G28R05G30
                                R12G10G08G15G13
 124337396.214 7  96886430.30044  23660652.523                    23660654.086
        44.700          24.100
                  85718121.140 6  20595190.297                    20595191.438
                        41.800
                  82547433.253 7  19819482.836                    19819483.199
                        42.000
                  80914690.305 6  19482072.258                    19482072.805
                        40.400
                  92993232.192 6  22429665.063                    22429662.656
                        39.200
 124237683.998 5  96808598.75643  23641652.398                    23641657.020
        35.400          19.600
                  90357534.218 6  21763300.680                    21763302.828
                        41.400
                  91691756.295 6  22022732.758                    22022734.625
                        41.700
 124121781.647 6  96718308.84943  23619591.813                    23619597.773
        39.800          22.600
 112416754.211 8  87597516.39845  21392206.523                    21392208.820
        48.000          35.100
                  90616578.991 5  21795053.148                    21795053.953
                        33.500
 123300126.786 7  96078038.73445  23463234.891                    23463240.398
        44.600          31.000
                                  21086982.242

 120274351.488 6  93720307.77945  22887448.406                    22887457.332
        40.100          32.000
 119837770.328 7  93380099.34344  22804368.289                    22804373.418
        43.000          29.400
 111858959.368 8  87162840.18846  21286052.859                    21286056.168
        52.200          36.800
 113738765.875 8  88627618.96645  21643767.953                    21643770.273
        50.300          35.500
 18  3 11 11 30 54.0000000  0 17G11R21R04R13R14G20R22R03G24G28R05G30
                                R12G10G08G15G13
 124334909.741 7  96884492.77844  23660178.891                    23660181.328
        44.800          24.700
                  85718981.481 6  20595397.070                    20595398.410
                        41.800
                  82547975.381 7  19819612.742                    19819613.207
                        42.100
                  80913983.291 6  19481901.477                    19481902.781
                        40.300
                  92990182.420 6  22428928.680                    22428927.949
                        39.600
 124241358.213 5  96811461.72943  23642350.742                    23642355.887
        33.900          19.600
                  90355085.776 6  21762712.633                    21762712.375
                        41.400
                  91695223.168 6  22023564.828                    22023566.844
                        41.500
 124118480.465 6  96715736.50143  23618963.336                    23618969.770
        39.000          23.400
 112417053.633 8  87597749.71245  21392263.469                    21392265.637
        48.000          35.000
                  90614113.108 5  21794458.414                    21794461.473
                        33.800
 123303964.415 7  96081029.08444  23463965.203                    23463970.836
        44.600          29.900
                                  21087702.680

 120272512.216 6  93718874.59745  22887097.992                    22887107.637
        40.200          32.100
 119840069.253 7  93381890.72444  22804805.609                    22804811.121
        42.600          29.800
 111860046.510 8  87163687.31046  21286259.727                    21286262.855
        51.600          36.900
 113741458.980 8  88629717.50146  21644279.688                    21644283.348
        49.300          36.000
 18  3 11 11 30 55.0000000  0 17G11R21R04R13R14G20R22R03G24G28R05G30
                                R12G10G08G15G13
 124332423.704 7  96882555.59644  23659705.906                    23659708.070
        44.100          24.700
                  85719842.560 6  20595603.820                    20595605.906
                        41.600
                  82548518.204 6  19819742.891                    19819743.559
                        41.900
                  80913276.883 6  19481731.359                    19481732.770
                        40.100
                  92987132.875 6  22428191.914                    22428192.793
                        40.700
 124245032.707 5  96814324.92743  23643050.633                    23643055.129
        34.500          19.900
                  90352637.783 6  21762122.531                    21762123.234
                        41.500
                  91698690.316 6  22024398.547                    22024400.008
                        41.000
 124115179.442 6  96713164.27544  23618335.227                    23618341.469
        39.000          24.400
 112417353.604 7  87597983.45645  21392319.891                    21392322.832
        47.800          34.900
                  90611647.655 5  21793865.289                    21793868.633
                        34.000
 123307802.253 7  96084019.60144  23464695.656                    23464701.266
        45.500          29.600
                                  21088423.023

 120270673.487 6  93717441.85145  22886748.172                    22886757.508
        41.100          30.900
 119842368.684 7  93383682.49045  22805244.352                    22805248.125
        43.100          30.600
 111861134.320 8  87164534.95846  21286466.656                    21286470.004
        51.400          36.900
 113744152.631 8  88631816.46245  21644791.883                    21644795.465
        48.700          35.400
 18  3 11 11 30 56.0000000  0 17G11R21R04R13R14G20R22R03G24G28R05G30
                                R12G10G08G15G13
 124329938.200 7  96880618.83944  23659232.070                    23659235.047
        43.200          24.700
                  85720704.421 6  20595810.625                    20595812.324
                        41.400
                  82549061.837 6  19819873.805                    19819873.793
                        41.800
                  80912571.167 6  19481561.859                    19481562.801
                        40.200
                  92984083.596 6  22427454.758                    22427458.953
                        41.800
 124248707.477 6  96817188.32843  23643751.914                    23643754.516
        36.400          21.100
                  90350190.259 6  21761530.664                    21761533.184
                        41.100
                  91702157.839 6  22025231.109                    22025232.441
                        41.000
 124111878.766 6  96710592.33043  23617706.977                    23617713.020
        39.400          23.000
 112417654.246 7  87598217.72945  21392377.508                    21392380.020
        47.700          34.600
                  90609182.697 5  21793271.289                    21793276.148
                        34.700
 123311640.402 7  96087010.37345  23465425.359                    23465431.434
        45.300          30.800
                                  21089143.695

 120268835.343 6  93716009.54245  22886398.563                    22886407.402
        41.800          30.900
 119844668.753 7  93385474.74345  22805682.594                    22805686.324
        43.700          31.100
 111862222.855 8  87165383.16746  21286673.906                    21286677.098
        51.400          37.000
 113746846.861 8  88633915.86045  21645305.336                    21645308.484
        49.100          34.900
 18  3 11 11 30 57.0000000  0 17G11R21R04R13R14G20R22R03G24G28R05G30
                                R12G10G08G15G13
 124327453.169 7  96878682.45744  23658759.758                    23658762.398
        43.000          26.100
                  85721567.005 6  20596017.813                    20596019.715
                        41.800
                  82549606.230 6  19820004.742                    19820004.832
                        41.900
                  80911866.120 6  19481392.477                    19481392.867
                        39.900
                  92981034.552 7  22426718.328                    22426724.766
                        42.300
 124252382.649 6  96820052.06943  23644451.961                    23644453.914
        37.400          20.600
                  90347743.276 6  21760943.000                    21760944.145
                        41.200
                  91705625.708 6  22026064.867                    22026065.535
                        41.300
 124108578.313 6  96708020.56343  23617078.953                    23617085.004
        38.500          21.100
 112417955.500 7  87598452.47245  21392434.813                    21392437.176
        47.900          34.000
                  90606718.179 5  21792678.844                    21792682.648
                        34.700
 123315478.865 7  96090001.39445  23466155.633                    23466162.094
        44.500          30.800
                                  21089864.391

 120266997.787 7  93714577.69244  22886048.750                    22886057.605
        42.600          29.800
 119846969.470 7  93387267.51845  22806120.031                    22806123.852
        43.200          30.500
 111863312.119 8  87166231.93546  21286881.063                    21286884.309
        51.500          37.000
 113749541.687 8  88636015.71345  21645818.477                    21645820.875
        49.400          34.900
 18  3 11 11 30 58.0000000  0 17G11R21R04R13R14G20R22R03G24G28R05G30
                                R12G10G08G15G13
 124324968.663 7  96876746.50144  23658287.273                    23658289.492
        43.600          25.400
                  85722430.304 6  20596224.984                    20596227.109
                        41.500
                  82550151.324 7  19820134.906                    19820135.742
                        42.200
                  80911161.686 6  19481222.633                    19481223.602
                        39.900
                  92977985.724 7  22425982.625                    22425989.832
                        42.400
 124256058.078 6  96822916.01243  23645151.992                    23645153.664
        38.300          20.900
                  90345296.734 6  21760353.414                    21760354.715
                        41.400
                  91709093.868 6  22026897.047                    22026898.648
                        41.200
 124105278.129 6  96705448.98643  23616450.867                    23616457.051
        38.400          22.600
 112418257.313 8  87598687.65445  21392492.195                    21392494.805
        48.300          34.500
                  90604254.038 5  21792087.250                    21792090.609
                        33.700
 123319317.548 7  96092992.57245  23466887.508                    23466892.551
        45.700          30.400
                                  21090584.531

 120265160.739 7  93713146.23244  22885699.367                    22885707.461
        43.200          29.800
 119849270.736 7  93389060.71645  22806557.664                    22806561.926
        43.500          31.100
 111864402.031 8  87167081.21646  21287089.063                    21287091.707
        51.700          37.300
 113752237.021 8  88638115.97145  21646331.719                    21646333.711
        49.300          34.900
 18  3 11 11 30 59.0000000  0 17G11R21R04R13R14G20R22R03G24G28R05G30
                                R12G10G08G15G13
 124322484.630 7  96874810.89844  23657814.766                    23657816.898
        44.400          24.800
                  85723294.415 6  20596432.711                    20596434.434
                        41.500
                  82550697.148 6  19820266.242                    19820266.828
                        41.900
                  80910457.936 6  19481053.422                    19481054.188
                        40.200
                  92974937.142 7  22425247.664                    22425254.813
                        42.700
 124259733.847 6  96825780.24843  23645851.211                    23645853.254
        39.400          21.700
                  90342850.685 6  21759764.164                    21759766.008
                        41.400
                  91712562.396 6  22027730.859                    22027731.480
                        41.300
 124101978.262 6  96702877.66743  23615823.031                    23615829.297
        38.600          22.900
 112418559.773 8  87598923.33645  21392549.617                    21392552.078
        48.200          35.300
                  90601790.338 5  21791495.000                    21791497.910
                        32.900
 123323156.532 7  96095983.99445  23467616.852                    23467623.238
        44.700          30.000
                                  21091304.469

 120263324.313 7  93711715.24745  22885350.547                    22885357.543
        44.100          30.200
 119851572.606 7  93390854.37545  22806996.359                    22806999.918
        44.100          31.500
 111865492.674 8  87167931.06446  21287296.484                    21287299.016
        52.300          37.400
 113754932.950 8  88640216.70145  21646843.984                    21646846.969
        49.000          35.300
 18  3 11 11 31  0.0000000  0 17G11R21R04R13R14G20R22R03G24G28R05G30
                                R12G10G08G15G13
 124320001.138 7  96872875.70544  23657342.594                    23657344.387
        44.500          26.000
                  85724159.293 6  20596640.570                    20596642.266
                        41.500
                  82551243.711 6  19820397.891                    19820397.777
                        41.800
                  80909754.834 6  19480883.898                    19480885.000
                        40.400
                  92971888.812 7  22424513.531                    22424519.457
                        42.800
 124263409.958 6  96828644.74143  23646551.484                    23646552.801
        40.300          21.100
                  90340405.118 6  21759175.688                    21759176.430
                        41.300
                  91716031.238 6  22028563.555                    22028564.742
                        41.500
 124098678.614 6  96700306.50743  23615195.188                    23615201.883
        38.700          22.200
 112418862.838 8  87599159.48645  21392607.063                    21392609.961
        48.200          35.000
                  90599327.064 5  21790903.086                    21790904.730
                        33.600
 123326995.815 7  96098975.65045  23468347.352                    23468353.875
        44.800          30.100
                                  21092025.922

 120261488.448 7  93710284.70245  22885001.422                    22885007.707
        44.500          30.400
 119853875.074 7  93392648.49345  22807434.773                    22807438.539
        44.700          32.200
 111866584.010 8  87168781.45646  21287504.203                    21287507.285
        52.100          37.500
 113757629.482 8  88642317.89645  21647356.586                    21647360.273
        48.400          34.900
 18  3 11 11 31  1.0000000  0 17G11R21R04R13R14G20R22R03G24G28R05G30
                                R12G10G08G15G13
 124317518.107 7  96870940.86644  23656870.008                    23656871.945
        44.700          25.600
                  85725024.872 6  20596848.531                    20596850.270
                        41.800
                  82551790.965 6  19820528.891                    19820529.430
                        41.700
                  80909052.359 6  19480714.828                    19480715.219
                        40.400
                  92968840.680 7  22423780.242                    22423784.133
                        43.400
 124267086.389 6  96831509.51143  23647250.453                    23647252.410
        40.900          20.900
                  90337960.017 6  21758585.805                    21758588.145
                        41.000
                  91719500.376 6  22029396.125                    22029397.688
                        41.500
 124095379.182 6  96697735.52243  23614567.094                    23614573.855
        38.400          22.500
 112419166.482 8  87599396.09245  21392665.383                    21392667.535
        48.500          34.600
                  90596864.219 5  21790311.500                    21790312.770
                        32.900
 123330835.344 7  96101967.47944  23469078.453                    23469084.449
        45.600          29.600
                                  21092746.383

 120259653.142 7  93708854.58444  22884652.211                    22884658.051
        44.600          29.600
 119856178.099 7  93394443.05445  22807872.867                    22807876.926
        45.400          32.400
 111867676.031 8  87169632.38546  21287711.992                    21287715.090
        52.300          37.100
 113760326.537 8  88644419.49445  21647870.094                    21647872.926
        48.800          34.600
 18  3 11 11 31  2.0000000  0 17G11R21R04R13R14G20R22R03G24G28R05G30
                                R12G10G08G15G13
 124315035.546 7  96869006.40344  23656397.172                    23656399.695
        44.100          26.500
                  85725891.188 6  20597056.992                    20597058.039
                        41.800
                  82552338.950 6  19820660.266                    19820661.035
                        41.800
                  80908350.555 6  19480545.656                    19480546.434
                        40.200
                  92965792.765 7  22423045.617                    22423048.785
                        43.400
 124270763.134 6  96834374.50743  23647950.633                    23647952.098
        41.100          20.400
                  90335515.373 6  21757996.773                    21757998.945
                        41.400
                  91722969.817 6  22030229.719                    22030231.492
                        41.600
 124092080.086 6  96695164.81743  23613939.484                    23613946.039
        39.200          22.500
 112419470.738 8  87599633.17545  21392723.328                    21392725.629
        48.100          34.600
                  90594401.824 5  21789719.469                    21789720.184
                        32.500
 123334675.148 7  96104959.52245  23469809.102                    23469815.047
        45.500          30.300
                                  21093466.992

 120257818.395 7  93707424.90245  22884303.477                    22884308.699
        44.700          30.200
 119858481.739 7  93396238.10345  22808310.586                    22808316.461
        45.600          32.200
 111868768.736 8  87170483.84846  21287919.625                    21287922.688
        52.200          37.100
 113763024.174 8  88646521.53945  21648384.227                    21648386.594
        49.900          34.900
 18  3 11 11 31  3.0000000  0 17G11R21R04R13R14G20R22R03G24G28R05G30
                                R12G10G08G15G13
 124312553.458 7  96867072.29544  23655924.813                    23655927.723
        43.600          26.400
                  85726758.235 6  20597265.188                    20597266.395
                        41.900
                  82552887.636 7  19820792.289                    19820792.586
                        42.100
                  80907649.369 6  19480377.219                    19480377.633
                        40.000
                  92962745.045 7  22422310.977                    22422313.512
                        43.100
 124274440.190 6  96837239.74943  23648649.805                    23648651.473
        41.700          19.900
                  90333071.211 6  21757409.586                    21757410.629
                        41.500
                  91726439.554 6  22031062.773                    22031064.773
                        41.800
 124088781.194 6  96692594.24343  23613312.008                    23613317.941
        38.300          22.200
 112419775.552 8  87599870.69545  21392781.164                    21392783.895
        48.100          34.400
                  90591939.843 5  21789127.945                    21789127.652
                        32.300
 123338515.198 7  96107951.76444  23470539.195                    23470545.707
        44.600          29.700
                                  21094187.859

 120255984.179 7  93705995.62645  22883954.242                    22883959.039
        45.000          30.200
 119860785.929 7  93398033.57445  22808748.836                    22808754.559
        46.000          32.700
 111869862.106 8  87171335.82846  21288127.695                    21288130.773
        52.200          36.700
 113765722.300 8  88648623.97145  21648898.117                    21648900.277
        50.700          35.500
 18  3 11 11 31  4.0000000  0 17G11R21R04R13R14G20R22R03G24G28R05G30
                                R12G10G08G15G13
 124310071.909 7  96865138.61844  23655452.742                    23655455.793
        42.900          27.100
                  85727626.094 6  20597474.133                    20597475.156
                        41.600
                  82553437.104 6  19820924.172                    19820924.750
                        41.900
                  80906948.874 6  19480208.984                    19480209.555
                        39.900
                  92959697.554 7  22421576.609                    22421578.555
                        42.600
 124278117.613 6  96840105.30843  23649349.398                    23649351.844
        40.900          20.400
                  90330627.552 6  21756820.203                    21756822.219
                        41.400
                  91729909.653 6  22031896.141                    22031897.789
                        41.900
 124085482.607 6  96690023.90643  23612683.641                    23612690.375
        38.300          22.000
 112420081.017 7  87600108.72545  21392839.063                    21392841.629
        47.600          34.200
                  90589478.327 5  21788535.539                    21788535.391
                        31.700
 123342355.550 7  96110944.24744  23471270.703                    23471276.531
        45.400          29.800
                                  21094910.164

 120254150.578 7  93704566.83145  22883605.703                    22883609.504
        43.900          30.400
 119863090.749 7  93399829.52945  22809188.828                    22809194.145
        45.800          33.300
 111870956.229 8  87172188.39546  21288335.578                    21288339.289
        51.700          36.700
 113768421.054 8  88650726.90145  21649411.000                    21649413.930
        50.500          34.900
 18  3 11 11 31  5.0000000  0 17G11R21R04R13R14G20R22R03G24G28R05G30
                                R12G10G08G15G13
 124307590.839 7  96863205.31044  23654980.445                    23654983.629
        43.500          26.600
                  85728494.690 6  20597682.758                    20597683.309
                        41.900
                  82553987.309 7  19821056.352                    19821056.957
                        42.300
                  80906249.027 6  19480039.773                    19480040.727
                        40.200
                  92956650.279 7  22420842.891                    22420843.305
                        42.100
 124281795.326 6  96842971.07943  23650049.031                    23650051.258
        39.500          19.600
                  90328184.357 6  21756232.047                    21756233.816
                        41.500
                  91733380.042 7  22032730.102                    22032731.758
                        42.100
 124082184.249 6  96687453.74943  23612056.180                    23612062.172
        38.200          22.200
 112420387.098 7  87600347.22945  21392897.469                    21392900.141
        47.600          34.600
                  90587017.221 5  21787944.258                    21787942.785
                        32.100
 123346196.166 7  96113936.92845  23472001.773                    23472007.551
        45.500          30.200
                                  21095631.133

 120252317.520 7  93703138.45445  22883256.211                    22883260.258
        44.600          30.700
 119865396.155 7  93401625.95045  22809627.266                    22809633.023
        46.200          33.500
 111872051.021 8  87173041.47746  21288543.828                    21288547.516
        51.400          36.800
 113771120.388 8  88652830.28745  21649924.352                    21649927.492
        49.300          35.300
 18  3 11 11 31  6.0000000  0 17G11R21R04R13R14G20R22R03G24G28R05G30
                                R12G10G08G15G13
 124305110.259 7  96861272.39444  23654508.953                    23654511.793
        43.200          24.500
                  85729363.994 6  20597891.500                    20597891.914
                        41.500
                  82554538.214 6  19821187.930                    19821188.625
                        41.900
                  80905549.795 6  19479870.875                    19479871.758
                        40.200
                  92953603.230 6  22420107.133                    22420107.152
                        40.800
 124285473.363 6  96845837.10742  23650748.664                    23650751.176
        39.300          17.800
                  90325741.660 6  21755644.344                    21755645.004
                        41.400
                  91736850.766 6  22033563.180                    22033565.340
                        41.800
 124078886.199 6  96684883.83843  23611428.734                    23611435.133
        38.200          21.500
 112420693.738 7  87600586.16845  21392955.992                    21392958.336
        47.600          34.000
                  90584556.529 5  21787352.180                    21787351.148
                        32.500
 123350037.058 7  96116929.84045  23472732.203                    23472738.395
        44.800          30.200
                                  21096352.266

 120250485.033 7  93701710.52645  22882907.586                    22882911.703
        44.600          30.000
 119867702.133 7  93403422.81745  22810065.133                    22810072.574
        46.100          33.700
 111873146.492 8  87173895.09446  21288752.602                    21288755.793
        51.900          36.800
 113773820.258 8  88654934.09045  21650437.484                    21650441.387
        48.800          35.600
 18  3 11 11 31  7.0000000  0 17G11R21R04R13R14G20R22R03G24G28R05G30
                                R12G10G08G15G13
 124302630.212 7  96859339.89744  23654036.453                    23654039.695
        43.000          24.700
                  85730234.104 6  20598100.500                    20598101.164
                        41.300
                  82555089.896 7  19821321.195                    19821321.730
                        42.000
                  80904851.276 6  19479703.242                    19479703.363
                        40.000
                  92950556.433 6  22419371.250                    22419371.801
                        39.700
 124289151.824 6  96848703.44942  23651448.109                    23651451.152
        38.400          16.900
                  90323299.477 6  21755054.680                    21755057.406
                        41.200
                  91740321.870 6  22034396.938                    22034399.270
                        41.700
 124075588.377 6  96682314.10843  23610801.250                    23610807.301
        38.700          21.100
 112421001.021 7  87600825.60445  21393013.875                    21393016.711
        47.600          34.300
                  90582096.303 5  21786760.328                    21786759.332
                        33.100
 123353878.251 7  96119922.98645  23473463.336                    23473469.668
        44.700          30.000
                                  21097073.172

 120248653.142 7  93700283.05344  22882558.555                    22882561.961
        44.800          29.700
 119870008.811 7  93405220.22945  22810504.313                    22810511.641
        45.900          34.600
 111874242.729 8  87174749.30146  21288961.195                    21288964.410
        51.900          36.900
 113776520.755 8  88657038.37045  21650951.914                    21650954.965
        48.900          35.100
 18  3 11 11 31  8.0000000  0 17G11R21R04R13R14G20R22R03G24G28R05G30
                                R12G10G08G15G13
 124300150.688 7  96857407.81244  23653564.594                    23653567.961
        43.400          25.500
                  85731104.994 6  20598310.109                    20598310.234
                        41.400
                  82555642.304 7  19821453.578                    19821453.492
                        42.000
                  80904153.429 6  19479534.438                    19479536.223
                        39.600
                  92947509.865 6  22418635.891                    22418636.082
                        39.100
 124292830.625 6  96851570.05142  23652148.656                    23652150.988
        37.700          15.600
                  90320857.793 6  21754467.164                    21754469.102
                        41.200
                  91743793.289 6  22035231.906                    22035233.145
                        41.500
 124072290.901 6  96679744.64743  23610173.570                    23610179.551
        37.100          21.500
 112421308.979 7  87601065.57745  21393073.008                    21393075.684
        47.700          34.400
                  90579636.568 5  21786167.969                    21786168.250
                        33.400
 123357719.770 7  96122916.38645  23474193.953                    23474200.113
        44.500          30.000
                                  21097794.641

 120246821.851 7  93698856.04945  22882210.344                    22882213.383
        44.700          30.700
 119872316.095 7  93407018.10645  22810943.117                    22810951.227
        46.400          34.200
 111875339.684 8  87175604.06646  21289169.891                    21289172.938
        51.700          36.700
 113779221.826 8  88659143.08945  21651466.852                    21651468.758
        49.300          35.500
 18  3 11 11 31  9.0000000  0 17G11R21R04R13R14G20R22R03G24G28R05G30
                                R12G10G08G15G13
 124297671.609 7  96855476.07944  23653093.336                    23653096.184
        43.900          26.500
                  85731976.586 6  20598519.742                    20598519.918
                        41.200
                  82556195.394 7  19821585.891                    19821586.203
                        42.000
                  80903456.177 6  19479366.555                    19479367.961
                        39.800
                  92944463.457 6  22417899.688                    22417900.816
                        38.300
 124296509.724 6  96854436.92942  23652847.273                    23652851.000
        37.200          14.800
                  90318416.542 6  21753880.313                    21753881.000
                        41.700
                  91747265.011 6  22036065.117                    22036066.914
                        41.600
 124068993.638 6  96677175.35843  23609545.445                    23609552.531
        37.300          22.000
 112421617.459 7  87601305.94545  21393131.766                    21393134.254
        47.900          34.600
                  90577177.226 5  21785575.586                    21785576.641
                        33.500
 123361561.478 7  96125909.92845  23474925.227                    23474931.426
        44.500          30.400
                                  21098515.969

 120244991.058 7  93697429.43545  22881862.109                    22881865.121
        44.300          30.400
 119874623.902 7  93408816.39045  22811382.523                    22811390.867
        46.700          34.200
 111876437.270 8  87176459.32346  21289379.117                    21289381.953
        51.800          36.900
 113781923.402 8  88661248.21045  21651980.125                    21651982.836
        49.400          34.900
 18  3 11 11 31 10.0000000  0 17G11R21R04R13R14G20R22R03G24G28R05G30
                                R12G10G08G15G13
 124295193.049 7  96853544.74244  23652621.453                    23652624.789
        44.700          26.200
                  85732848.944 6  20598728.492                    20598729.121
                        41.400
                  82556749.285 6  19821719.766                    19821719.535
                        41.700
                  80902759.593 6  19479199.813                    19479200.316
                        39.900
                  92941417.354 6  22417163.367                    22417165.668
                        38.500
 124300189.150 5  96857304.06342  23653546.742                    23653551.219
        35.900          16.300
                  90315975.802 6  21753291.977                    21753293.176
                        41.700
                  91750737.085 6  22036899.086                    22036900.820
                        41.500
 124065696.653 6  96674606.28543  23608918.586                    23608924.797
        36.700          22.900
 112421926.595 8  87601546.82845  21393190.828                    21393193.055
        48.300          34.500
                  90574718.357 5  21784983.719                    21784986.215
                        34.000
 123365403.527 7  96128903.72944  23475655.469                    23475662.484
        42.800          29.500
                                  21099237.836

 120243160.862 7  93696003.30045  22881512.859                    22881516.871
        42.700          30.200
 119876932.355 7  93410615.18745  22811821.055                    22811830.180
        46.300          34.300
 111877535.579 8  87177315.14646  21289587.922                    21289590.871
        51.600          36.700
 113784625.583 8  88663353.81545  21652493.930                    21652497.547
        49.100          34.800
 18  3 11 11 31 11.0000000  0 17G11R21R04R13R14G20R22R03G24G28R05G30
                                R12G10G08G15G13
 124292715.010 7  96851613.81444  23652150.242                    23652153.652
        44.700          24.800
                  85733722.057 6  20598937.789                    20598939.020
                        41.200
                  82557303.910 6  19821852.914                    19821852.793
                        41.600
                  80902063.675 6  19479032.414                    19479032.285
                        39.800
                  92938371.442 6  22416427.469                    22416431.082
                        39.400
 124303868.957 5  96860171.47042  23654246.125                    23654251.227
        35.700          16.300
                  90313535.528 6  21752703.406                    21752705.320
                        41.200
                  91754209.501 6  22037733.016                    22037734.758
                        41.100
 124062399.907 6  96672037.39543  23608291.914                    23608297.539
        38.200          21.800
 112422236.327 8  87601788.17945  21393249.398                    21393251.891
        48.000          35.200
                  90572259.934 5  21784391.758                    21784394.664
                        34.100
 123369245.872 7  96131897.74044  23476388.883                    23476393.457
        44.500          29.900
                                  21099960.453

 120241331.253 7  93694577.61144  22881164.914                    22881168.867
        42.200          29.900
 119879241.428 7  93412414.46545  22812260.531                    22812269.738
        45.800          34.500
 111878634.611 8  87178171.53646  21289797.289                    21289799.836
        52.000          37.000
 113787328.345 8  88665459.86845  21653008.078                    21653011.410
        48.200          35.400
 18  3 11 11 31 12.0000000  0 17G11R21R04R13R14G20R22R03G24G28R05G30
                                R12G10G08G15G13
 124290237.455 7  96849683.24144  23651678.688                    23651682.180
        44.600          24.100
                  85734595.912 6  20599147.555                    20599149.402
                        41.300
                  82557859.286 6  19821985.969                    19821986.191
                        41.700
                  80901368.404 6  19478864.438                    19478865.199
                        39.900
                  92935325.728 6  22415693.445                    22415697.090
                        40.200
 124307549.084 5  96863039.06643  23654947.344                    23654952.059
        35.000          18.300
                  90311095.723 6  21752115.422                    21752117.934
                        41.500
                  91757682.225 6  22038567.438                    22038568.551
                        41.500
 124059103.452 5  96669468.73443  23607663.703                    23607670.348
        35.900          22.500
 112422546.679 8  87602030.00845  21393308.578                    21393311.082
        48.000          34.900
                  90569801.942 5  21783799.883                    21783803.113
                        33.800
 123373088.411 7  96134891.91145  23477120.648                    23477124.609
        46.200          30.800
                                  21100681.492

 120239502.161 6  93693152.34145  22880816.344                    22880821.047
        41.700          30.000
 119881551.071 7  93414214.17145  22812700.586                    22812709.262
        46.300          33.900
 111879734.313 8  87179028.44746  21290006.563                    21290009.340
        52.100          37.100
 113790031.656 8  88667566.33945  21653522.750                    21653525.902
        48.200          35.200
 18  3 11 11 31 13.0000000  0 17G11R21R04R13R14G20R22R03G24G28R05G30
                                R12G10G08G15G13
 124287760.393 7  96847753.04444  23651206.344                    23651211.109
        43.700          24.700
                  85735470.521 6  20599358.508                    20599359.430
                        41.600
                  82558415.369 6  19822119.508                    19822119.539
                        41.700
                  80900673.805 6  19478697.531                    19478698.184
                        39.700
                  92932280.281 6  22414959.422                    22414963.516
                        41.300
 124311229.501 6  96865906.88742  23655648.141                    23655652.121
        36.100          16.900
                  90308656.422 6  21751528.711                    21751529.875
                        41.200
                  91761155.294 6  22039401.211                    22039403.012
                        41.600
 124055807.269 6  96666900.29843  23607036.539                    23607043.406
        37.100          22.500
 112422857.625 8  87602272.29845  21393367.719                    21393370.313
        48.100          35.300
                  90567344.426 5  21783209.195                    21783211.973
                        33.400
 123376931.273 7  96137886.35745  23477850.906                    23477856.031
        46.600          30.400
                                  21101402.734

 120237673.692 6  93691727.55544  22880468.234                    22880473.590
        41.300          29.200
 119883861.308 7  93416014.34445  22813140.336                    22813148.957
        46.500          33.100
 111880834.716 8  87179885.91046  21290215.352                    21290218.934
        52.000          37.000
 113792735.536 8  88669673.24845  21654037.773                    21654040.273
        49.500          35.200
 18  3 11 11 31 14.0000000  0 17G11R21R04R13R14G20R22R03G24G28R05G30
                                R12G10G08G15G13
 124285283.811 7  96845823.23344  23650735.078                    23650739.445
        42.600          24.700
                  85736345.876 6  20599568.602                    20599569.906
                        41.600
                  82558972.154 6  19822252.953                    19822252.938
                        41.700
                  80899979.854 6  19478529.781                    19478530.723
                        39.800
                  92929235.115 6  22414227.195                    22414230.945
                        41.400
 124314910.198 6  96868774.92342  23656349.211                    23656352.402
        36.500          17.800
                  90306217.607 6  21750940.742                    21750943.059
                        41.800
                  91764628.687 6  22040236.336                    22040236.973
                        41.300
 124052511.306 6  96664332.02943  23606409.313                    23606415.781
        37.200          22.000
 112423169.159 7  87602515.05645  21393427.141                    21393429.742
        47.900          34.900
                  90564887.325 5  21782618.602                    21782620.520
                        33.000
 123380774.330 7  96140880.96845  23478581.250                    23478587.406
        45.700          30.500
                                  21102125.547

 120235845.722 6  93690303.16945  22880119.766                    22880126.023
        40.400          30.000
 119886172.128 7  93417814.98345  22813579.141                    22813588.730
        46.300          33.200
 111881935.812 8  87180743.90846  21290424.977                    21290428.215
        52.100          36.500
 113795439.945 8  88671780.57545  21654553.039                    21654555.000
        49.800          35.200
 18  3 11 11 31 15.0000000  0 17G11R21R04R13R14G20R22R03G24G28R05G30
                                R12G10G08G15G13
 124282807.765 7  96843893.86044  23650263.664                    23650268.703
        42.100          26.300
                  85737222.020 6  20599779.992                    20599780.590
                        41.500
                  82559529.711 6  19822387.203                    19822387.340
                        41.800
                  80899286.606 6  19478363.297                    19478363.906
                        39.900
                  92926190.222 7  22413493.500                    22413496.750
                        42.600
 124318591.323 6  96871643.30243  23657049.680                    23657053.047
        37.400          19.000
                  90303779.337 6  21750354.586                    21750355.465
                        41.600
                  91768102.430 6  22041069.977                    22041071.234
                        40.700
 124049215.658 6  96661763.99943  23605782.438                    23605788.773
        37.000          21.500
 112423481.358 7  87602758.33145  21393486.289                    21393488.996
        47.800          34.900
                  90562430.704 5  21782027.813                    21782030.031
                        32.400
 123384617.800 7  96143875.90245  23479311.656                    23479319.563
        43.600          30.000
                                  21102847.195

 120234018.384 6  93688879.27945  22879772.430                    22879778.781
        39.900          30.000
 119888483.604 7  93419616.13545  22814018.516                    22814028.789
        45.000          32.600
 111883037.639 8  87181602.47446  21290634.805                    21290638.008
        52.500          36.700
 113798145.000 8  88673888.41545  21655067.039                    21655070.016
        49.500          35.300
 18  3 11 11 31 16.0000000  0 17G11R21R04R13R14G20R22R03G24G28R05G30
                                R12G10G08G15G13
 124280332.174 7  96841964.85144  23649792.781                    23649797.191
        42.600          24.200
                  85738098.878 6  20599989.234                    20599991.270
                        41.600
                  82560087.986 6  19822521.063                    19822521.672
                        41.900
                  80898593.974 6  19478197.008                    19478197.375
                        39.600
                  92923145.518 7  22412760.078                    22412761.711
                        42.600
 124322272.769 6  96874511.97143  23657750.250                    23657753.883
        38.300          19.000
                  90301341.496 6  21749765.789                    21749768.363
                        41.600
                  91771576.435 6  22041904.289                    22041905.492
                        40.800
 124045920.243 6  96659196.13343  23605154.719                    23605161.824
        36.800          22.300
 112423794.124 8  87603002.04545  21393545.977                    21393548.547
        48.100          35.100
                  90559974.456 5  21781437.578                    21781438.340
                        31.500
 123388461.538 7  96146871.02345  23480042.883                    23480050.516
        42.400          30.700
                                  21103570.328

 120232191.591 6  93687455.82445  22879424.680                    22879431.867
        40.300          30.800
 119890795.648 7  93421417.71945  22814457.813                    22814468.563
        44.800          31.700
 111884140.148 8  87182461.57546  21290844.313                    21290847.875
        52.300          36.700
 113800850.563 8  88675996.65845  21655581.344                    21655584.723
        48.600          35.700
 18  3 11 11 31 17.0000000  0 17G11R21R04R13R14G20R22R03G24G28R05G30
                                R12G10G08G15G13
 124277857.078 7  96840036.23344  23649321.984                    23649326.168
        43.200          25.500
                  85738976.475 6  20600200.297                    20600201.973
                        41.600
                  82560646.998 6  19822655.063                    19822655.629
                        41.900
                  80897901.989 6  19478030.250                    19478030.031
                        39.700
                  92920101.009 7  22412025.820                    22412028.336
                        42.800
 124325954.490 6  96877380.84243  23658451.414                    23658454.395
        39.400          20.100
                  90298904.127 6  21749179.219                    21749180.887
                        41.500
                  91775050.750 6  22042738.945                    22042739.953
                        41.000
 124042625.046 6  96656628.44143  23604528.156                    23604534.621
        36.700          22.000
 112424107.499 8  87603246.22845  21393605.352                    21393607.891
        48.400          34.800
                  90557518.624 5  21780847.555                    21780848.020
                        31.200
 123392305.470 7  96149866.25345  23480777.297                    23480781.535
        45.300          31.200
                                  21104292.836

 120230365.340 6  93686032.79145  22879077.492                    22879084.734
        39.500          31.700
 119893108.272 7  93423219.75445  22814898.492                    22814908.711
        44.800          31.600
 111885243.339 8  87183321.20546  21291054.563                    21291057.883
        52.100          36.500
 113803556.700 8  88678105.34245  21656096.414                    21656099.473
        48.000          35.400
 18  3 11 11 31 18.0000000  0 17G11R21R04R13R14G20R22R03G24G28R05G30
                                R12G10G08G15G13
 124275382.470 7  96838107.97744  23648851.477                    23648855.504
        43.700          26.500
                  85739854.810 6  20600411.578                    20600413.309
                        41.600
                  82561206.731 6  19822789.758                    19822789.531
                        41.900
                  80897210.638 6  19477863.258                    19477864.352
                        39.900
                  92917056.694 7  22411291.703                    22411294.883
                        42.600
 124329636.524 6  96880249.96643  23659151.625                    23659155.473
        39.600          21.500
                  90296467.257 6  21748593.125                    21748594.074
                        41.500
                  91778525.364 6  22043573.148                    22043574.813
                        41.300
 124039330.138 6  96654060.96343  23603901.211                    23603908.051
        37.100          21.700
 112424421.463 8  87603490.87945  21393665.172                    21393667.762
        48.800          34.900
                  90555063.188 5  21780258.023                    21780256.750
                        30.800
 123396149.617 7  96152861.66845  23481509.000                    23481513.848
        47.100          31.600
                                  21105014.750

 120228539.643 6  93684610.19245  22878730.578                    22878737.836
        40.200          31.800
 119895421.477 7  93425022.24645  22815338.914                    22815348.066
        44.400          30.500
 111886347.207 8  87184181.35846  21291264.609                    21291267.590
        52.400          36.700
 113806263.396 8  88680214.44945  21656611.602                    21656614.516
        48.400          35.400
 18  3 11 11 31 19.0000000  0 17G11R21R04R13R14G20R22R03G24G28R05G30
                                R12G10G08G15G13
 124272908.384 7  96836180.11144  23648380.820                    23648384.902
        43.200          26.000
                  85740733.911 6  20600623.133                    20600624.930
                        41.600
                  82561767.196 7  19822924.102                    19822924.621
                        42.200
                  80896519.979 6  19477696.750                    19477697.855
                        40.000
                  92914012.621 7  22410557.180                    22410560.000
                        43.000
 124333318.920 6  96883119.36543  23659852.336                    23659856.008
        40.100          21.500
                  90294030.848 6  21748005.359                    21748007.125
                        41.400
                  91782000.313 6  22044407.719                    22044409.172
                        41.200
 124036035.497 6  96651493.69243  23603274.516                    23603280.344
        36.900          21.800
 112424736.045 8  87603736.00745  21393725.188                    21393727.738
        48.300          35.200
                  90552608.204 5  21779667.055                    21779666.680
                        31.000
 123399994.089 7  96155857.37045  23482239.633                    23482245.320
        46.100          30.700
                                  21105737.031

 120226714.516 6  93683188.03745  22878383.852                    22878390.926
        40.800          31.900
 119897735.274 7  93426825.20544  22815779.219                    22815788.039
        44.100          29.700
 111887451.796 8  87185042.07646  21291474.969                    21291477.902
        52.500          36.700
 113808970.643 8  88682323.98145  21657127.836                    21657129.859
        49.200          35.900
 18  3 11 11 31 20.0000000  0 17G11R21R04R13R14G20R22R03G24G28R05G30
                                R12G10G08G15G13
 124270434.846 7  96834252.67144  23647909.844                    23647913.961
        42.500          24.700
                  85741613.832 6  20600834.336                    20600836.605
                        41.800
                  82562328.459 7  19823059.438                    19823059.539
                        42.300
                  80895830.045 6  19477531.172                    19477532.164
                        39.900
                  92910968.855 7  22409823.789                    22409825.816
                        42.400
 124337001.710 6  96885989.06643  23660554.242                    23660557.086
        39.500          21.500
                  90291594.976 6  21747419.188                    21747420.406
                        41.400
                  91785475.655 6  22045242.258                    22045243.668
                        41.500
 124032741.229 6  96648926.72043  23602647.984                    23602653.617
        37.000          21.100
 112425051.314 8  87603981.66645  21393784.938                    21393787.813
        48.000          35.200
                  90550153.757 5  21779077.258                    21779075.574
                        32.000
 123403838.927 7  96158853.36644  23482970.008                    23482976.855
        44.200          29.800
                                  21106459.945

 120224890.065 6  93681766.40745  22878036.734                    22878044.059
        41.200          32.700
 119900049.801 7  93428628.73844  22816219.930                    22816227.660
        44.000          29.400
 111888557.161 8  87185903.39746  21291685.305                    21291688.480
        52.800          36.700
 113811678.545 8  88684434.03445  21657642.766                    21657645.379
        49.800          35.500
 18  3 11 11 31 21.0000000  0 17G11R21R04R13R14G20R22R03G24G28R05G30
                                R12G10G08G15G13
 124267961.795 7  96832325.61044  23647438.734                    23647443.105
        42.200          24.400
                  85742494.483 6  20601045.859                    20601047.629
                        41.700
                  82562890.437 7  19823194.000                    19823194.102
                        42.000
                  80895140.741 6  19477366.117                    19477366.027
                        40.200
                  92907925.296 6  22409088.688                    22409091.051
                        41.600
 124340684.787 6  96888858.98843  23661254.938                    23661257.766
        40.100          21.500
                  90289159.582 6  21746832.852                    21746834.055
                        40.900
                  91788951.313 6  22046078.359                    22046078.574
                        41.200
 124029447.179 5  96646359.93043  23602021.109                    23602026.863
        35.900          20.900
 112425367.163 8  87604227.78545  21393845.094                    21393847.633
        48.100          35.300
                  90547699.728 5  21778487.109                    21778485.230
                        33.100
 123407684.065 7  96161849.59444  23483700.578                    23483708.238
        42.100          29.700
                                  21107182.500

 120223066.163 7  93680345.19745  22877690.313                    22877697.230
        42.300          33.500
 119902364.867 7  93430432.69844  22816660.938                    22816668.133
        43.900          29.400
 111889663.196 8  87186765.24146  21291895.742                    21291898.727
        52.800          37.300
 113814386.992 8  88686544.52145  21658157.508                    21658161.172
        49.600          35.100
 18  3 11 11 31 22.0000000  0 17G11R21R04R13R14G20R22R03G24G28R05G30
                                R12G10G08G15G13
 124265489.214 7  96830398.93844  23646968.219                    23646972.477
        42.000          24.600
                  85743375.857 6  20601257.641                    20601260.195
                        41.900
                  82563453.121 7  19823329.328                    19823329.219
                        42.300
                  80894452.078 6  19477199.727                    19477200.426
                        40.300
                  92904881.915 6  22408353.594                    22408356.578
                        41.200
 124344368.259 6  96891729.22743  23661956.289                    23661958.652
        38.700          21.300
                  90286724.663 6  21746247.000                    21746247.938
                        41.100
                  91792427.260 6  22046912.461                    22046913.625
                        41.500
 124026153.335 5  96643793.32243  23601393.188                    23601399.973
        35.700          20.900
 112425683.601 7  87604474.35345  21393905.398                    21393907.762
        47.900          35.000
                  90545246.139 5  21777896.531                    21777896.016
                        33.600
 123411529.412 7  96164845.93345  23484435.063                    23484439.703
        44.800          30.700
                                  21107905.461

 120221242.804 7  93678924.41445  22877343.133                    22877350.535
        43.400          34.200
 119904680.484 7  93432237.09444  22817101.109                    22817107.879
        42.600          28.200
 111890769.895 8  87187627.60546  21292106.539                    21292109.332
        52.500          36.700
 113817095.973 8  88688655.42145  21658672.688                    21658676.137
        49.000          35.100
 18  3 11 11 31 23.0000000  0 17G11R21R04R13R14G20R22R03G24G28R05G30
                                R12G10G08G15G13
 124263017.165 7  96828472.67044  23646497.836                    23646502.117
        42.000          25.100
                  85744257.977 7  20601470.039                    20601471.969
                        42.000
                  82564016.587 6  19823464.539                    19823464.840
                        41.900
                  80893764.089 6  19477033.906                    19477034.152
                        40.200
                  92901838.800 6  22407617.125                    22407621.660
                        40.400
 124348051.951 6  96894599.63543  23662656.297                    23662659.969
        37.700          21.100
                  90284290.228 6  21745659.148                    21745661.816
                        41.400
                  91795903.565 6  22047748.242                    22047748.664
                        41.300
 124022859.819 6  96641226.96943  23600766.594                    23600773.242
        36.700          21.300
 112426000.665 8  87604721.41945  21393965.430                    21393968.664
        48.000          34.800
                  90542793.019 5  21777307.125                    21777306.715
                        34.300
 123415375.031 7  96167842.49945  23485167.094                    23485171.723
        46.300          31.600
                                  21108628.664

 120219420.028 7  93677504.07845  22876995.195                    22877003.574
        44.100          34.500
 119906996.763 6  93434041.99744  22817541.141                    22817547.914
        41.600          28.800
 111891877.316 8  87188490.53046  21292316.898                    21292320.105
        52.300          37.300
 113819805.561 8  88690766.78745  21659188.727                    21659191.902
        48.600          35.700
 18  3 11 11 31 24.0000000  0 17G11R21R04R13R14G20R22R03G24G28R05G30
                                R12G10G08G15G13
 124260545.522 7  96826546.72044  23646028.133                    23646031.633
        42.300          24.700
                  85745140.796 7  20601681.766                    20601684.129
                        42.100
                  82564580.726 7  19823599.820                    19823599.988
                        42.100
                  80893076.698 6  19476867.492                    19476869.086
                        40.500
                  92898795.881 6  22406882.086                    22406887.344
                        38.900
 124351736.030 6  96897470.34643  23663356.734                    23663361.137
        37.700          20.100
                  90281856.257 6  21745074.164                    21745075.391
                        41.800
                  91799380.147 6  22048582.898                    22048583.953
                        41.000
 124019566.460 6  96638660.72743  23600140.734                    23600146.844
        36.400          21.100
 112426318.280 7  87604968.91045  21394026.133                    21394028.719
        47.900          34.600
                  90540340.279 5  21776717.086                    21776717.328
                        35.000
 123419220.855 7  96170839.25145  23485897.719                    23485903.930
        45.800          31.800
                                  21109351.781

 120217597.801 7  93676084.16745  22876649.336                    22876657.680
        44.300          35.500
 119909313.576 6  93435847.30744  22817983.070                    22817988.008
        41.400          29.600
 111892985.394 8  87189353.96846  21292528.086                    21292530.875
        52.000          37.300
 113822515.653 8  88692878.53245  21659704.953                    21659707.602
        49.100          35.700
 18  3 11 11 31 25.0000000  0 17G11R21R04R13R14G20R22R03G24G28R05G30
                                R12G10G08G15G13
 124258074.372 7  96824621.16043  23645557.398                    23645561.492
        42.200          23.400
                  85746024.405 7  20601893.945                    20601896.043
                        42.100
                  82565145.615 7  19823735.094                    19823735.609
                        42.300
                  80892389.959 6  19476702.758                    19476703.402
                        40.400
                  92895753.179 6  22406147.563                    22406151.680
                        37.900
 124355420.394 6  96900341.25543  23664057.336                    23664062.457
        36.900          19.600
                  90279422.783 6  21744486.641                    21744489.219
                        41.800
                  91802857.080 6  22049417.594                    22049418.426
                        40.700
 124016273.428 6  96636094.73343  23599512.547                    23599520.023
        36.700          21.800
 112426636.514 8  87605216.88645  21394086.977                    21394089.051
        48.000          34.500
                  90537887.999 5  21776126.492                    21776128.242
                        34.800
 123423067.000 7  96173836.26545  23486629.313                    23486635.809
        44.900          31.500
                                  21110074.531

 120215776.129 7  93674664.69345  22876302.594                    22876310.980
        45.100          34.900
 119911631.000 7  93437653.07744  22818425.586                    22818428.375
        42.600          29.800
 111894094.171 8  87190217.94846  21292739.164                    21292741.875
        52.100          37.600
 113825226.298 8  88694990.72545  21660220.820                    21660223.473
        49.600          35.800
 18  3 11 11 31 26.0000000  0 17G11R21R04R13R14G20R22R03G24G28R05G30
                                R12G10G08G15G13
 124255603.762 6  96822696.01543  23645087.234                    23645091.766
        41.800          23.400
                  85746908.774 7  20602106.727                    20602108.520
                        42.000
                  82565711.191 7  19823871.117                    19823871.559
                        42.300
                  80891703.890 6  19476537.969                    19476538.391
                        40.600
                  92892710.702 6  22405415.266                    22405417.520
                        37.900
 124359105.128 6  96903212.47243  23664758.258                    23664763.254
        36.500          19.300
                  90276989.795 6  21743901.227                    21743902.934
                        41.200
                  91806334.308 6  22050253.188                    22050254.293
                        40.900
 124012980.616 6  96633528.90943  23598887.063                    23598893.297
        36.500          21.700
 112426955.343 8  87605465.32145  21394147.594                    21394149.680
        48.000          34.600
                  90535436.146 5  21775535.922                    21775539.098
                        35.300
 123426913.425 7  96176833.49845  23487359.523                    23487367.805
        42.800          31.200
                                  21110797.484

 120213955.036 7  93673245.66745  22875956.156                    22875964.438
        45.100          34.800
 119913948.993 7  93439459.30045  22818867.094                    22818869.371
        43.900          30.400
 111895203.647 8  87191082.47446  21292950.219                    21292952.863
        52.000          37.600
 113827937.522 8  88697103.37146  21660736.734                    21660739.496
        49.300          36.000
 18  3 11 11 31 27.0000000  0 17G11R21R04R13R14G20R22R03G24G28R05G30
                                R12G10G08G15G13
 124253133.653 7  96820771.27444  23644617.281                    23644620.770
        42.600          24.700
                  85747793.896 7  20602319.414                    20602321.230
                        42.200
                  82566277.497 7  19824007.266                    19824007.992
                        42.700
                  80891018.476 6  19476371.766                    19476372.840
                        40.900
                  92889668.422 6  22404683.117                    22404682.902
                        38.200
 124362790.221 5  96906083.95043  23665459.070                    23665464.918
        35.800          19.000
                  90274557.304 6  21743315.695                    21743317.168
                        41.600
                  91809811.869 6  22051088.063                    22051088.680
                        40.800
 124009688.121 6  96630963.33043  23598260.914                    23598266.969
        36.400          21.300
 112427274.813 7  87605714.25745  21394208.320                    21394210.547
        47.600          34.800
                  90532984.750 5  21774945.188                    21774949.816
                        35.300
 123430760.184 7  96179830.95445  23488093.641                    23488099.340
        44.400          30.800
                                  21111521.836

 120212134.515 7  93671827.08445  22875609.617                    22875618.109
        45.500          35.100
 119916267.616 7  93441266.03145  22819307.398                    22819310.539
        43.200          30.600
 111896313.819 8  87191947.55146  21293161.273                    21293164.496
        52.100          37.800
 113830649.345 8  88699216.48746  21661252.016                    21661255.410
        48.800          36.100
 18  3 11 11 31 28.0000000  0 17G11R21R04R13R14G20R22R03G24G28R05G30
                                R12G10G08G15G13
 124250664.086 7  96818846.94543  23644147.664                    23644151.402
        42.900          23.200
                  85748679.756 7  20602532.219                    20602533.715
                        42.300
                  82566844.563 7  19824143.156                    19824143.578
                        42.600
                  80890333.743 6  19476207.828                    19476208.527
                        40.500
                  92886626.433 6  22403951.219                    22403949.539
                        39.800
 124366475.642 5  96908955.70142  23666160.469                    23666165.836
        35.800          17.400
                  90272125.308 6  21742728.609                    21742731.895
                        41.300
                  91813289.803 6  22051923.133                    22051924.805
                        41.000
 124006395.913 6  96628397.96743  23597634.281                    23597640.359
        36.800          22.200
 112427594.895 7  87605963.66445  21394268.828                    21394271.406
        47.500          35.300
                  90530533.876 5  21774354.773                    21774359.969
                        34.700
 123434607.144 7  96182828.55345  23488826.906                    23488831.602
        46.000          31.400
                                  21112244.219

 120210314.594 7  93670408.97145  22875263.203                    22875271.297
        45.100          34.600
 119918586.881 7  93443073.26345  22819748.453                    22819751.555
        43.600          30.900
 111897424.742 8  87192813.20946  21293372.852                    21293375.879
        52.100          37.800
 113833361.747 8  88701330.05746  21661768.242                    21661771.313
        48.200          36.200
 18  3 11 11 31 29.0000000  0 17G11R21R04R13R14G20R22R03G24G28R05G30
                                R12G10G08G15G13
 124248194.992 7  96816922.96944  23643677.836                    23643681.027
        42.900          24.200
                  85749566.375 7  20602745.477                    20602747.133
                        42.400
                  82567412.352 7  19824279.047                    19824279.965
                        42.600
                  80889649.640 6  19476042.992                    19476043.207
                        40.600
                  92883584.663 6  22403218.523                    22403216.535
                        40.900
 124370161.360 5  96911827.68942  23666862.039                    23666867.195
        35.500          17.400
                  90269693.770 6  21742143.336                    21742145.563
                        41.700
                  91816768.006 6  22052758.016                    22052759.074
                        41.000
 124003103.942 6  96625832.79043  23597008.523                    23597014.066
        36.800          22.200
 112427915.579 7  87606213.55345  21394329.875                    21394332.406
        47.100          35.700
                  90528083.389 5  21773765.906                    21773770.566
                        34.700
 123438454.388 7  96185826.40845  23489557.922                    23489564.059
        45.300          31.500
                                  21112967.039

 120208495.208 7  93668991.26945  22874916.820                    22874925.391
        44.600          33.800
 119920906.712 7  93444880.92845  22820190.883                    22820193.059
        43.800          31.200
 111898536.343 8  87193679.38946  21293584.039                    21293587.152
        52.300          38.300
 113836074.708 8  88703444.04546  21662284.961                    21662288.246
        48.600          36.000
 18  3 11 11 31 30.0000000  0 17G11R21R04R13R14G20R22R03G24G28R05G30
                                R12G10G08G15G13
 124245726.431 7  96814999.39844  23643207.938                    23643211.418
        42.600          25.700
                  85750453.747 7  20602959.023                    20602959.934
                        42.400
                  82567980.885 7  19824416.297                    19824416.789
                        42.800
                  80888966.209 6  19475877.930                    19475878.703
                        40.800
                  92880543.152 6  22402485.164                    22402483.762
                        41.600
 124373847.417 6  96914699.93242  23667564.336                    23667568.859
        36.300          17.400
                  90267262.756 6  21741559.234                    21741560.508
                        41.500
                  91820246.548 6  22053593.633                    22053595.125
                        41.100
 123999812.278 6  96623267.83743  23596380.938                    23596387.520
        36.300          22.300
 112428236.866 7  87606463.90545  21394391.102                    21394393.824
        47.200          35.800
                  90525633.353 5  21773176.266                    21773180.645
                        34.800
 123442301.929 7  96188824.50245  23490289.453                    23490295.770
        45.000          31.000
                                  21113692.531

 120206676.404 7  93667574.02645  22874570.680                    22874578.992
        44.000          32.600
 119923227.136 7  93446689.05145  22820632.289                    22820634.652
        44.500          32.600
 111899648.622 8  87194546.10446  21293795.664                    21293799.098
        52.200          38.100
 113838788.206 8  88705558.44946  21662801.133                    21662804.012
        48.600          36.200
 18  3 11 11 31 31.0000000  0 17G11R21R04R13R14G20R22R03G24G28R05G30
                                R12G10G08G15G13
 124243258.290 7  96813076.16044  23642737.469                    23642741.684
        42.000          24.100
                  85751341.819 7  20603171.586                    20603173.508
                        42.800
                  82568550.117 7  19824552.898                    19824552.973
                        43.100
                  80888283.372 6  19475714.539                    19475714.332
                        41.000
                  92877501.803 7  22401751.852                    22401752.355
                        42.400
 124377533.747 6  96917572.39442  23668265.734                    23668269.988
        37.100          17.400
                  90264832.129 6  21740972.789                    21740974.945
                        41.600
                  91823725.379 6  22054430.117                    22054430.801
                        41.300
 123996520.777 6  96620703.02943  23595753.922                    23595761.344
        36.600          22.000
 112428558.714 7  87606714.69745  21394452.867                    21394455.223
        47.500          35.500
                  90523183.719 5  21772588.734                    21772590.984
                        33.800
 123446149.672 7  96191822.75545  23491021.242                    23491028.223
        44.400          31.400
                                  21114414.461

 120204858.107 7  93666157.17645  22874224.195                    22874232.453
        44.000          32.500
 119925548.104 7  93448497.60145  22821073.078                    22821076.949
        44.200          32.700
 111900761.564 8  87195413.32746  21294007.336                    21294010.410
        51.700          38.100
 113841502.219 8  88707673.25846  21663317.953                    21663320.465
        49.200          36.400
 18  3 11 11 31 32.0000000  0 17G11R21R04R13R14G20R22R03G24G28R05G30
                                R12G10G08G15G13
 124240790.570 6  96811153.25743  23642267.703                    23642272.152
        41.700          22.800
                  85752230.629 7  20603385.758                    20603387.375
                        42.900
                  82569120.090 7  19824689.602                    19824690.355
                        43.300
                  80887601.176 6  19475549.492                    19475550.328
                        40.900
                  92874460.670 7  22401017.609                    22401019.535
                        42.700
 124381220.355 6  96920445.06342  23668967.461                    23668971.461
        37.200          16.900
                  90262402.000 6  21740387.773                    21740389.938
                        41.700
                  91827204.517 6  22055265.742                    22055266.227
                        41.600
 123993229.579 6  96618138.47543  23595127.453                    23595135.008
        36.600          21.700
 112428881.135 7  87606965.93545  21394514.078                    21394516.258
        47.500          35.700
                  90520734.510 5  21772000.086                    21772001.516
                        33.300
 123449997.704 7  96194821.22545  23491753.102                    23491760.215
        43.500          31.400
                                  21115138.703

 120203040.359 7  93664740.75345  22873878.266                    22873886.488
        42.500          30.700
 119927869.652 7  93450306.59545  22821514.672                    22821518.902
        44.800          33.000
 111901875.185 8  87196281.07946  21294219.563                    21294222.703
        51.700          38.300
 113844216.790 8  88709788.51345  21663834.078                    21663837.488
        48.900          35.700
 18  3 11 11 31 33.0000000  0 17G11R21R04R13R14G20R22R03G24G28R05G30
                                R12G10G08G15G13
 124238323.391 6  96809230.77544  23641798.313                    23641802.188
        41.600          25.600
                  85753120.214 7  20603600.266                    20603601.047
                        43.200
                  82569690.792 7  19824826.547                    19824826.980
                        43.400
                  80886919.646 6  19475385.961                    19475386.223
                        40.800
                  92871419.751 7  22400284.578                    22400286.023
                        43.400
 124384907.337 6  96923318.06942  23669669.523                    23669672.922
        37.600          17.800
                  90259972.335 7  21739802.258                    21739804.668
                        42.100
                  91830683.974 6  22056101.164                    22056101.805
                        41.900
 123989938.618 5  96615574.09143  23594501.625                    23594508.988
        35.600          22.000
 112429204.182 7  87607217.65145  21394575.211                    21394577.836
        47.300          35.600
                  90518285.711 5  21771411.508                    21771412.227
                        32.500
 123453846.003 7  96197819.87045  23492487.820                    23492492.168
        45.900          31.800
                                  21115862.180

 120201223.169 7  93663324.76244  22873531.727                    22873539.777
        42.100          29.100
 119930191.801 7  93452116.06145  22821957.820                    22821961.180
        46.300          33.600
 111902989.490 8  87197149.36046  21294431.836                    21294434.777
        51.800          38.300
 113846931.934 8  88711904.21345  21664350.914                    21664353.973
        49.000          35.800
 18  3 11 11 31 34.0000000  0 17G11R21R04R13R14G20R22R03G24G28R05G30
                                R12G10G08G15G13
 124235856.677 7  96807308.68444  23641329.391                    23641332.574
        42.300          25.000
                  85754010.491 7  20603813.758                    20603814.395
                        43.300
                  82570262.194 7  19824963.727                    19824964.258
                        43.400
                  80886238.739 6  19475222.164                    19475222.383
                        41.100
                  92868379.064 7  22399550.727                    22399553.711
                        43.400
 124388594.609 6  96926191.31343  23670371.883                    23670374.445
        38.500          18.300
                  90257543.153 6  21739218.008                    21739219.223
                        41.800
                  91834163.715 7  22056936.727                    22056937.441
                        42.300
 123986647.889 6  96613009.89543  23593875.328                    23593882.383
        36.300          22.300
 112429527.794 7  87607469.82045  21394636.945                    21394639.844
        47.300          35.900
                  90515837.316 5  21770822.563                    21770822.922
                        31.800
 123457694.494 7  96200818.68345  23493219.508                    23493225.074
        46.000          31.300
                                  21116585.266

 120199406.519 6  93661909.18544  22873186.648                    22873193.211
        41.500          28.900
 119932514.463 7  93453925.93045  22822399.883                    22822403.863
        47.000          34.000
 111904104.459 8  87198018.16246  21294643.891                    21294646.742
        52.000          38.500
 113849647.615 8  88714020.32545  21664867.484                    21664870.438
        48.700          35.600
 18  3 11 11 31 35.0000000  0 17G11R21R04R13R14G20R22R03G24G28R05G30
                                R12G10G08G15G13
 124233390.514 7  96805387.01444  23640860.617                    23640863.148
        43.100          24.300
                  85754901.573 7  20604027.727                    20604028.148
                        43.300
                  82570834.356 7  19825101.063                    19825101.766
                        43.700
                  80885558.533 6  19475057.891                    19475058.922
                        40.700
                  92865338.674 7  22398816.508                    22398819.914
                        43.800
 124392282.269 6  96929064.85543  23671074.125                    23671075.961
        38.700          19.000
                  90255114.485 6  21738633.703                    21738633.883
                        41.900
                  91837643.818 7  22057772.656                    22057773.848
                        42.100
 123983357.469 6  96610445.93943  23593249.906                    23593256.582
        36.300          22.600
 112429852.085 7  87607722.51245  21394698.641                    21394701.418
        47.200          35.700
                  90513389.418 5  21770234.641                    21770233.551
                        31.200
 123461543.377 7  96203817.81945  23493951.102                    23493957.141
        45.300          31.500
                                  21117310.742

 120197590.512 6  93660494.10844  22872840.734                    22872847.012
        41.900          26.300
 119934837.814 7  93455736.33445  22822840.805                    22822846.512
        46.400          34.700
 111905220.195 8  87198887.56746  21294856.539                    21294859.488
        52.400          38.500
 113852363.905 8  88716136.91246  21665384.734                    21665387.281
        48.900          36.000
