     2.11           OBSERVATION DATA    M (MIXED)           RINEX VERSION / TYPE
teqc  2018Mar15                         20180319 14:17:32UTCPGM / RUN BY / DATE
Linux 2.6.32-573.12.1.x86_64|x86_64|gcc -static|Linux 64|=+ COMMENT
END OF STATIC MODE OBSERVATION                              COMMENT
BIT 2 OF LLI FLAGS DATA COLLECTED UNDER A/S CONDITION       COMMENT
-Unknown-                                                   MARKER NAME
4625                                                        MARKER NUMBER
-Unknown-           -Unknown-                               OBSERVER / AGENCY
5127468778          TRIMBLE             4.63                REC # / TYPE / VERS
47477114                            NONE                    ANT # / TYPE
  2136267.6305  3207845.7445  5064960.4162                  APPROX POSITION XYZ
        0.0000        0.0000        0.0000                  ANTENNA: DELTA H/E/N
     1     1                                                WAVELENGTH FACT L1/2
     7    L1    L2    C1    P1    P2    S1    S2            # / TYPES OF OBSERV
    18                                                      LEAP SECONDS
 SNR is mapped to RINEX snr flag value [0-9]                COMMENT
  L1 & L2: min(max(int(snr_dBHz/6), 0), 9)                  COMMENT
  2018     3    11    10    48   49.0000000     GPS         TIME OF FIRST OBS
                                                            END OF HEADER
 18  3 11 10 48 49.0000000  0 17G10G20R03R11R12R13R20R21R04G27G07G21
                                G30G28G08G15G13
 127987967.444 6  99730928.47043  24355306.852                    24355312.758
        40.600          22.300
 117805821.490 7  91796819.44345  22417719.383                    22417722.207
        45.300          32.100
                  85456439.647 6  20525121.398                    20525122.113
                        40.600
                  95970446.578 7  23090865.734                    23090867.914
                        42.100
                                  19922415.531

                  85826405.894 6  20664679.703                    20664679.762
                        37.700
                  90085785.854 7  21659799.805                    21659803.363
                        42.200
                  87151303.668 7  20939534.633                    20939536.359
                        42.300
                  84669318.663 6  20328942.531                    20328943.238
                        41.000
 123501264.325 7  96234772.12844  23501511.031                    23501515.879
        42.000          27.800
 125223770.484 7  97576975.85444  23829293.313                    23829297.664
        44.100          29.000
 129563053.834 6 100958234.97543  24655031.250                    24655034.563
        41.700          20.100
 116227501.235 8  90566907.81146  22117359.664                    22117364.441
        50.000          37.600
 115077701.826 7  89670940.69444  21898557.539                    21898560.391
        44.500          29.600
 117618771.058 7  91651011.14846  22382107.602                    22382113.320
        46.400          36.000
 112880291.804 8  87958681.27746  21480405.398                    21480408.594
        51.500          39.000
 110434823.710 7  86053122.70245  21015048.734                    21015051.723
        47.600          34.100
 18  3 11 10 48 50.0000000  0 17G10G20R03R11R12R13R20R21R04G27G07G21
                                G30G28G08G15G13
 127984988.775 6  99728607.41943  24354740.516                    24354745.875
        40.500          21.800
 117808333.716 7  91798777.03245  22418197.523                    22418199.754
        45.300          32.300
                  85458750.729 6  20525676.664                    20525676.984
                        41.000
                  95974098.290 6  23091744.258                    23091746.273
                        41.600
                                  19922822.227

                  85824235.495 6  20664154.883                    20664156.738
                        38.100
                  90088160.240 6  21660370.617                    21660374.523
                        41.800
                  87150271.776 7  20939286.992                    20939288.391
                        42.200
                  84668080.377 6  20328645.641                    20328645.578
                        41.100
 123504378.599 7  96237198.83644  23502103.758                    23502108.707
        42.200          27.100
 125227564.710 7  97579932.38144  23830014.711                    23830019.977
        43.300          28.300
 129565834.627 6 100960401.82543  24655560.570                    24655563.684
        40.900          20.900
 116230369.587 8  90569142.89946  22117904.992                    22117910.238
        50.200          37.500
 115076507.394 7  89670009.96845  21898330.320                    21898333.063
        45.100          30.100
 117619372.523 7  91651479.82346  22382221.523                    22382227.758
        46.700          36.000
 112879594.539 8  87958137.95046  21480272.883                    21480276.348
        51.800          39.000
 110435883.516 7  86053948.52345  21015250.727                    21015253.672
        47.800          34.500
 18  3 11 10 48 51.0000000  0 17G10G20R03R11R12R13R20R21R04G27G07G21
                                G30G28G08G15G13
 127982010.419 6  99726286.61343  24354173.609                    24354179.398
        40.400          22.000
 117810846.420 7  91800734.98445  22418675.641                    22418678.352
        45.000          31.400
                  85461062.309 6  20526231.797                    20526232.449
                        40.800
                  95977750.147 6  23092623.766                    23092624.871
                        41.900
                                  19923229.891

                  85822065.551 6  20663632.461                    20663634.156
                        37.700
                  90090535.129 6  21660942.164                    21660945.172
                        41.800
                  87149240.549 7  20939039.641                    20939040.605
                        42.100
                  84666842.620 6  20328348.445                    20328348.543
                        41.000
 123507493.290 6  96239625.87344  23502695.930                    23502701.613
        41.700          27.100
 125231359.128 7  97582889.06044  23830737.508                    23830741.727
        43.400          28.100
 129568615.743 6 100962568.92243  24656090.023                    24656092.895
        40.900          20.400
 116233238.362 8  90571378.31646  22118450.742                    22118456.438
        50.100          37.400
 115075313.482 7  89669079.65244  21898103.523                    21898105.832
        45.400          29.600
 117619974.629 7  91651948.99845  22382336.273                    22382342.430
        46.800          35.400
 112878897.868 8  87957595.09046  21480140.234                    21480143.734
        52.100          38.800
 110436943.938 7  86054774.82045  21015452.352                    21015455.504
        47.800          33.900
 18  3 11 10 48 52.0000000  0 17G10G20R03R11R12R13R20R21R04G27G07G21
                                G30G28G08G15G13
 127979032.301 6  99723966.00243  24353606.922                    24353612.625
        40.900          22.600
 117813359.696 7  91802693.37845  22419153.891                    22419156.590
        45.000          31.600
                  85463374.433 6  20526786.008                    20526787.910
                        40.600
                  95981402.125 7  23093501.320                    23093504.012
                        42.000
                                  19923638.266

                  85819896.091 6  20663112.094                    20663112.211
                        37.900
                  90092910.580 6  21661513.766                    21661516.000
                        41.800
                  87148209.954 7  20938791.477                    20938792.980
                        42.400
                  84665605.445 6  20328051.367                    20328051.445
                        41.400
 123510608.447 6  96242053.27144  23503288.172                    23503294.320
        40.600          27.600
 125235153.733 7  97585845.87044  23831460.484                    23831463.633
        45.000          29.200
 129571397.127 6 100964736.25243  24656619.531                    24656622.445
        41.000          21.500
 116236107.569 8  90573614.06946  22118996.430                    22119002.359
        50.100          37.100
 115074120.054 7  89668149.70644  21897876.094                    21897879.027
        45.600          29.600
 117620577.412 7  91652418.69945  22382450.477                    22382457.352
        46.700          34.900
 112878201.854 8  87957052.73746  21480007.617                    21480011.531
        52.400          38.900
 110438005.019 7  86055601.63245  21015654.227                    21015657.672
        47.800          33.700
 18  3 11 10 48 53.0000000  0 17G10G20R03R11R12R13R20R21R04G27G07G21
                                G30G28G08G15G13
 127976054.411 6  99721645.57443  24353040.531                    24353046.043
        41.200          21.800
 117815873.437 7  91804652.13245  22419632.180                    22419634.723
        45.200          32.300
                  85465687.056 6  20527341.602                    20527343.586
                        41.100
                  95985054.212 7  23094379.570                    23094382.352
                        42.400
                                  19924045.242

                  85817726.988 6  20662589.164                    20662589.645
                        38.100
                  90095286.607 6  21662085.648                    21662087.598
                        41.900
                  87147180.000 7  20938544.555                    20938545.066
                        42.700
                  84664368.873 6  20327754.445                    20327754.836
                        41.000
 123513724.033 6  96244480.99344  23503880.477                    23503887.309
        40.100          28.100
 125238948.495 7  97588802.80344  23832183.828                    23832185.941
        46.600          29.400
 129574178.785 6 100966903.79143  24657148.406                    24657151.664
        40.800          21.100
 116238977.188 8  90575850.13746  22119542.500                    22119548.121
        49.300          37.000
 115072927.095 7  89667220.11844  21897648.906                    21897651.863
        45.300          28.800
 117621180.823 7  91652888.88945  22382565.500                    22382572.125
        46.800          35.100
 112877506.420 8  87956510.83846  21479875.266                    21479879.203
        52.500          39.100
 110439066.693 7  86056428.91245  21015856.242                    21015859.328
        47.300          33.600
 18  3 11 10 48 54.0000000  0 17G10G20R03R11R12R13R20R21R04G27G07G21
                                G30G28G08G15G13
 127973076.716 6  99719325.30143  24352473.094                    24352479.117
        40.900          22.600
 117818387.618 7  91806611.23145  22420110.938                    22420113.355
        45.100          31.800
                  85468000.163 6  20527899.313                    20527899.254
                        40.700
                  95988706.350 7  23095258.594                    23095260.941
                        43.000
                                  19924453.203

                  85815558.280 6  20662066.070                    20662067.867
                        38.400
                  90097663.069 6  21662655.766                    21662658.543
                        41.900
                  87146150.612 7  20938296.273                    20938297.340
                        43.000
                  84663132.822 6  20327457.461                    20327457.922
                        41.700
 123516839.928 6  96246908.93544  23504473.867                    23504480.211
        41.100          27.900
 125242743.330 8  97591759.81044  23832905.906                    23832908.266
        48.000          29.400
 129576960.635 6 100969071.46843  24657677.469                    24657681.102
        41.300          20.600
 116241847.162 8  90578086.48246  22120088.977                    22120094.848
        49.300          37.000
 115071734.544 7  89666290.85644  21897422.117                    21897425.137
        44.700          29.600
 117621784.812 7  91653359.52845  22382680.969                    22382686.723
        46.800          35.100
 112876811.548 8  87955969.37346  21479742.992                    21479746.734
        52.500          39.000
 110440128.943 7  86057256.64045  21016058.578                    21016061.422
        47.500          34.000
 18  3 11 10 48 55.0000000  0 17G10G20R03R11R12R13R20R21R04G27G07G21
                                G30G28G08G15G13
 127970099.269 6  99717005.20343  24351907.133                    24351912.609
        41.200          22.000
 117820902.334 7  91808570.74545  22420589.172                    22420591.918
        45.600          32.300
                  85470313.755 6  20528456.188                    20528454.750
                        40.400
                  95992358.621 7  23096138.023                    23096139.551
                        42.700
                                  19924860.906

                  85813390.058 6  20661545.063                    20661546.027
                        38.300
                  90100040.110 6  21663228.055                    21663230.063
                        41.700
                  87145121.873 7  20938049.086                    20938050.695
                        42.700
                  84661897.427 6  20327160.945                    20327161.063
                        41.500
 123519956.262 6  96249337.22044  23505066.875                    23505073.129
        41.600          28.600
 125246538.326 7  97594716.97445  23833627.414                    23833630.906
        46.800          30.300
 129579742.855 6 100971239.44543  24658207.367                    24658210.547
        41.100          21.100
 116244717.524 8  90580323.12346  22120634.969                    22120640.934
        49.200          37.100
 115070542.444 7  89665361.95144  21897195.102                    21897198.344
        44.900          29.300
 117622389.407 7  91653830.64745  22382796.273                    22382802.137
        46.900          35.100
 112876117.291 8  87955428.39246  21479610.625                    21479614.676
        52.200          39.600
 110441191.825 7  86058084.85945  21016261.461                    21016263.875
        47.600          34.400
 18  3 11 10 48 56.0000000  0 17G10G20R03R11R12R13R20R21R04G27G07G21
                                G30G28G08G15G13
 127967122.093 6  99714685.31843  24351340.672                    24351346.102
        41.800          22.600
 117823417.545 7  91810530.64545  22421067.906                    22421070.773
        45.800          32.700
                  85472627.906 6  20529010.406                    20529010.672
                        40.400
                  95996011.008 7  23097015.617                    23097018.781
                        42.400
                                  19925269.148

                  85811222.229 6  20661023.297                    20661024.180
                        38.200
                  90102417.646 7  21663797.750                    21663802.098
                        42.100
                  87144093.789 7  20937802.633                    20937803.813
                        42.600
                  84660662.606 6  20326864.680                    20326865.203
                        41.500
 123523072.973 6  96251765.81344  23505659.805                    23505666.656
        41.100          27.600
 125250333.558 7  97597674.32744  23834347.719                    23834353.379
        45.400          28.900
 129582525.295 6 100973407.58243  24658736.758                    24658739.770
        40.900          21.300
 116247588.312 8  90582560.09046  22121181.672                    22121187.152
        49.800          37.300
 115069350.855 7  89664433.44945  21896968.758                    21896971.500
        44.500          30.400
 117622994.654 7  91654302.27045  22382911.336                    22382917.047
        46.800          35.400
 112875423.624 8  87954887.87146  21479478.789                    21479482.395
        52.000          39.700
 110442255.349 8  86058913.58545  21016464.117                    21016466.063
        48.300          34.700
 18  3 11 10 48 57.0000000  0 17G10G20R03R11R12R13R20R21R04G27G07G21
                                G30G28G08G15G13
 127964145.184 6  99712365.63644  24350774.336                    24350779.309
        41.700          24.400
 117825933.217 7  91812490.90545  22421546.703                    22421549.500
        46.100          32.100
                  85474942.563 6  20529563.477                    20529566.246
                        40.600
                  95999663.563 7  23097895.625                    23097896.859
                        42.500
                                  19925677.969

                  85809054.766 6  20660500.430                    20660502.414
                        37.700
                  90104795.723 7  21664370.625                    21664373.770
                        42.300
                  87143066.392 7  20937555.266                    20937556.543
                        42.600
                  84659428.358 6  20326567.359                    20326568.918
                        41.800
 123526190.189 6  96254194.79444  23506253.039                    23506259.438
        40.100          27.000
 125254128.975 7  97600631.80844  23835069.297                    23835075.500
        43.500          28.300
 129585308.021 6 100975575.91843  24659265.898                    24659269.156
        40.900          20.600
 116250459.493 8  90584797.36746  22121728.031                    22121733.430
        50.000          36.900
 115068159.752 7  89663505.30845  21896741.586                    21896744.574
        43.900          30.300
 117623600.608 7  91654774.44845  22383026.344                    22383032.227
        47.100          34.600
 112874730.561 8  87954347.82046  21479346.578                    21479350.449
        51.900          38.900
 110443319.476 8  86059742.77345  21016666.594                    21016668.656
        48.700          34.200
 18  3 11 10 48 58.0000000  0 17G10G20R03R11R12R13R20R21R04G27G07G21
                                G30G28G08G15G13
 127961168.527 6  99710046.16743  24350207.875                    24350213.148
        41.300          23.900
 117828449.450 7  91814451.61745  22422025.125                    22422027.816
        46.300          32.300
                  85477257.816 6  20530118.047                    20530122.461
                        41.100
                  96003316.217 7  23098774.148                    23098775.785
                        43.000
                                  19926085.430

                  85806887.802 6  20659980.039                    20659980.578
                        38.100
                  90107174.371 7  21664943.195                    21664946.281
                        42.300
                  87142039.634 7  20937308.367                    20937309.023
                        42.800
                  84658194.714 6  20326272.195                    20326272.355
                        41.600
 123529307.778 6  96256624.07344  23506846.242                    23506852.715
        40.400          27.300
 125257924.634 7  97603589.45944  23835791.109                    23835797.215
        42.600          27.200
 129588091.079 6 100977744.51543  24659795.398                    24659798.859
        40.700          20.900
 116253331.120 8  90587034.99746  22122274.547                    22122279.965
        50.200          37.300
 115066969.137 7  89662577.55845  21896514.945                    21896518.148
        44.500          30.200
 117624207.199 7  91655247.11745  22383141.789                    22383147.566
        47.000          34.600
 112874038.152 8  87953808.28546  21479215.000                    21479219.207
        51.400          39.400
 110444384.258 8  86060572.47645  21016869.055                    21016871.363
        48.100          34.100
 18  3 11 10 48 59.0000000  0 17G10G20R03R11R12R13R20R21R04G27G07G21
                                G30G28G08G15G13
 127958192.181 6  99707726.92143  24349640.891                    24349646.500
        41.100          23.300
 117830966.258 7  91816412.76345  22422504.398                    22422507.227
        45.500          31.500
                  85479573.650 6  20530676.969                    20530678.480
                        41.300
                  96006969.088 7  23099652.898                    23099654.801
                        42.000
                                  19926493.922

                  85804721.352 6  20659457.914                    20659458.895
                        37.800
                  90109553.601 7  21665514.711                    21665517.965
                        42.200
                  87141013.576 7  20937062.703                    20937062.809
                        42.600
                  84656961.637 7  20325975.156                    20325975.840
                        42.300
 123532425.882 6  96259053.74344  23507440.359                    23507446.039
        41.900          27.200
 125261720.595 7  97606547.32744  23836514.500                    23836519.336
        42.200          27.900
 129590874.465 6 100979913.39343  24660325.148                    24660328.047
        40.200          20.400
 116256203.274 8  90589273.04046  22122821.109                    22122826.574
        50.200          37.900
 115065779.128 7  89661650.27844  21896288.727                    21896291.730
        44.200          29.400
 117624814.536 7  91655720.37445  22383257.344                    22383263.328
        46.800          35.100
 112873346.414 8  87953269.26946  21479083.367                    21479087.145
        50.500          38.700
 110445449.778 8  86061402.74345  21017071.664                    21017073.957
        48.300          34.800
 18  3 11 10 49  0.0000000  0 17G10G20R03R11R12R13R20R21R04G27G07G21
                                G30G28G08G15G13
 127955216.155 6  99705407.93943  24349075.219                    24349080.621
        41.100          22.800
 117833483.492 7  91818374.25145  22422983.250                    22422986.223
        45.400          31.400
                  85481889.895 6  20531236.078                    20531234.523
                        40.900
                  96010622.114 7  23100531.930                    23100534.480
                        42.000
                                  19926902.898

                  85802555.252 6  20658936.969                    20658937.547
                        37.500
                  90111933.401 7  21666087.125                    21666090.293
                        42.500
                  87139988.227 7  20936815.883                    20936816.781
                        42.700
                  84655729.154 7  20325679.648                    20325680.645
                        42.100
 123535544.452 6  96261483.77844  23508033.820                    23508039.660
        41.600          26.700
 125265516.708 7  97609505.31144  23837237.875                    23837241.785
        42.900          27.700
 129593658.132 6 100982082.48143  24660855.219                    24660857.977
        39.900          21.100
 116259075.826 8  90591511.39846  22123367.641                    22123372.949
        50.100          37.800
 115064589.565 7  89660723.34244  21896062.094                    21896065.332
        44.300          29.100
 117625422.533 7  91656194.14445  22383373.234                    22383379.457
        46.800          35.000
 112872655.271 8  87952730.72346  21478951.750                    21478955.625
        50.000          38.300
 110446515.879 8  86062233.46745  21017274.102                    21017276.965
        48.400          34.700
 18  3 11 10 49  1.0000000  0 17G10G20R03R11R12R13R20R21R04G27G07G21
                                G30G28G08G15G13
 127952240.335 6  99703089.11143  24348508.891                    24348513.910
        41.300          22.900
 117836001.253 7  91820336.14845  22423462.000                    22423465.141
        45.000          31.200
                  85484206.653 6  20531792.133                    20531791.734
                        41.500
                  96014275.248 6  23101410.625                    23101412.734
                        41.700
                                  19927311.477

                  85800389.569 6  20658413.695                    20658414.754
                        37.700
                  90114313.704 7  21666660.484                    21666662.961
                        42.600
                  87138963.451 7  20936569.508                    20936570.906
                        42.900
                  84654497.254 7  20325383.766                    20325384.629
                        42.100
 123538663.395 6  96263914.10844  23508627.273                    23508633.262
        40.900          27.300
 125269312.963 7  97612463.40544  23837960.648                    23837963.789
        44.000          28.000
 129596442.066 6 100984251.78843  24661385.031                    24661387.840
        40.500          21.500
 116261948.742 8  90593750.03346  22123914.414                    22123920.023
        49.600          37.400
 115063400.453 7  89659796.76744  21895835.719                    21895838.605
        44.300          29.400
 117626031.138 7  91656668.38245  22383488.836                    22383495.164
        46.700          34.800
 112871964.733 8  87952192.64646  21478820.625                    21478824.242
        50.000          38.700
 110447582.568 8  86063064.65045  21017477.141                    21017479.715
        48.400          34.200
 18  3 11 10 49  2.0000000  0 17G10G20R03R11R12R13R20R21R04G27G07G21
                                G30G28G08G15G13
 127949264.827 6  99700770.53743  24347941.852                    24347947.973
        41.400          22.800
 117838519.575 7  91822298.48444  22423941.320                    22423944.262
        44.900          29.900
                  85486524.045 6  20532346.086                    20532348.695
                        41.700
                  96017928.523 6  23102289.570                    23102291.828
                        41.500
                                  19927720.602

                  85798224.394 6  20657893.547                    20657893.867
                        37.900
                  90116694.586 7  21667231.930                    21667235.258
                        42.300
                  87137939.375 7  20936324.109                    20936324.426
                        42.600
                  84653266.017 7  20325088.336                    20325089.277
                        42.300
 123541782.806 6  96266344.80444  23509220.820                    23509226.891
        41.400          27.400
 125273109.408 7  97615421.66844  23838683.961                    23838686.473
        45.000          27.800
 129599226.325 6 100986421.33643  24661914.563                    24661917.492
        40.400          20.900
 116264822.122 8  90595989.03446  22124460.727                    22124466.781
        49.200          37.900
 115062211.859 7  89658870.58344  21895609.766                    21895612.504
        44.800          29.100
 117626640.402 7  91657143.12945  22383604.484                    22383610.563
        46.400          34.900
 112871274.843 8  87951655.07646  21478689.539                    21478692.910
        50.400          38.700
 110448649.959 8  86063896.38845  21017680.234                    21017683.000
        48.100          34.800
 18  3 11 10 49  3.0000000  0 17G10G20R03R11R12R13R20R21R04G27G07G21
                                G30G28G08G15G13
 127946289.580 6  99698452.16843  24347376.070                    24347382.254
        41.700          22.300
 117841038.417 7  91824261.21945  22424420.617                    22424423.441
        44.600          30.300
                  85488842.032 6  20532902.195                    20532904.547
                        41.500
                  96021581.936 6  23103169.594                    23103171.023
                        41.800
                                  19928129.258

                  85796059.649 6  20657370.875                    20657372.785
                        38.300
                  90119076.037 7  21667805.727                    21667807.867
                        42.200
                  87136915.934 7  20936077.609                    20936079.637
                        42.600
                  84652035.397 7  20324792.734                    20324793.578
                        42.300
 123544902.671 7  96268775.87844  23509815.031                    23509820.082
        42.400          27.100
 125276906.055 7  97618380.12444  23839405.836                    23839408.895
        44.900          28.200
 129602010.915 6 100988591.14343  24662444.906                    24662447.395
        40.600          20.900
 116267695.947 8  90598228.38346  22125007.039                    22125013.336
        48.700          37.900
 115061023.771 7  89657944.80144  21895383.820                    21895386.559
        45.000          29.500
 117627250.336 7  91657618.39645  22383721.078                    22383727.000
        46.400          35.400
 112870585.558 8  87951117.97046  21478558.461                    21478561.961
        50.900          38.700
 110449718.012 8  86064728.63845  21017883.313                    21017886.078
        48.400          34.900
 18  3 11 10 49  4.0000000  0 17G10G20R03R11R12R13R20R21R04G27G07G21
                                G30G28G08G15G13
 127943314.564 6  99696133.96643  24346809.758                    24346815.590
        41.300          22.500
 117843557.784 7  91826224.36145  22424899.750                    22424902.836
        44.600          30.700
                  85491160.489 6  20533462.359                    20533461.320
                        41.500
                  96025235.477 6  23104047.508                    23104050.199
                        41.900
                                  19928538.758

                  85793895.315 6  20656849.242                    20656851.879
                        38.400
                  90121458.000 7  21668378.047                    21668380.477
                        42.300
                  87135893.132 7  20935831.344                    20935833.176
                        42.500
                  84650805.352 7  20324497.820                    20324498.277
                        42.300
 123548022.879 7  96271207.19844  23510408.586                    23510414.359
        42.800          27.100
 125280702.884 7  97621338.71944  23840127.344                    23840131.824
        44.500          28.100
 129604795.789 6 100990761.17243  24662974.953                    24662977.328
        40.200          20.900
 116270570.155 8  90600468.01946  22125554.961                    22125560.379
        48.800          37.900
 115059836.160 7  89657019.39244  21895157.922                    21895160.770
        43.700          29.600
 117627860.885 7  91658094.14945  22383837.344                    22383843.059
        46.500          34.900
 112869896.905 8  87950581.36146  21478427.375                    21478430.477
        51.100          38.900
 110450786.676 8  86065561.36445  21018087.063                    21018089.172
        48.800          34.400
 18  3 11 10 49  5.0000000  0 17G10G20R03R11R12R13R20R21R04G27G07G21
                                G30G28G08G15G13
 127940339.817 6  99693815.97743  24346244.203                    24346249.887
        41.500          22.300
 117846077.587 7  91828187.83745  22425379.555                    22425382.609
        45.300          30.900
                  85493479.394 6  20534021.016                    20534018.770
                        41.500
                  96028889.100 7  23104926.945                    23104929.457
                        42.100
                                  19928947.906

                  85791731.437 6  20656329.664                    20656330.449
                        38.500
                  90123840.488 7  21668950.508                    21668952.969
                        42.300
                  87134870.986 7  20935585.938                    20935587.945
                        42.700
                  84649575.843 7  20324202.000                    20324202.816
                        42.200
 123551143.490 7  96273638.85144  23511002.063                    23511007.895
        42.500          27.100
 125284499.868 7  97624297.42444  23840849.016                    23840854.293
        43.800          27.700
 129607580.889 6 100992931.38443  24663504.898                    24663507.055
        40.500          21.500
 116273444.740 8  90602707.95046  22126101.836                    22126107.477
        49.200          37.900
 115058649.002 7  89656094.33144  21894931.773                    21894934.473
        43.700          29.700
 117628472.072 7  91658570.39945  22383953.227                    22383959.266
        47.200          35.300
 112869208.832 8  87950045.20746  21478296.320                    21478299.590
        51.200          38.600
 110451855.929 8  86066394.55345  21018290.617                    21018293.023
        49.400          35.000
 18  3 11 10 49  6.0000000  0 17G10G20R03R11R12R13R20R21R04G27G07G21
                                G30G28G08G15G13
 127937365.354 6  99691498.21243  24345677.625                    24345683.801
        41.200          22.300
 117848597.934 7  91830151.73945  22425859.430                    22425862.699
        45.000          31.500
                  85495798.864 6  20534576.039                    20534576.410
                        41.500
                  96032542.851 6  23105806.156                    23105808.027
                        41.800
                                  19929357.188

                  85789568.019 6  20655810.484                    20655810.121
                        38.600
                  90126223.568 7  21669522.750                    21669526.055
                        42.000
                  87133849.504 7  20935340.859                    20935342.953
                        42.900
                  84648346.907 7  20323907.695                    20323907.781
                        42.100
 123554264.641 6  96276070.92444  23511595.656                    23511601.762
        41.300          27.000
 125288297.119 7  97627256.32044  23841572.031                    23841576.730
        43.000          27.400
 129610366.312 6 100995101.87043  24664035.094                    24664037.535
        40.500          22.000
 116276319.797 8  90604948.25546  22126648.641                    22126654.672
        49.400          38.100
 115057462.360 7  89655169.68245  21894706.258                    21894708.617
        44.100          30.400
 117629083.933 7  91659047.17445  22384069.742                    22384075.363
        47.300          35.600
 112868521.401 8  87949509.54446  21478165.633                    21478169.039
        51.600          39.200
 110452925.867 8  86067228.26545  21018494.242                    21018496.371
        49.500          34.700
 18  3 11 10 49  7.0000000  0 17G10G20R03R11R12R13R20R21R04G27G07G21
                                G30G28G08G15G13
 127934391.115 6  99689180.62643  24345111.805                    24345117.430
        41.100          22.500
 117851118.798 7  91832116.04645  22426339.516                    22426342.063
        44.500          31.700
                  85498118.886 6  20535130.516                    20535133.352
                        41.400
                  96036196.728 6  23106684.586                    23106686.871
                        41.700
                                  19929767.273

                  85787404.966 6  20655288.156                    20655289.469
                        38.700
                  90128607.161 7  21670095.109                    21670099.148
                        42.300
                  87132828.662 7  20935094.633                    20935097.477
                        43.100
                  84647118.562 7  20323613.000                    20323613.563
                        42.200
 123557386.132 6  96278503.25444  23512189.977                    23512195.727
        41.100          27.500
 125292094.510 7  97630215.31044  23842295.430                    23842299.004
        43.700          28.200
 129613152.002 6 100997272.53043  24664565.125                    24664567.609
        40.300          22.500
 116279195.228 8  90607188.84446  22127196.359                    22127201.715
        50.000          38.300
 115056276.197 7  89654245.39944  21894480.219                    21894483.102
        44.200          29.800
 117629696.432 7  91659524.44745  22384186.688                    22384192.172
        47.300          35.500
 112867834.589 8  87948974.35946  21478035.266                    21478038.406
        51.900          39.100
 110453996.416 8  86068062.45945  21018697.883                    21018700.563
        49.300          34.400
 18  3 11 10 49  8.0000000  0 17G10G20R03R11R12R13R20R21R04G27G07G21
                                G30G28G08G15G13
 127931417.157 6  99686863.25543  24344546.008                    24344551.680
        41.300          22.300
 117853640.146 7  91834080.73045  22426818.727                    22426821.320
        44.900          32.300
                  85500439.466 6  20535687.641                    20535689.859
                        41.200
                  96039850.782 6  23107565.008                    23107566.332
                        41.900
                                  19930176.930

                  85785242.354 6  20654766.828                    20654768.238
                        38.100
                  90130991.303 7  21670668.125                    21670672.391
                        42.200
                  87131808.490 7  20934850.961                    20934852.023
                        43.000
                  84645890.788 7  20323316.469                    20323318.309
                        42.100
 123560508.072 7  96280935.93144  23512784.719                    23512789.422
        42.200          27.400
 125295892.118 7  97633174.44744  23843019.242                    23843021.156
        44.700          28.700
 129615937.996 6 100999443.44943  24665094.578                    24665097.758
        39.800          22.600
 116282071.104 8  90609429.78146  22127744.008                    22127748.895
        50.500          38.400
 115055090.498 7  89653321.47044  21894254.609                    21894257.734
        44.100          29.900
 117630309.586 7  91660002.22745  22384303.414                    22384309.328
        47.900          35.900
 112867148.395 8  87948439.65846  21477904.273                    21477907.668
        52.100          39.400
 110455067.605 8  86068897.14645  21018901.625                    21018904.301
        49.000          34.500
 18  3 11 10 49  9.0000000  0 17G10G20R03R11R12R13R20R21R04G27G07G21
                                G30G28G08G15G13
 127928443.474 6  99684546.09443  24343979.688                    24343985.676
        41.000          22.600
 117856162.034 7  91836045.83345  22427299.539                    22427301.824
        45.100          31.700
                  85502760.523 6  20536247.688                    20536247.262
                        41.400
                  96043504.977 7  23108443.438                    23108445.594
                        42.300
                                  19930586.648

                  85783080.239 6  20654247.344                    20654247.875
                        38.600
                  90133375.978 7  21671242.016                    21671245.863
                        42.000
                  87130789.005 7  20934605.758                    20934607.316
                        42.900
                  84644663.655 6  20323023.688                    20323024.172
                        41.800
 123563630.448 7  96283368.94644  23513379.570                    23513383.770
        42.700          28.600
 125299689.896 7  97636133.74144  23843741.977                    23843744.137
        45.800          27.100
 129618724.264 6 101001614.57243  24665625.195                    24665628.027
        39.200          22.800
 116284947.402 8  90611671.05546  22128290.883                    22128296.434
        50.200          38.300
 115053905.337 7  89652397.97445  21894029.102                    21894031.922
        43.900          30.200
 117630923.416 8  91660480.53945  22384420.836                    22384425.902
        48.000          34.800
 112866462.826 8  87947905.44846  21477773.945                    21477777.152
        52.200          39.400
 110456139.429 8  86069732.32345  21019105.727                    21019108.559
        48.800          35.000
 18  3 11 10 49 10.0000000  0 17G10G20R03R11R12R13R20R21R04G27G07G21
                                G30G28G08G15G13
 127925470.045 6  99682229.12643  24343414.141                    24343419.777
        40.900          22.000
 117858684.432 7  91838011.33745  22427779.281                    22427781.914
        44.900          31.500
                  85505082.058 6  20536805.727                    20536805.191
                        41.600
                  96047159.300 6  23109322.461                    23109324.590
                        41.400
                                  19930996.609

                  85780918.543 6  20653727.664                    20653727.711
                        38.600
                  90135761.222 6  21671814.961                    21671819.188
                        41.900
                  87129770.145 7  20934360.344                    20934362.121
                        43.200
                  84643437.112 6  20322727.859                    20322728.992
                        41.600
 123566753.242 7  96285802.28244  23513973.055                    23513978.203
        42.600          28.500
 125303487.892 7  97639093.23044  23844464.961                    23844466.699
        46.000          29.600
 129621510.848 6 101003785.93643  24666155.438                    24666158.250
        38.500          22.800
 116287824.127 8  90613912.67046  22128837.711                    22128843.570
        49.600          38.300
 115052720.678 7  89651474.86744  21893804.320                    21893806.789
        44.200          29.000
 117631537.884 7  91660959.34745  22384537.305                    22384542.770
        47.500          34.900
 112865777.891 8  87947371.73146  21477643.430                    21477647.027
        52.000          39.200
 110457211.908 8  86070568.02345  21019309.422                    21019312.363
        48.500          35.000
 18  3 11 10 49 11.0000000  0 17G10G20R03R11R12R13R20R21R04G27G07G21
                                G30G28G08G15G13
 127922496.889 6  99679912.38443  24342848.234                    24342853.871
        40.600          21.300
 117861207.281 7  91839977.19645  22428259.133                    22428262.172
        44.100          31.700
                  85507404.068 6  20537361.750                    20537363.461
                        41.700
                  96050813.701 6  23110201.297                    23110203.762
                        41.300
                                  19931406.070

                  85778757.196 6  20653206.125                    20653208.020
                        38.600
                  90138146.979 6  21672389.266                    21672392.641
                        41.900
                  87128751.881 7  20934116.633                    20934118.102
                        42.600
                  84642211.135 6  20322433.508                    20322434.719
                        41.900
 123569876.438 7  96288235.93544  23514568.273                    23514572.230
        43.200          27.100
 125307286.002 7  97642052.81944  23845187.031                    23845189.176
        45.900          28.700
 129624297.709 6 101005957.53243  24666686.008                    24666688.664
        37.700          22.000
 116290701.238 8  90616154.57646  22129385.070                    22129391.348
        49.300          38.200
 115051536.447 7  89650552.09445  21893578.883                    21893581.164
        44.100          30.200
 117632152.968 7  91661438.63945  22384654.008                    22384659.977
        46.900          35.400
 112865093.528 8  87946838.46046  21477513.070                    21477516.695
        51.500          38.800
 110458284.967 8  86071404.17045  21019513.813                    21019516.293
        48.500          34.700
 18  3 11 10 49 12.0000000  0 17G10G20R03R11R12R13R20R21R04G27G07G21
                                G30G28G08G15G13
 127919523.940 6  99677595.81343  24342283.234                    24342288.820
        41.100          21.800
 117863730.662 7  91841943.46345  22428739.492                    22428742.230
        44.700          32.000
                  85509726.676 6  20537918.578                    20537921.250
                        41.400
                  96054468.237 6  23111080.414                    23111083.004
                        40.600
                                  19931817.258

                  85776596.290 6  20652684.039                    20652686.637
                        38.600
                  90140533.292 6  21672963.141                    21672966.027
                        41.800
                  87127734.317 7  20933871.781                    20933873.598
                        42.600
                  84640985.753 6  20322139.750                    20322140.164
                        41.800
 123573000.033 7  96290669.91144  23515162.742                    23515166.719
        44.300          29.100
 125311084.354 7  97645012.59444  23845909.836                    23845912.047
        46.400          28.100
 129627084.806 6 101008129.29343  24667215.688                    24667218.715
        37.100          21.700
 116293578.784 8  90618396.81746  22129932.922                    22129938.496
        49.300          38.000
 115050352.731 7  89649629.70945  21893353.172                    21893355.820
        43.700          30.900
 117632768.712 7  91661918.43945  22384770.391                    22384776.941
        46.800          35.400
 112864409.808 8  87946305.68846  21477383.039                    21477386.508
        51.700          38.800
 110459358.698 8  86072240.84645  21019718.438                    21019720.898
        48.400          35.100
 18  3 11 10 49 13.0000000  0 17G10G20R03R11R12R13R20R21R04G27G07G21
                                G30G28G08G15G13
 127916551.334 6  99675279.51243  24341716.922                    24341722.438
        41.300          21.800
 117866254.550 7  91843910.12745  22429219.977                    22429222.332
        44.900          32.700
                  85512049.818 6  20538477.523                    20538478.598
                        41.500
                  96058122.926 6  23111960.516                    23111962.168
                        40.700
                                  19932227.469

                  85774435.897 6  20652165.352                    20652165.973
                        37.900
                  90142920.165 7  21673538.148                    21673540.047
                        42.100
                  87126717.395 7  20933627.141                    20933629.676
                        42.600
                  84639760.953 6  20321845.648                    20321846.109
                        41.900
 123576124.116 7  96293104.26944  23515756.703                    23515761.023
        44.100          28.600
 125314882.896 7  97647972.52944  23846633.211                    23846634.918
        47.300          29.300
 129629872.292 6 101010301.36443  24667746.773                    24667749.453
        37.300          20.900
 116296456.774 8  90620639.40246  22130480.820                    22130486.582
        49.300          37.600
 115049169.487 7  89648707.69745  21893128.242                    21893130.680
        43.700          30.000
 117633385.167 7  91662398.79545  22384887.477                    22384894.383
        46.700          35.500
 112863726.713 8  87945773.40346  21477252.891                    21477256.980
        51.700          39.100
 110460433.076 8  86073078.02145  21019922.867                    21019925.402
        49.000          34.700
 18  3 11 10 49 14.0000000  0 17G10G20R03R11R12R13R20R21R04G27G07G21
                                G30G28G08G15G13
 127913578.979 6  99672963.38643  24341151.211                    24341156.695
        40.900          22.000
 117868778.982 7  91845877.22445  22429700.008                    22429702.832
        45.000          32.000
                  85514373.469 6  20539037.148                    20539037.121
                        41.500
                  96061777.730 6  23112840.945                    23112841.855
                        41.100
                                  19932638.617

                  85772275.951 6  20651645.977                    20651646.074
                        38.100
                  90145307.553 7  21674113.445                    21674114.398
                        42.200
                  87125701.164 7  20933382.664                    20933384.875
                        42.600
                  84638536.764 6  20321551.906                    20321552.969
                        41.800
 123579248.604 7  96295538.95244  23516351.367                    23516355.543
        44.000          28.900
 125318681.625 7  97650932.59944  23847355.672                    23847357.832
        47.000          29.900
 129632660.029 6 101012473.61443  24668275.914                    24668279.598
        37.100          21.100
 116299335.176 8  90622882.30746  22131028.391                    22131034.129
        49.100          38.300
 115047986.777 7  89647786.10845  21892903.406                    21892905.652
        43.500          30.100
 117634002.248 7  91662879.63545  22385005.406                    22385011.625
        46.900          35.700
 112863044.260 8  87945241.62346  21477123.094                    21477127.172
        51.500          39.300
 110461508.096 8  86073915.68845  21020127.617                    21020129.828
        49.000          34.500
 18  3 11 10 49 15.0000000  0 17G10G20R03R11R12R13R20R21R04G27G07G21
                                G30G28G08G15G13
 127910606.907 6  99670647.46843  24340585.914                    24340591.406
        41.100          21.500
 117871303.960 7  91847844.74245  22430179.883                    22430183.098
        44.700          31.800
                  85516697.685 6  20539594.711                    20539595.379
                        41.500
                  96065432.747 6  23113719.578                    23113721.203
                        41.400
                                  19933049.070

                  85770116.408 6  20651124.797                    20651126.340
                        38.300
                  90147695.558 7  21674686.094                    21674688.289
                        42.500
                  87124685.612 7  20933138.750                    20933140.879
                        42.600
                  84637313.200 6  20321257.703                    20321258.996
                        41.900
 123582373.578 7  96297974.01444  23516944.992                    23516951.012
        43.300          28.600
 125322480.578 7  97653892.83645  23848076.992                    23848081.402
        45.100          30.200
 129635448.094 6 101014646.12643  24668807.250                    24668810.332
        37.500          21.500
 116302214.040 8  90625125.57646  22131576.484                    22131582.129
        49.400          37.400
 115046804.599 7  89646864.92544  21892677.922                    21892680.836
        43.700          29.000
 117634619.984 7  91663360.97945  22385123.094                    22385129.094
        47.000          35.500
 112862362.476 8  87944710.36346  21476993.273                    21476996.980
        51.500          39.000
 110462583.801 8  86074753.89845  21020332.336                    21020334.332
        49.100          34.600
 18  3 11 10 49 16.0000000  0 17G10G20R03R11R12R13R20R21R04G27G07G21
                                G30G28G08G15G13
 127907635.100 6  99668331.77343  24340019.930                    24340025.910
        40.600          20.900
 117873829.433 7  91849812.64345  22430661.133                    22430663.531
        44.300          31.900
                  85519022.468 6  20540151.797                    20540153.852
                        41.400
                  96069087.883 6  23114599.344                    23114600.805
                        41.100
                                  19933459.602

                  85767957.312 6  20650604.531                    20650606.031
                        38.000
                  90150084.100 7  21675261.164                    21675262.766
                        42.400
                  87123670.717 7  20932895.523                    20932896.969
                        42.900
                  84636090.255 7  20320964.781                    20320964.648
                        42.100
 123585498.968 7  96300409.40244  23517539.359                    23517545.262
        42.700          27.000
 125326279.742 7  97656853.24044  23848798.539                    23848804.723
        42.400          28.700
 129638236.481 6 101016818.88743  24669337.555                    24669340.992
        37.500          20.400
 116305093.330 8  90627369.17646  22132124.484                    22132130.078
        49.700          37.500
 115045622.873 7  89645944.10444  21892453.039                    21892455.527
        43.700          29.800
 117635238.406 7  91663842.86945  22385240.891                    22385246.797
        46.800          34.800
 112861681.295 8  87944179.57346  21476864.055                    21476867.641
        51.600          38.900
 110463660.108 8  86075592.57845  21020537.156                    21020539.266
        48.700          34.200
 18  3 11 10 49 17.0000000  0 17G10G20R03R11R12R13R20R21R04G27G07G21
                                G30G28G08G15G13
 127904663.573 6  99666016.31643  24339454.563                    24339460.488
        40.300          22.000
 117876355.406 7  91851780.93445  22431141.234                    22431144.492
        44.600          31.900
                  85521347.794 6  20540709.867                    20540712.367
                        41.100
                  96072743.138 6  23115478.547                    23115479.863
                        41.300
                                  19933870.523

                  85765798.663 6  20650086.617                    20650086.137
                        38.100
                  90152473.144 7  21675835.016                    21675837.004
                        42.700
                  87122656.446 7  20932652.016                    20932653.043
                        43.300
                  84634867.877 7  20320670.813                    20320671.477
                        42.100
 123588624.783 6  96302845.09644  23518134.148                    23518140.219
        41.600          27.200
 125330079.179 6  97659813.81344  23849521.617                    23849527.410
        40.200          29.500
 129641025.049 6 101018991.78343  24669868.500                    24669871.879
        37.700          21.500
 116307973.004 8  90629613.07746  22132672.797                    22132677.805
        49.900          37.800
 115044441.649 7  89645023.67944  21892228.430                    21892231.070
        44.300          29.700
 117635857.439 7  91664325.23645  22385358.164                    22385364.805
        46.300          35.800
 112861000.710 8  87943649.25246  21476733.992                    21476738.191
        51.400          39.400
 110464737.059 8  86076431.75045  21020741.820                    21020744.648
        48.600          35.100
 18  3 11 10 49 18.0000000  0 17G10G20R03R11R12R13R20R21R04G27G07G21
                                G30G28G08G15G13
 127901692.277 6  99663701.02943  24338889.781                    24338895.309
        40.400          22.500
 117878881.880 7  91853749.61945  22431622.664                    22431625.395
        44.800          31.400
                  85523673.643 6  20541269.945                    20541270.684
                        41.500
                  96076398.512 6  23116358.719                    23116359.914
                        40.200
                                  19934282.281

                  85763640.453 6  20649566.930                    20649567.492
                        38.400
                  90154862.723 7  21676410.719                    21676411.387
                        42.700
                  87121642.846 7  20932407.641                    20932409.453
                        42.700
                  84633646.102 7  20320377.805                    20320378.938
                        42.100
 123591750.997 7  96305281.10444  23518728.992                    23518735.203
        42.000          27.000
 125333878.735 7  97662774.42644  23850247.195                    23850250.551
        43.300          28.300
 129643813.961 6 101021164.96443  24670399.594                    24670402.367
        38.000          21.100
 116310853.083 8  90631857.29646  22133220.523                    22133226.500
        49.900          38.200
 115043260.898 7  89644103.61144  21892004.055                    21892005.957
        44.300          29.700
 117636477.152 7  91664808.12745  22385475.789                    22385482.234
        46.300          35.100
 112860320.760 8  87943119.41746  21476604.836                    21476608.266
        51.600          39.000
 110465814.619 8  86077271.41345  21020946.641                    21020949.590
        48.900          34.300
 18  3 11 10 49 19.0000000  0 17G10G20R03R11R12R13R20R21R04G27G07G21
                                G30G28G08G15G13
 127898721.328 6  99661385.98943  24338323.922                    24338330.176
        40.200          23.500
 117881408.919 7  91855718.74645  22432102.820                    22432105.703
        45.100          31.500
                  85525999.975 6  20541828.953                    20541829.457
                        41.400
                  96080054.048 6  23117237.352                    23117239.465
                        40.300
                                  19934692.633

                  85761482.676 6  20649047.297                    20649048.480
                        38.300
                  90157252.887 7  21676983.805                    21676986.758
                        42.700
                  87120629.932 7  20932164.945                    20932166.520
                        42.800
                  84632424.937 7  20320084.844                    20320085.191
                        42.300
 123594877.706 7  96307717.47944  23519324.305                    23519330.156
        42.400          26.900
 125337678.458 7  97665735.19244  23850971.250                    23850973.730
        45.800          28.700
 129646603.171 6 101023338.38243  24670930.406                    24670932.914
        38.000          21.800
 116313733.627 8  90634101.88346  22133768.258                    22133774.359
        49.600          38.100
 115042080.683 7  89643183.96545  21891778.813                    21891781.836
        44.300          30.000
 117637097.541 7  91665291.53245  22385594.680                    22385600.402
        46.700          35.200
 112859641.471 8  87942590.10846  21476475.508                    21476479.418
        50.800          38.900
 110466892.864 8  86078111.60545  21021151.617                    21021154.453
        48.400          34.600
 18  3 11 10 49 20.0000000  0 17G10G20R03R11R12R13R20R21R04G27G07G21
                                G30G28G08G15G13
 127895750.613 6  99659071.13043  24337758.727                    24337764.551
        41.600          23.900
 117883936.478 7  91857688.27145  22432584.031                    22432586.766
        44.900          31.000
                  85528326.836 6  20542387.320                    20542388.816
                        41.000
                  96083709.708 6  23118117.336                    23118118.664
                        40.900
                                  19935104.195

                  85759325.367 6  20648526.797                    20648529.176
                        38.100
                  90159643.621 7  21677558.031                    21677561.918
                        42.700
                  87119617.650 7  20931921.500                    20931923.160
                        43.000
                  84631204.339 6  20319790.945                    20319792.309
                        41.900
 123598004.825 7  96310154.17144  23519920.227                    23519925.262
        42.800          28.900
 125341478.350 7  97668696.14845  23851692.930                    23851697.230
        46.300          30.000
 129649392.729 6 101025512.06943  24671461.078                    24671464.254
        38.700          21.300
 116316614.631 8  90636346.82946  22134316.523                    22134322.480
        49.800          37.600
 115040900.970 7  89642264.71145  21891554.453                    21891556.961
        44.300          30.200
 117637718.586 7  91665775.44945  22385713.000                    22385718.652
        47.200          34.900
 112858962.795 8  87942061.27246  21476346.508                    21476350.348
        50.800          39.000
 110467971.765 8  86078952.31345  21021356.930                    21021359.656
        48.200          34.000
 18  3 11 10 49 21.0000000  0 17G10G20R03R11R12R13R20R21R04G27G07G21
                                G30G28G08G15G13
 127892780.198 6  99656756.49343  24337193.813                    24337199.223
        41.400          22.300
 117886464.522 7  91859658.18045  22433065.250                    22433067.375
        44.600          31.200
                  85530654.211 6  20542945.633                    20542947.379
                        41.000
                  96087365.500 6  23118996.133                    23118998.344
                        40.400
                                  19935516.219

                  85757168.484 6  20648007.930                    20648009.609
                        38.500
                  90162034.890 7  21678132.477                    21678136.055
                        42.400
                  87118606.018 7  20931678.242                    20931679.699
                        42.800
                  84629984.352 6  20319498.570                    20319499.051
                        41.600
 123601132.380 7  96312591.21044  23520515.188                    23520520.738
        43.000          29.900
 125345278.479 7  97671657.32744  23852414.422                    23852420.469
        44.500          28.800
 129652182.549 6 101027685.97443  24671991.789                    24671994.984
        39.400          22.200
 116319496.020 8  90638592.06046  22134864.930                    22134870.527
        50.000          37.500
 115039721.719 7  89641345.81345  21891330.625                    21891332.793
        44.800          30.200
 117638340.257 7  91666259.86545  22385831.781                    22385837.238
        46.700          34.900
 112858284.743 8  87941532.92746  21476217.656                    21476221.000
        50.900          38.800
 110469051.284 8  86079793.50345  21021562.273                    21021565.027
        48.500          34.200
 18  3 11 10 49 22.0000000  0 17G10G20R03R11R12R13R20R21R04G27G07G21
                                G30G28G08G15G13
 127889809.996 6  99654442.05143  24336628.047                    24336634.098
        41.000          23.500
 117888993.111 7  91861628.50645  22433546.484                    22433548.172
        44.900          31.400
                  85532982.123 6  20543505.680                    20543506.801
                        40.700
                  96091021.415 6  23119876.469                    23119877.906
                        40.400
                                  19935928.359

                  85755012.048 6  20647489.977                    20647490.613
                        38.800
                  90164426.652 7  21678707.250                    21678711.395
                        42.400
                  87117595.077 7  20931435.133                    20931436.988
                        42.800
                  84628764.961 7  20319205.297                    20319206.387
                        42.100
 123604260.337 7  96315028.57744  23521110.133                    23521115.906
        43.200          28.600
 125349078.864 6  97674618.68644  23853136.961                    23853143.844
        41.100          28.600
 129654972.616 6 101029860.03943  24672523.109                    24672526.223
        39.700          22.600
 116322377.834 8  90640837.62446  22135413.531                    22135419.043
        50.300          37.700
 115038542.994 7  89640427.31744  21891105.758                    21891108.566
        44.500          29.800
 117638962.590 7  91666744.80045  22385949.906                    22385955.453
        47.400          35.400
 112857607.303 8  87941005.05846  21476088.641                    21476091.883
        50.800          39.000
 110470131.452 8  86080635.19345  21021767.938                    21021770.652
        48.500          34.100
 18  3 11 10 49 23.0000000  0 17G10G20R03R11R12R13R20R21R04G27G07G21
                                G30G28G08G15G13
 127886840.121 6  99652127.85744  24336064.172                    24336068.773
        40.200          24.000
 117891522.168 7  91863599.20145  22434027.648                    22434030.027
        44.900          31.500
                  85535310.549 6  20544065.688                    20544065.602
                        40.900
                  96094677.462 6  23120755.680                    23120757.063
                        40.200
                                  19936340.180

                  85752856.051 6  20646970.617                    20646971.051
                        38.700
                  90166818.972 7  21679282.555                    21679287.219
                        42.300
                  87116584.822 7  20931192.641                    20931193.977
                        43.100
                  84627546.144 7  20318913.305                    20318913.922
                        42.100
 123607388.723 7  96317466.28644  23521705.539                    23521711.441
        43.100          28.800
 125352879.449 7  97677580.13444  23853862.602                    23853866.629
        42.500          28.900
 129657763.038 6 101032034.37343  24673053.797                    24673056.813
        39.800          22.600
 116325260.078 8  90643083.52946  22135961.602                    22135967.391
        50.500          37.700
 115037364.763 7  89639509.20844  21890881.648                    21890884.105
        44.200          29.700
 117639585.602 7  91667230.26745  22386068.594                    22386073.992
        47.100          35.500
 112856930.511 8  87940477.68846  21475959.898                    21475963.035
        51.000          39.300
 110471212.238 8  86081477.35345  21021973.609                    21021976.145
        48.500          34.100
 18  3 11 10 49 24.0000000  0 17G10G20R03R11R12R13R20R21R04G27G07G21
                                G30G28G08G15G13
 127883870.473 6  99649813.86543  24335498.000                    24335503.820
        39.200          22.600
 117894051.793 7  91865570.34645  22434509.109                    22434511.434
        44.400          32.100
                  85537639.526 6  20544623.719                    20544625.121
                        41.100
                  96098333.652 6  23121634.828                    23121637.098
                        40.000
                                  19936751.063

                  85750700.493 6  20646450.414                    20646452.117
                        38.300
                  90169211.860 7  21679857.539                    21679862.227
                        42.400
                  87115575.209 7  20930949.719                    20930951.922
                        43.000
                  84626327.937 7  20318620.539                    20318620.723
                        42.100
 123610517.577 7  96319904.36844  23522300.734                    23522306.762
        42.600          28.000
 125356680.156 7  97680541.67144  23854588.547                    23854590.137
        46.500          29.600
 129660553.758 6 101034208.94544  24673584.914                    24673587.875
        40.400          24.000
 116328142.741 8  90645329.75246  22136510.852                    22136516.305
        50.300          37.600
 115036187.018 7  89638591.48144  21890657.070                    21890660.328
        44.000          29.300
 117640209.258 7  91667716.22945  22386187.344                    22386192.613
        47.000          35.200
 112856254.360 8  87939950.82446  21475831.586                    21475834.602
        50.900          39.000
 110472293.695 8  86082320.05645  21022179.602                    21022182.348
        48.200          34.000
 18  3 11 10 49 25.0000000  0 17G10G20R03R11R12R13R20R21R04G27G07G21
                                G30G28G08G15G13
 127880901.135 6  99647500.12943  24334932.859                    24334938.926
        38.900          22.300
 117896581.924 7  91867541.87745  22434990.469                    22434993.066
        44.100          32.500
                  85539969.063 6  20545182.781                    20545184.781
                        41.300
                  96101989.992 6  23122515.359                    23122516.809
                        40.400
                                  19937163.320

                  85748545.361 6  20645930.820                    20645932.797
                        38.300
                  90171605.325 7  21680432.977                    21680437.137
                        42.000
                  87114566.222 7  20930707.758                    20930709.285
                        42.700
                  84625110.326 6  20318328.008                    20318328.445
                        41.900
 123613646.827 6  96322342.75244  23522895.359                    23522902.512
        41.700          27.800
 125360481.050 8  97683503.37644  23855311.781                    23855313.832
        48.200          28.900
 129663344.749 6 101036383.74143  24674116.117                    24674119.145
        40.000          22.000
 116331025.859 8  90647576.32946  22137059.852                    22137064.816
        50.200          37.800
 115035009.782 7  89637674.15344  21890433.672                    21890436.102
        43.700          29.700
 117640833.594 8  91668202.72945  22386306.570                    22386311.465
        48.000          35.200
 112855578.827 8  87939424.43846  21475703.031                    21475705.996
        51.200          38.700
 110473375.808 8  86083163.26645  21022385.344                    21022387.973
        48.200          34.000
 18  3 11 10 49 26.0000000  0 17G10G20R03R11R12R13R20R21R04G27G07G21
                                G30G28G08G15G13
 127877932.047 6  99645186.55143  24334368.383                    24334373.648
        39.200          23.000
 117899112.554 7  91869513.79145  22435471.875                    22435474.867
        44.500          32.400
                  85542299.127 6  20545743.094                    20545744.199
                        40.900
                  96105646.447 6  23123394.805                    23123396.641
                        39.700
                                  19937575.000

                  85746390.698 6  20645412.852                    20645413.672
                        38.400
                  90173999.300 7  21681009.898                    21681013.266
                        42.100
                  87113557.889 7  20930466.094                    20930467.152
                        42.900
                  84623893.327 7  20318036.031                    20318036.441
                        42.200
 123616776.542 7  96324781.49344  23523491.250                    23523497.746
        42.200          28.200
 125364282.129 8  97686465.27344  23856033.688                    23856036.699
        48.400          28.200
 129666136.047 6 101038558.77543  24674647.109                    24674650.324
        40.600          22.000
 116333909.352 8  90649823.21446  22137607.953                    22137613.824
        50.300          37.600
 115033833.021 7  89636757.20844  21890209.500                    21890212.418
        42.600          29.300
 117641458.560 8  91668689.71245  22386425.453                    22386430.566
        48.400          35.100
 112854903.914 8  87938898.52946  21475574.719                    21475577.195
        52.000          39.200
 110474458.539 8  86084006.95345  21022591.125                    21022593.906
        48.200          34.000
 18  3 11 10 49 27.0000000  0 17G10G20R03R11R12R13R20R21R04G27G07G21
                                G30G28G08G15G13
 127874963.257 6  99642873.21143  24333802.875                    24333808.832
        40.200          22.900
 117901643.684 7  91871486.09845  22435953.906                    22435956.711
        44.700          31.500
                  85544629.669 6  20546304.188                    20546303.699
                        40.700
                  96109303.069 6  23124274.703                    23124276.828
                        40.000
                                  19937987.945

                  85744236.467 6  20644895.328                    20644894.605
                        38.500
                  90176393.818 7  21681587.031                    21681588.879
                        42.300
                  87112550.257 7  20930223.648                    20930224.754
                        42.900
                  84622676.923 6  20317743.711                    20317744.703
                        41.900
 123619906.679 6  96327220.55244  23524086.867                    23524093.602
        41.800          28.600
 125368083.421 7  97689427.36644  23856755.727                    23856759.836
        46.700          26.800
 129668927.642 6 101040734.04243  24675178.328                    24675181.445
        40.400          22.300
 116336793.311 8  90652070.46346  22138156.578                    22138162.492
        50.000          37.600
 115032656.765 7  89635840.65044  21889986.016                    21889988.172
        43.200          29.600
 117642084.184 8  91669177.21945  22386543.688                    22386549.527
        48.000          35.400
 112854229.619 8  87938373.10446  21475446.070                    21475449.441
        52.400          39.700
 110475541.917 8  86084851.14645  21022797.023                    21022800.168
        48.000          34.400
 18  3 11 10 49 28.0000000  0 17G10G20R03R11R12R13R20R21R04G27G07G21
                                G30G28G08G15G13
 127871994.716 6  99640560.05043  24333238.172                    24333244.004
        39.400          22.800
 117904175.375 7  91873458.83445  22436435.078                    22436438.426
        44.600          31.800
                  85546960.777 6  20546863.117                    20546864.227
                        41.100
                  96112959.826 6  23125154.828                    23125156.543
                        39.800
                                  19938400.445

                  85742082.676 6  20644376.836                    20644376.336
                        38.700
                  90178788.916 7  21682161.086                    21682164.965
                        42.300
                  87111543.288 7  20929982.320                    20929983.055
                        42.900
                  84621461.161 6  20317451.867                    20317452.859
                        41.900
 123623037.266 7  96329659.95244  23524683.227                    23524689.230
        42.200          27.000
 125371884.970 7  97692389.66044  23857477.984                    23857483.082
        44.600          27.000
 129671719.507 6 101042909.51943  24675710.016                    24675712.512
        39.200          21.700
 116339677.679 8  90654318.02146  22138705.617                    22138711.039
        50.300          37.600
 115031481.045 7  89634924.51045  21889762.617                    21889764.293
        43.800          30.200
 117642710.509 7  91669665.27145  22386662.367                    22386669.336
        47.800          35.300
 112853555.992 8  87937848.19946  21475318.383                    21475321.359
        52.600          39.600
 110476625.944 8  86085695.84745  21023003.539                    21023006.703
        48.100          34.000
 18  3 11 10 49 29.0000000  0 17G10G20R03R11R12R13R20R21R04G27G07G21
                                G30G28G08G15G13
 127869026.436 6  99638247.11843  24332673.633                    24332679.180
        39.600          22.300
 117906707.566 7  91875431.97145  22436917.648                    22436920.980
        45.100          32.000
                  85549292.422 6  20547422.508                    20547424.266
                        41.100
                  96116616.668 6  23126034.359                    23126036.152
                        40.000
                                  19938813.359

                  85739929.294 6  20643856.633                    20643857.977
                        39.000
                  90181184.500 7  21682738.266                    21682740.684
                        42.100
                  87110536.960 7  20929739.664                    20929741.277
                        43.100
                  84620245.972 6  20317160.695                    20317160.422
                        41.900
 123626168.255 7  96332099.66644  23525278.930                    23525284.910
        42.500          27.300
 125375686.727 7  97695352.08044  23858202.359                    23858205.605
        45.200          27.400
 129674511.704 6 101045085.26843  24676241.305                    24676244.113
        39.200          22.200
 116342562.471 8  90656565.91746  22139254.414                    22139260.211
        50.400          37.500
 115030305.810 7  89634008.74044  21889538.844                    21889541.125
        43.300          29.400
 117643337.464 7  91670153.80945  22386780.844                    22386788.238
        47.400          35.400
 112852882.963 8  87937323.75146  21475189.984                    21475193.004
        53.000          39.400
 110477710.598 8  86086541.03045  21023209.828                    21023212.660
        48.400          34.700
 18  3 11 10 49 30.0000000  0 17G10G20R03R11R12R13R20R21R04G27G07G21
                                G30G28G08G15G13
 127866058.439 6  99635934.39243  24332108.555                    24332114.313
        40.500          23.200
 117909240.232 7  91877405.46545  22437399.445                    22437402.613
        45.700          31.300
                  85551624.573 6  20547981.742                    20547984.223
                        40.900
                  96120273.677 6  23126914.781                    23126916.125
                        40.100
                                  19939225.930

                  85737776.374 6  20643338.484                    20643340.090
                        38.800
                  90183580.701 7  21683314.156                    21683317.004
                        42.300
                  87109531.272 7  20929497.789                    20929499.891
                        43.200
                  84619031.335 6  20316868.328                    20316869.297
                        41.700
 123629299.646 7  96334539.71544  23525874.805                    23525880.551
        42.400          27.600
 125379488.607 7  97698314.56344  23858928.219                    23858928.898
        46.900          28.500
 129677304.188 6 101047261.23343  24676772.328                    24676775.434
        38.100          22.500
 116345447.677 8  90658814.13046  22139803.180                    22139809.477
        49.500          37.800
 115029131.040 7  89633093.33644  21889314.742                    21889317.656
        43.500          29.400
 117643965.082 7  91670642.86145  22386900.836                    22386907.273
        47.000          35.200
 112852210.560 8  87936799.80046  21475061.641                    21475064.980
        53.000          39.200
 110478795.898 8  86087386.72245  21023416.727                    21023419.559
        48.300          34.800
 18  3 11 10 49 31.0000000  0 17G10G20R03R11R12R13R20R21R04G27G07G21
                                G30G28G08G15G13
 127863090.735 6  99633621.89643  24331543.836                    24331549.520
        41.100          22.300
 117911773.448 7  91879379.39045  22437881.398                    22437884.797
        45.300          31.500
                  85553957.261 6  20548542.539                    20548544.125
                        41.400
                  96123930.813 6  23127794.578                    23127796.551
                        39.700
                                  19939638.789

                  85735623.938 6  20642820.305                    20642821.910
                        38.700
                  90185977.419 7  21683890.094                    21683892.773
                        42.800
                  87108526.241 7  20929256.719                    20929258.715
                        43.200
                  84617817.322 6  20316577.336                    20316577.855
                        41.900
 123632431.489 7  96336980.12144  23526471.164                    23526476.605
        43.000          28.100
 125383290.678 8  97701277.21444  23859651.688                    23859652.281
        48.600          28.900
 129680096.983 6 101049437.43343  24677304.258                    24677306.852
        37.800          22.200
 116348333.349 8  90661062.71046  22140352.016                    22140358.523
        49.200          37.800
 115027956.782 7  89632178.32044  21889091.313                    21889094.008
        43.100          29.100
 117644593.368 7  91671132.42145  22387020.805                    22387027.266
        47.000          35.300
 112851538.813 8  87936276.35146  21474933.938                    21474937.363
        53.000          38.900
 110479881.863 8  86088232.91945  21023623.320                    21023626.199
        48.200          34.500
 18  3 11 10 49 32.0000000  0 17G10G20R03R11R12R13R20R21R04G27G07G21
                                G30G28G08G15G13
 127860123.290 6  99631309.59543  24330978.789                    24330984.668
        41.200          23.500
 117914307.186 7  91881353.72445  22438363.711                    22438366.973
        45.000          31.200
                  85556290.455 6  20549104.625                    20549105.160
                        41.500
                  96127588.107 6  23128674.375                    23128675.996
                        39.900
                                  19940051.922

                  85733471.913 6  20642302.539                    20642304.078
                        39.000
                  90188374.715 7  21684466.664                    21684469.387
                        42.800
                  87107521.932 7  20929015.430                    20929017.281
                        43.200
                  84616603.937 6  20316286.852                    20316286.965
                        41.500
 123635563.790 7  96339420.87844  23527067.219                    23527072.484
        43.000          27.400
 125387092.945 8  97704240.04444  23860374.492                    23860375.676
        48.800          29.100
 129682890.040 6 101051613.84543  24677834.883                    24677838.242
        38.100          22.000
 116351219.432 8  90663311.59746  22140902.172                    22140907.348
        49.600          37.500
 115026783.027 7  89631263.70744  21888868.031                    21888870.891
        43.200          29.300
 117645222.335 7  91671622.52345  22387141.156                    22387146.828
        47.500          35.100
 112850867.676 8  87935753.38446  21474806.234                    21474809.652
        52.700          38.800
 110480968.476 7  86089079.63145  21023830.234                    21023833.168
        47.900          34.700
 18  3 11 10 49 33.0000000  0 17G10G20R03R11R12R13R20R21R04G27G07G21
                                G30G28G08G15G13
 127857156.149 6  99628997.54743  24330414.508                    24330420.465
        41.400          22.800
 117916841.422 7  91883328.45145  22438846.188                    22438848.844
        45.400          31.500
                  85558624.178 6  20549664.617                    20549665.313
                        41.500
                  96131245.488 6  23129554.852                    23129556.047
                        40.200
                                  19940464.867

                  85731320.335 6  20641784.344                    20641785.734
                        38.900
                  90190772.511 7  21685041.680                    21685045.430
                        42.600
                  87106518.271 7  20928774.203                    20928775.938
                        43.000
                  84615391.140 6  20315994.492                    20315995.641
                        41.800
 123638696.509 7  96341861.96744  23527663.109                    23527668.941
        42.600          27.800
 125390895.385 7  97707203.02244  23861096.875                    23861099.523
        46.500          28.500
 129685683.405 6 101053790.48543  24678367.570                    24678369.883
        38.000          21.800
 116354105.932 8  90665560.80746  22141451.477                    22141457.059
        49.400          37.700
 115025609.756 7  89630349.47044  21888644.672                    21888647.355
        43.200          29.500
 117645851.918 7  91672113.11645  22387260.898                    22387266.938
        47.300          34.800
 112850197.164 8  87935230.90846  21474678.711                    21474682.156
        52.600          38.800
 110482055.729 7  86089926.83445  21024036.867                    21024039.629
        47.600          34.600
 18  3 11 10 49 34.0000000  0 17G10G20R03R11R12R13R20R21R04G27G07G21
                                G30G28G08G15G13
 127854189.281 6  99626685.71343  24329849.906                    24329855.672
        41.600          22.500
 117919376.165 7  91885303.58945  22439328.273                    22439331.109
        45.500          30.900
                  85560958.460 6  20550224.969                    20550226.105
                        41.500
                  96134903.050 6  23130434.023                    23130435.758
                        39.900
                                  19940877.813

                  85729169.210 6  20641266.391                    20641268.082
                        38.700
                  90193170.896 7  21685618.914                    21685621.965
                        42.600
                  87105515.280 7  20928533.414                    20928535.406
                        42.800
                  84614178.945 7  20315703.695                    20315704.340
                        42.000
 123641829.673 7  96344303.39744  23528259.070                    23528265.133
        42.400          27.600
 125394698.096 7  97710166.21044  23861818.781                    23861823.543
        44.200          29.900
 129688477.096 6 101055967.38843  24678898.891                    24678901.672
        38.100          21.800
 116356992.879 8  90667810.37246  22142000.750                    22142006.000
        49.600          37.600
 115024437.006 7  89629435.64244  21888421.953                    21888423.801
        44.000          29.400
 117646482.201 7  91672604.25545  22387379.977                    22387387.273
        46.700          35.400
 112849527.301 8  87934708.93346  21474551.070                    21474554.785
        52.700          38.900
 110483143.645 7  86090774.56045  21024244.063                    21024246.621
        47.600          34.700
 18  3 11 10 49 35.0000000  0 17G10G20R03R11R12R13R20R21R04G27G07G21
                                G30G28G08G15G13
 127851222.673 6  99624374.07043  24329285.023                    24329290.699
        41.300          23.600
 117921911.487 7  91887279.17245  22439810.586                    22439813.332
        45.200          31.100
                  85563293.315 6  20550785.734                    20550786.734
                        41.500
                  96138560.723 6  23131314.000                    23131315.871
                        39.800
                                  19941291.117

                  85727018.519 6  20640749.039                    20640750.656
                        38.800
                  90195569.795 7  21686195.625                    21686199.145
                        42.100
                  87104512.909 7  20928292.523                    20928294.375
                        43.000
                  84612967.288 7  20315412.891                    20315413.262
                        42.100
 123644963.296 7  96346745.16744  23528855.680                    23528861.395
        42.600          27.600
 125398501.008 7  97713129.52144  23862541.469                    23862547.367
        42.300          29.000
 129691271.076 6 101058144.50543  24679429.758                    24679433.285
        37.900          21.800
 116359880.229 8  90670060.25846  22142550.063                    22142555.594
        49.900          38.300
 115023264.749 7  89628522.20445  21888199.117                    21888201.430
        44.500          30.000
 117647113.104 7  91673095.87645  22387499.719                    22387506.742
        45.700          35.900
 112848858.043 8  87934187.43546  21474423.547                    21474427.293
        52.600          39.000
 110484232.195 7  86091622.77645  21024451.297                    21024453.602
        47.600          34.700
 18  3 11 10 49 36.0000000  0 17G10G20R03R11R12R13R20R21R04G27G07G21
                                G30G28G08G15G13
 127848256.361 6  99622062.64343  24328720.883                    24328726.375
        41.600          22.800
 117924447.286 7  91889255.12145  22440293.211                    22440295.781
        45.700          31.400
                  85565628.671 6  20551346.320                    20551347.762
                        41.400
                  96142218.596 6  23132194.734                    23132196.063
                        40.200
                                  19941705.703

                  85724868.304 6  20640231.898                    20640232.477
                        38.700
                  90197969.277 7  21686771.852                    21686775.684
                        42.300
                  87103511.245 7  20928051.633                    20928053.207
                        43.400
                  84611756.234 7  20315122.172                    20315122.254
                        42.200
 123648097.321 7  96349187.26544  23529451.820                    23529457.656
        43.000          28.100
 125402304.150 6  97716092.96944  23863266.086                    23863271.254
        41.200          29.800
 129694065.291 6 101060321.81943  24679961.961                    24679964.910
        38.200          21.800
 116362768.023 8  90672310.48646  22143099.813                    22143104.809
        50.000          38.200
 115022093.001 7  89627609.14945  21887975.586                    21887978.219
        44.300          30.100
 117647744.707 7  91673588.03545  22387620.336                    22387627.305
        45.800          35.200
 112848189.438 8  87933666.45046  21474296.336                    21474300.023
        52.400          39.200
 110485321.415 7  86092471.52145  21024658.000                    21024661.172
        47.900          34.700
 18  3 11 10 49 37.0000000  0 17G10G20R03R11R12R13R20R21R04G27G07G21
                                G30G28G08G15G13
 127845290.319 6  99619751.43943  24328156.266                    24328162.246
        41.600          21.100
 117926983.642 7  91891231.49845  22440776.156                    22440778.469
        45.800          31.200
                  85567964.569 6  20551906.320                    20551908.156
                        41.300
                  96145876.591 6  23133074.055                    23133076.137
                        40.400
                                  19942118.547

                  85722718.498 6  20639713.133                    20639714.496
                        38.600
                  90200369.304 7  21687349.180                    21687352.664
                        42.800
                  87102510.267 7  20927811.695                    20927813.121
                        43.300
                  84610545.813 7  20314831.250                    20314832.117
                        42.100
 123651231.813 7  96351629.73544  23530048.289                    23530054.113
        42.500          28.700
 125406107.491 6  97719056.55244  23863990.555                    23863995.555
        41.300          29.100
 129696859.939 6 101062499.47143  24680493.750                    24680496.773
        38.300          22.500
 116365656.262 8  90674561.06746  22143649.313                    22143654.988
        50.000          38.200
 115020921.785 7  89626696.51545  21887752.648                    21887755.207
        44.400          30.000
 117648376.992 7  91674080.72245  22387740.906                    22387746.684
        46.400          34.600
 112847521.476 8  87933145.95846  21474169.352                    21474172.746
        52.300          38.900
 110486411.275 7  86093320.76745  21024866.133                    21024868.570
        47.800          34.900
 18  3 11 10 49 38.0000000  0 17G10G20R03R11R12R13R20R21R04G27G07G21
                                G30G28G08G15G13
 127842324.570 6  99617440.47843  24327592.234                    24327597.953
        41.100          22.500
 117929520.453 7  91893208.23845  22441258.719                    22441261.129
        45.900          31.900
                  85570300.990 6  20552467.492                    20552470.180
                        41.600
                  96149534.673 6  23133954.672                    23133956.195
                        40.500
                                  19942532.914

                  85720569.154 6  20639195.859                    20639197.043
                        38.700
                  90202769.829 7  21687927.117                    21687930.504
                        43.100
                  87101509.906 7  20927571.828                    20927572.930
                        43.000
                  84609336.011 7  20314541.695                    20314541.910
                        42.200
 123654366.714 7  96354072.51544  23530644.789                    23530650.672
        42.500          28.200
 125409910.981 7  97722020.26044  23864714.961                    23864719.285
        42.500          29.000
 129699654.813 6 101064677.28643  24681025.031                    24681028.441
        38.000          22.500
 116368544.898 8  90676811.95746  22144198.398                    22144204.676
        50.000          37.800
 115019751.044 7  89625784.25044  21887530.109                    21887532.352
        44.700          29.300
 117649009.900 7  91674573.88745  22387862.109                    22387867.656
        46.600          35.200
 112846854.115 8  87932625.94046  21474042.203                    21474045.734
        52.300          39.200
 110487501.748 8  86094170.48145  21025073.727                    21025076.805
        48.100          34.700
 18  3 11 10 49 39.0000000  0 17G10G20R03R11R12R13R20R21R04G27G07G21
                                G30G28G08G15G13
 127839359.058 6  99615129.68543  24327027.703                    24327033.953
        41.000          23.000
 117932057.767 7  91895185.37245  22441741.539                    22441743.605
        45.500          30.900
                  85572637.932 6  20553029.336                    20553031.133
                        41.200
                  96153192.858 6  23134835.320                    23134836.492
                        40.700
                                  19942946.313

                  85718420.235 6  20638679.383                    20638679.156
                        38.600
                  90205170.874 7  21688503.344                    21688507.566
                        42.600
                  87100510.164 7  20927330.523                    20927332.117
                        43.100
                  84608126.813 7  20314250.930                    20314251.742
                        42.400
 123657502.003 7  96356515.60144  23531241.227                    23531246.992
        42.900          28.900
 125413714.664 7  97724984.14145  23865439.898                    23865443.648
        43.000          30.200
 129702449.940 6 101066855.31143  24681557.539                    24681560.809
        38.100          22.500
 116371433.954 8  90679063.17846  22144748.156                    22144754.719
        49.800          37.900
 115018580.776 7  89624872.35445  21887307.273                    21887309.555
        45.100          30.200
 117649643.435 7  91675067.54445  22387982.453                    22387988.266
        46.800          35.400
 112846187.368 8  87932106.40246  21473915.820                    21473919.242
        52.200          39.400
 110488592.846 8  86095020.68845  21025281.422                    21025283.953
        48.100          34.900
 18  3 11 10 49 40.0000000  0 17G10G20R03R11R12R13R20R21R04G27G07G21
                                G30G28G08G15G13
 127836393.850 6  99612819.12743  24326463.578                    24326469.758
        41.500          22.800
 117934595.667 7  91897162.96745  22442224.164                    22442226.914
        45.500          31.500
                  85574975.396 6  20553592.172                    20553592.434
                        41.100
                  96156851.239 6  23135714.914                    23135717.008
                        40.800
                                  19943360.813

                  85716271.779 6  20638162.555                    20638161.855
                        38.600
                  90207572.566 7  21689080.227                    21689085.207
                        42.300
                  87099511.152 7  20927090.750                    20927092.309
                        43.000
                  84606918.247 7  20313960.516                    20313961.285
                        42.300
 123660637.790 7  96358959.05844  23531838.102                    23531843.898
        42.700          29.100
 125417518.586 7  97727948.21945  23866164.039                    23866167.465
        43.600          30.300
 129705245.466 6 101069033.64643  24682089.852                    24682092.648
        38.300          22.500
 116374323.479 8  90681314.75546  22145297.922                    22145304.004
        49.500          37.600
 115017411.046 7  89623960.86845  21887084.156                    21887087.184
        45.000          30.000
 117650277.680 7  91675561.76545  22388102.883                    22388108.984
        46.500          35.500
 112845521.297 8  87931587.38446  21473789.133                    21473792.125
        52.700          39.200
 110489684.658 8  86095871.45245  21025488.969                    21025491.684
        48.200          34.700
 18  3 11 10 49 41.0000000  0 17G10G20R03R11R12R13R20R21R04G27G07G21
                                G30G28G08G15G13
 127833428.930 7  99610508.77843  24325899.227                    24325905.047
        42.000          21.700
 117937134.081 7  91899140.95845  22442706.578                    22442709.578
        45.500          31.600
                  85577313.396 6  20554153.953                    20554153.738
                        41.200
                  96160509.803 6  23136595.008                    23136597.059
                        40.800
                                  19943774.750

                  85714123.739 6  20637643.273                    20637644.609
                        38.900
                  90209974.787 7  21689659.922                    21689662.781
                        42.400
                  87098512.804 7  20926851.000                    20926852.719
                        43.000
                  84605710.285 7  20313670.430                    20313671.094
                        42.100
 123663773.999 7  96361402.85444  23532435.555                    23532441.031
        43.300          28.200
 125421322.725 7  97730912.47545  23866888.523                    23866891.590
        44.900          31.000
 129708041.250 6 101071212.17943  24682622.195                    24682624.824
        38.800          22.200
 116377213.415 8  90683566.64546  22145848.398                    22145854.168
        49.600          37.900
 115016241.815 7  89623049.77845  21886862.500                    21886864.426
        45.000          30.200
 117650912.586 7  91676056.49645  22388223.445                    22388229.527
        46.200          35.600
 112844855.859 8  87931068.86446  21473662.266                    21473665.535
        52.700          39.200
 110490777.090 8  86096722.68745  21025697.070                    21025699.023
        48.100          34.800
 18  3 11 10 49 42.0000000  0 17G10G20R03R11R12R13R20R21R04G27G07G21
                                G30G28G08G15G13
 127830464.367 7  99608198.74943  24325335.547                    24325340.844
        42.200          22.600
 117939673.047 7  91901119.37245  22443189.813                    22443192.895
        45.200          31.900
                  85579651.946 6  20554715.602                    20554715.750
                        41.300
                  96164168.519 6  23137475.734                    23137477.383
                        40.700
                                  19944189.352

                  85711976.199 6  20637126.578                    20637127.660
                        38.600
                  90212377.560 7  21690238.219                    21690241.152
                        42.400
                  87097515.163 7  20926611.086                    20926612.813
                        43.200
                  84604502.920 7  20313380.547                    20313381.461
                        42.100
 123666910.699 7  96363847.03444  23533032.734                    23533037.496
        43.800          29.000
 125425127.063 7  97733876.89245  23867612.758                    23867615.309
        46.100          31.600
 129710837.406 6 101073391.00043  24683154.016                    24683156.828
        39.400          22.600
 116380103.848 8  90685818.92346  22146398.422                    22146403.922
        49.700          38.100
 115015073.128 7  89622139.11945  21886640.141                    21886642.383
        44.500          30.400
 117651548.210 7  91676551.79145  22388344.453                    22388350.563
        46.500          35.400
 112844191.093 8  87930550.86046  21473536.008                    21473539.168
        53.300          39.200
 110491870.222 8  86097574.47945  21025905.063                    21025907.469
        48.000          34.600
 18  3 11 10 49 43.0000000  0 17G10G20R03R11R12R13R20R21R04G27G07G21
                                G30G28G08G15G13
 127827500.040 7  99605888.89643  24324771.094                    24324776.742
        42.500          22.300
 117942212.536 7  91903098.19045  22443673.281                    22443676.406
        44.700          31.400
                  85581991.086 6  20555276.570                    20555277.652
                        41.400
                  96167827.343 6  23138354.984                    23138357.754
                        41.100
                                  19944603.813

                  85709829.158 6  20636610.516                    20636610.871
                        38.800
                  90214780.901 7  21690816.953                    21690818.684
                        42.200
                  87096518.208 7  20926371.742                    20926373.379
                        43.100
                  84603296.156 6  20313091.289                    20313091.473
                        41.900
 123670047.810 7  96366291.54344  23533629.414                    23533634.605
        43.900          28.400
 125428931.604 7  97736841.47345  23868337.461                    23868339.172
        47.600          32.100
 129713633.855 6 101075570.05343  24683686.406                    24683689.016
        39.400          22.600
 116382994.691 8  90688071.52546  22146948.492                    22146954.004
        49.500          38.800
 115013904.970 7  89621228.86544  21886417.820                    21886419.926
        44.200          29.900
 117652184.500 7  91677047.59345  22388465.961                    22388471.715
        47.000          35.500
 112843526.968 8  87930033.35546  21473409.523                    21473412.902
        52.900          39.200
 110492964.009 7  86098426.77845  21026113.156                    21026115.375
        47.800          34.600
 18  3 11 10 49 44.0000000  0 17G10G20R03R11R12R13R20R21R04G27G07G21
                                G30G28G08G15G13
 127824535.983 7  99603579.24443  24324207.172                    24324212.652
        42.000          22.500
 117944752.539 7  91905077.41145  22444156.695                    22444159.805
        44.500          31.700
                  85584330.740 6  20555838.797                    20555840.191
                        41.500
                  96171486.275 6  23139236.781                    23139238.008
                        40.800
                                  19945018.688

                  85707682.519 6  20636094.602                    20636095.004
                        39.300
                  90217184.792 7  21691393.484                    21691396.500
                        42.100
                  87095521.894 7  20926132.289                    20926133.809
                        42.900
                  84602089.969 7  20312801.992                    20312802.426
                        42.100
 123673185.378 7  96368736.40544  23534225.977                    23534231.648
        43.400          28.900
 125432736.319 8  97739806.21045  23869061.320                    23869063.410
        48.400          32.400
 129716430.571 6 101077749.31343  24684218.344                    24684221.285
        40.300          22.900
 116385885.962 8  90690324.46346  22147499.039                    22147504.598
        49.800          38.400
 115012737.283 7  89620318.98444  21886195.469                    21886197.609
        44.100          29.600
 117652821.447 7  91677543.92145  22388587.039                    22388593.082
        46.800          35.200
 112842863.468 8  87929516.33546  21473283.203                    21473286.656
        53.000          39.400
 110494058.393 7  86099279.54045  21026321.414                    21026323.367
        47.600          34.700
 18  3 11 10 49 45.0000000  0 17G10G20R03R11R12R13R20R21R04G27G07G21
                                G30G28G08G15G13
 127821572.253 7  99601269.83143  24323643.531                    24323648.574
        42.000          23.000
 117947293.092 7  91907057.04945  22444640.367                    22444643.422
        44.600          31.500
                  85586670.960 6  20556399.594                    20556401.934
                        41.700
                  96175145.385 6  23140116.508                    23140119.203
                        40.400
                                  19945433.094

                  85705536.313 6  20635576.063                    20635578.305
                        39.300
                  90219589.256 7  21691972.883                    21691974.332
                        42.200
                  87094526.265 7  20925893.664                    20925894.375
                        43.300
                  84600884.428 6  20312511.898                    20312512.063
                        41.800
 123676323.374 7  96371181.60244  23534823.391                    23534828.938
        43.300          29.700
 125436541.262 7  97742771.12245  23869784.680                    23869788.008
        47.700          32.100
 129719227.653 6 101079928.86343  24684750.516                    24684753.363
        39.900          22.900
 116388777.676 8  90692577.75146  22148049.578                    22148054.809
        49.900          37.800
 115011570.121 7  89619409.51044  21885973.922                    21885975.730
        44.100          29.400
 117653459.081 7  91678040.78345  22388708.117                    22388714.344
        47.100          35.400
 112842200.623 8  87928999.82746  21473157.008                    21473160.449
        52.500          39.000
 110495153.506 7  86100132.88345  21026529.852                    21026532.223
        47.800          34.700
 18  3 11 10 49 46.0000000  0 17G10G20R03R11R12R13R20R21R04G27G07G21
                                G30G28G08G15G13
 127818608.773 6  99598960.61043  24323079.094                    24323084.727
        41.900          22.800
 117949834.168 7  91909037.09745  22445124.430                    22445127.000
        44.200          31.700
                  85589011.717 6  20556961.219                    20556964.203
                        41.800
                  96178804.639 6  23140997.258                    23140999.035
                        40.300
                                  19945847.852

                  85703390.567 6  20635059.305                    20635061.488
                        38.600
                  90221994.255 7  21692550.594                    21692552.438
                        42.100
                  87093531.299 7  20925653.539                    20925655.277
                        43.200
                  84599679.499 7  20312222.766                    20312223.664
                        42.100
 123679461.822 7  96373627.14944  23535421.219                    23535426.430
        44.000          29.800
 125440346.420 7  97745736.20545  23870507.352                    23870512.480
        46.400          30.900
 129722025.034 6 101082108.64343  24685282.906                    24685285.539
        40.200          22.600
 116391669.818 8  90694831.37246  22148599.578                    22148605.344
        49.200          37.700
 115010403.500 7  89618500.45544  21885751.117                    21885753.691
        44.400          29.100
 117654097.352 7  91678538.14245  22388829.352                    22388835.664
        46.800          34.900
 112841538.412 8  87928483.81346  21473031.102                    21473034.301
        52.800          39.400
 110496249.224 7  86100986.69545  21026738.398                    21026740.547
        47.900          34.800
 18  3 11 10 49 47.0000000  0 17G10G20R03R11R12R13R20R21R04G27G07G21
                                G30G28G08G15G13
 127815645.634 6  99596651.66943  24322515.281                    24322521.219
        41.700          22.900
 117952375.758 7  91911017.54745  22445607.938                    22445610.656
        44.400          31.200
                  85591352.987 6  20557524.602                    20557527.094
                        41.900
                  96182464.044 6  23141877.617                    23141879.379
                        40.400
                                  19946264.266

                  85701245.307 6  20634543.398                    20634544.383
                        38.000
                  90224399.821 7  21693127.773                    21693131.262
                        42.300
                  87092537.011 7  20925414.805                    20925417.141
                        43.100
                  84598475.225 7  20311933.398                    20311933.250
                        42.400
 123682600.717 7  96376073.04445  23536018.281                    23536023.559
        44.200          30.200
 125444151.783 7  97748701.43544  23871230.438                    23871236.465
        44.100          29.800
 129724822.703 6 101084288.65143  24685814.711                    24685817.863
        40.500          22.000
 116394562.396 8  90697085.33346  22149149.508                    22149155.621
        48.800          37.900
 115009237.329 7  89617591.74744  21885529.367                    21885531.797
        44.300          29.600
 117654736.322 7  91679036.04545  22388950.734                    22388957.352
        46.300          35.300
 112840876.834 8  87927968.29746  21472905.242                    21472908.586
        53.100          39.200
 110497345.604 8  86101841.01445  21026947.414                    21026949.582
        48.500          34.700
 18  3 11 10 49 48.0000000  0 17G10G20R03R11R12R13R20R21R04G27G07G21
                                G30G28G08G15G13
 127812682.708 6  99594342.90443  24321951.445                    24321957.059
        41.700          22.200
 117954917.862 7  91912998.39445  22446091.609                    22446093.695
        44.800          31.500
                  85593694.742 7  20558088.344                    20558088.570
                        42.300
                  96186123.570 6  23142759.031                    23142760.102
                        40.500
                                  19946678.555

                  85699100.486 6  20634026.953                    20634028.098
                        38.500
                  90226805.940 6  21693706.633                    21693709.691
                        41.900
                  87091543.386 7  20925176.156                    20925178.117
                        43.300
                  84597271.547 7  20311644.531                    20311644.828
                        42.300
 123685740.006 7  96378519.23944  23536615.344                    23536620.887
        44.500          29.100
 125447957.408 6  97751666.85045  23871953.281                    23871960.434
        41.800          30.400
 129727620.641 6 101086468.88443  24686347.141                    24686350.129
        41.100          22.600
 116397455.408 8  90699339.63046  22149700.109                    22149706.340
        49.100          37.900
 115008071.691 7  89616683.46045  21885307.523                    21885310.043
        44.600          30.600
 117655375.934 7  91679534.44645  22389073.078                    22389079.020
        46.500          34.900
 112840215.896 8  87927453.28746  21472779.484                    21472782.504
        52.300          39.400
 110498442.632 8  86102695.84045  21027155.820                    21027157.816
        49.100          34.700
 18  3 11 10 49 49.0000000  0 17G10G20R03R11R12R13R20R21R04G27G07G21
                                G30G28G08G15G13
 127809720.135 6  99592034.40343  24321388.008                    24321393.637
        41.500          22.600
 117957460.538 7  91914979.69845  22446575.898                    22446578.109
        45.300          31.200
                  85596037.071 6  20558651.078                    20558651.734
                        41.900
                  96189783.248 6  23143639.188                    23143640.641
                        40.400
                                  19947093.906

                  85696956.135 6  20633510.391                    20633511.637
                        37.900
                  90229212.643 7  21694284.703                    21694288.023
                        42.100
                  87090550.469 7  20924937.734                    20924939.254
                        43.400
                  84596068.473 7  20311355.898                    20311356.094
                        42.000
 123688879.816 7  96380965.85345  23537213.086                    23537218.059
        44.100          30.100
 125451763.285 7  97754632.41844  23872678.750                    23872683.438
        42.800          29.400
 129730418.915 6 101088649.36943  24686879.422                    24686882.781
        40.600          22.200
 116400348.890 8  90701594.29146  22150250.750                    22150256.895
        48.900          37.900
 115006906.578 7  89615775.58045  21885085.727                    21885088.246
        44.200          30.400
 117656016.261 7  91680033.40045  22389195.148                    22389201.098
        47.200          35.000
 112839555.608 8  87926938.77746  21472653.367                    21472657.063
        52.000          39.700
 110499540.346 8  86103551.20145  21027364.836                    21027367.301
        48.400          34.800
 18  3 11 10 49 50.0000000  0 17G10G20R03R11R12R13R20R21R04G27G07G21
                                G30G28G08G15G13
 127806757.870 7  99589726.14743  24320823.703                    24320829.363
        42.200          22.800
 117960003.735 7  91916961.41345  22447060.008                    22447062.219
        45.600          31.400
                  85598379.943 6  20559212.055                    20559214.125
                        41.800
                  96193443.078 6  23144519.438                    23144521.188
                        40.900
                                  19947510.023

                  85694812.237 6  20632994.789                    20632994.777
                        38.500
                  90231619.884 7  21694862.398                    21694866.551
                        42.100
                  87089558.207 7  20924699.352                    20924701.172
                        43.400
                  84594865.994 6  20311066.313                    20311067.832
                        41.900
 123692020.067 7  96383412.80844  23537810.016                    23537815.883
        43.900          28.200
 125455569.313 7  97757598.09444  23873405.797                    23873407.582
        46.600          28.200
 129733217.513 6 101090830.09343  24687412.086                    24687415.059
        40.400          22.000
 116403242.809 8  90703849.28846  22150801.641                    22150807.180
        49.400          37.800
 115005741.999 7  89614868.11245  21884864.273                    21884866.734
        44.900          30.000
 117656657.235 7  91680532.85945  22389317.453                    22389322.793
        47.600          35.200
 112838895.968 8  87926424.76846  21472527.820                    21472531.492
        51.900          39.600
 110500638.708 8  86104407.06945  21027573.539                    21027576.078
        48.500          34.500
 18  3 11 10 49 51.0000000  0 17G10G20R03R11R12R13R20R21R04G27G07G21
                                G30G28G08G15G13
 127803795.857 7  99587418.09044  24320260.258                    24320266.359
        42.000          25.000
 117962547.449 7  91918943.53245  22447544.133                    22447546.055
        46.300          31.900
                  85600723.367 6  20559773.961                    20559777.441
                        41.800
                  96197103.078 6  23145400.227                    23145401.539
                        41.000
                                  19947925.328

                  85692668.772 6  20632478.578                    20632478.910
                        38.300
                  90234027.679 7  21695442.219                    21695445.473
                        42.400
                  87088566.631 7  20924461.359                    20924462.500
                        43.300
                  84593664.135 6  20310778.641                    20310778.688
                        41.800
 123695160.728 7  96385860.07644  23538408.328                    23538413.621
        44.800          28.600
 125459375.495 8  97760563.94044  23874130.273                    23874131.840
        48.200          28.300
 129736016.384 6 101093011.02143  24687944.953                    24687947.977
        40.500          22.200
 116406137.155 8  90706104.62046  22151352.336                    22151357.859
        49.800          37.700
 115004577.924 7  89613961.03945  21884642.688                    21884645.109
        44.500          30.000
 117657298.891 7  91681032.85645  22389438.648                    22389445.438
        46.500          35.300
 112838236.954 8  87925911.25546  21472402.703                    21472405.957
        51.900          39.600
 110501737.718 8  86105263.43845  21027782.320                    21027785.039
        48.000          34.800
 18  3 11 10 49 52.0000000  0 17G10G20R03R11R12R13R20R21R04G27G07G21
                                G30G28G08G15G13
 127800834.163 7  99585110.28644  24319696.766                    24319702.613
        42.100          24.000
 117965091.697 7  91920926.06845  22448028.492                    22448030.340
        45.800          32.300
                  85603067.373 6  20560337.539                    20560339.723
                        41.600
                  96200763.240 6  23146279.789                    23146281.742
                        40.900
                                  19948340.945

                  85690525.784 6  20631961.914                    20631962.902
                        38.600
                  90236436.013 7  21696020.727                    21696024.773
                        42.400
                  87087575.727 7  20924223.523                    20924224.801
                        43.300
                  84592462.871 7  20310489.758                    20310490.508
                        42.100
 123698301.839 7  96388307.68844  23539005.961                    23539011.164
        44.800          29.800
 125463181.897 7  97763530.01244  23874853.875                    23874855.824
        47.700          26.700
 129738815.625 6 101095192.25643  24688477.344                    24688480.512
        40.500          21.500
 116409031.970 8  90708360.31546  22151903.570                    22151908.523
        49.600          37.600
 115003414.392 7  89613054.38844  21884421.250                    21884423.789
        44.100          29.800
 117657941.230 7  91681533.38545  22389560.141                    22389567.316
        45.700          34.900
 112837578.608 8  87925398.26546  21472277.383                    21472280.742
        51.700          38.800
 110502837.414 8  86106120.34945  21027991.992                    21027994.477
        48.300          34.900
 18  3 11 10 49 53.0000000  0 17G10G20R03R11R12R13R20R21R04G27G07G21
                                G30G28G08G15G13
 127797872.752 7  99582802.68744  24319133.328                    24319138.984
        42.200          24.000
 117967636.461 7  91922909.00745  22448512.266                    22448514.750
        46.100          31.800
                  85605411.884 6  20560903.109                    20560902.559
                        41.900
                  96204423.542 6  23147161.938                    23147163.254
                        41.100
                                  19948757.016

                  85688383.280 6  20631446.758                    20631447.648
                        38.700
                  90238844.966 7  21696600.453                    21696603.801
                        42.800
                  87086585.490 7  20923985.594                    20923987.043
                        43.000
                  84591262.256 7  20310201.883                    20310202.066
                        42.100
 123701443.400 7  96390755.66344  23539604.148                    23539608.914
        44.100          29.600
 125466988.524 7  97766496.29544  23875576.703                    23875580.371
        46.400          26.100
 129741615.134 6 101097373.69543  24689010.195                    24689013.047
        40.800          22.200
 116411927.195 8  90710616.33346  22152454.609                    22152459.977
        49.600          38.100
 115002251.340 7  89612148.12045  21884199.961                    21884202.430
        44.600          30.900
 117658584.295 7  91682034.47445  22389682.570                    22389689.449
        45.200          34.700
 112836920.904 8  87924885.77246  21472152.109                    21472155.750
        51.800          38.800
 110503937.751 7  86106977.75245  21028201.117                    21028203.379
        47.900          34.100
 18  3 11 10 49 54.0000000  0 17G10G20R03R11R12R13R20R21R04G27G07G21
                                G30G28G08G15G13
 127794911.587 6  99580495.27744  24318570.531                    24318575.648
        41.600          24.700
 117970181.731 7  91924892.34845  22448996.375                    22448998.895
        46.300          31.300
                  85607756.865 6  20561466.078                    20561465.801
                        41.900
                  96208083.909 6  23148041.219                    23148042.648
                        41.100
                                  19949172.898

                  85686241.172 6  20630931.547                    20630931.348
                        38.300
                  90241254.426 7  21697179.828                    21697183.027
                        42.400
                  87085595.897 7  20923747.469                    20923749.359
                        43.100
                  84590062.198 6  20309913.023                    20309913.445
                        41.600
 123704585.376 7  96393203.95345  23540201.586                    23540206.934
        43.800          30.200
 125470795.363 7  97769462.73444  23876297.984                    23876304.594
        42.000          26.800
 129744414.927 6 101099555.34343  24689542.820                    24689546.004
        41.200          22.300
 116414822.822 8  90712872.66546  22153005.523                    22153010.820
        49.700          38.000
 115001088.805 7  89611242.24445  21883979.164                    21883981.473
        44.900          30.000
 117659227.954 7  91682536.01445  22389805.445                    22389812.012
        45.800          34.400
 112836263.813 8  87924373.75946  21472027.125                    21472030.566
        52.000          38.800
 110505038.735 7  86107835.66245  21028410.828                    21028413.223
        47.900          34.100
 18  3 11 10 54 13.0000000  4  4
T1-test                                                     MARKER NAME
T1-test                                                     MARKER NUMBER
2.200000      (antenna height)                              COMMENT
END OF STATIC MODE OBSERVATION                              COMMENT
 18  3 11 10 54 13.0000000  0 18G10G20R03R11R12R13R20R21R22R04G27G07
                                G21G30G28G08G15G13
 127038892.308 6  98991389.29644  24174704.453                    24174710.387
        40.500          25.300
 118647776.464 7  92452888.16345  22577938.898                    22577941.223
        46.000          32.400
                  86233677.893 6  20711802.734                    20711801.473
                        41.000
                  97161380.964 6  23377408.789                    23377411.215
                        40.600
                                  20061724.219

                  85147680.386 6  20501259.336                    20501261.313
                        37.900
                  90884374.492 7  21851807.742                    21851812.613
                        42.300
                  86852856.641 7  20867827.531                    20867829.742
                        42.700
                  97881277.842 7  23575449.883                    23575452.574
                        43.000
                  84300714.944 6  20240441.906                    20240442.543
                        41.900
 124533826.185 7  97039365.71044  23698000.570                    23698005.961
        44.300          28.600
 126464404.773 7  98543703.10644  24065381.422                    24065384.109
        46.200          27.500
 130480563.591 6 101673177.43044  24829628.352                    24829630.770
        38.900          26.300
 117180150.880 8  91309232.02146  22298642.086                    22298647.965
        49.600          37.300
 114718242.150 7  89390842.25144  21830155.102                    21830157.395
        45.500          29.900
 117849385.704 7  91830710.89945  22425991.203                    22425997.805
        46.100          33.800
 112688692.427 8  87809383.06846  21443945.227                    21443948.777
        52.100          39.500
 110813072.799 8  86347862.11545  21087027.891                    21087030.703
        49.500          34.800
 18  3 11 10 54 14.0000000  0 18G10G20R03R11R12R13R20R21R22R04G27G07
                                G21G30G28G08G15G13
 127036018.799 6  98989150.19644  24174156.156                    24174163.355
        40.000          24.300
 118650464.825 7  92454982.99145  22578450.734                    22578453.043
        46.300          32.100
                  86236166.952 6  20712399.570                    20712399.633
                        40.700
                  97165082.654 6  23378300.406                    23378302.137
                        40.900
                                  20062177.266

                  85145666.420 6  20500774.539                    20500776.160
                        38.400
                  90886931.840 7  21852421.789                    21852426.930
                        42.600
                  86852051.456 7  20867634.703                    20867636.695
                        42.600
                  97878057.284 7  23574673.234                    23574677.121
                        43.000
                  84299683.196 6  20240193.805                    20240194.719
                        41.900
 124537088.680 7  97041907.91744  23698621.094                    23698626.984
        43.400          27.700
 126468271.887 7  98546716.45144  24066117.313                    24066120.152
        46.600          26.400
 130483449.658 6 101675426.29944  24830177.109                    24830180.172
        39.100          25.700
 117183166.425 8  91311581.79046  22299216.398                    22299222.043
        49.600          37.400
 114717223.235 7  89390048.28445  21829960.555                    21829963.344
        45.400          30.400
 117850212.454 7  91831355.11745  22426148.328                    22426154.797
        45.900          33.400
 112688212.554 8  87809009.13646  21443853.656                    21443857.207
        51.600          39.000
 110814352.352 8  86348859.17145  21087271.320                    21087274.379
        49.600          34.800
 18  3 11 10 54 15.0000000  0 18G10G20R03R11R12R13R20R21R22R04G27G07
                                G21G30G28G08G15G13
 127033145.692 6  98986911.41144  24173610.219                    24173616.582
        39.600          24.700
 118653153.743 7  92457078.25545  22578961.734                    22578964.684
        46.400          32.300
                  86238656.594 6  20712996.063                    20712997.867
                        40.700
                  97168784.535 6  23379191.078                    23379192.855
                        40.600
                                  20062630.672

                  85143653.013 6  20500290.117                    20500291.227
                        38.100
                  90889489.698 7  21853039.172                    21853041.617
                        42.400
                  86851247.024 7  20867441.688                    20867442.332
                        42.300
                  97874836.968 7  23573898.672                    23573901.570
                        43.400
                  84298652.134 6  20239946.375                    20239947.184
                        41.500
 124540351.667 7  97044450.50144  23699242.359                    23699248.133
        43.000          27.400
 126472139.247 7  98549730.01344  24066853.336                    24066855.199
        47.200          25.600
 130486336.101 6 101677675.47944  24830726.531                    24830729.609
        39.200          26.100
 117186182.453 8  91313931.94646  22299789.672                    22299795.875
        49.300          37.300
 114716204.932 7  89389254.80245  21829767.117                    21829769.926
        45.700          30.500
 117851039.938 7  91831999.90145  22426306.164                    22426312.609
        46.000          34.100
 112687733.396 8  87808635.77146  21443762.516                    21443765.805
        51.500          39.500
 110815632.612 8  86349856.77945  21087514.852                    21087518.172
        49.200          35.100
 18  3 11 10 54 16.0000000  0 18G10G20R03R11R12R13R20R21R22R04G27G07
                                G21G30G28G08G15G13
 127030272.936 6  98984672.90044  24173063.813                    24173070.273
        39.900          24.400
 118655843.245 7  92459173.97545  22579473.539                    22579476.195
        46.400          32.400
                  86241146.823 6  20713591.836                    20713595.543
                        40.900
                  97172486.567 6  23380081.945                    23380083.535
                        40.900
                                  20063084.461

                  85141640.082 6  20499805.219                    20499806.547
                        38.100
                  90892048.112 7  21853655.289                    21853657.078
                        42.700
                  86850443.285 7  20867249.469                    20867249.734
                        42.400
                  97871616.864 7  23573121.711                    23573125.879
                        44.200
                  84297621.712 6  20239699.172                    20239699.871
                        41.400
 124543615.075 7  97046993.40444  23699862.875                    23699868.652
        43.200          27.900
 126476006.837 7  98552743.77344  24067589.320                    24067590.809
        47.200          24.900
 130489222.836 6 101679924.87744  24831275.555                    24831278.816
        39.900          26.400
 117189198.966 8  91316282.47446  22300364.039                    22300370.273
        49.400          36.900
 114715187.170 7  89388461.74445  21829573.453                    21829576.086
        45.800          30.400
 117851868.137 7  91832645.24045  22426464.492                    22426469.938
        46.400          34.200
 112687254.945 8  87808262.95446  21443671.336                    21443674.973
        51.200          39.300
 110816913.588 8  86350854.94745  21087758.461                    21087761.441
        49.100          34.600
 18  3 11 10 54 17.0000000  0 18G10G20R03R11R12R13R20R21R22R04G27G07
                                G21G30G28G08G15G13
 127027400.588 6  98982434.71344  24172517.156                    24172523.590
        40.000          25.600
 118658533.322 7  92461270.14545  22579985.313                    22579988.160
        46.500          31.600
                  86243637.635 6  20714190.125                    20714193.363
                        41.100
                  97176188.767 6  23380971.906                    23380974.125
                        40.700
                                  20063537.648

                  85139627.651 6  20499319.680                    20499322.012
                        38.100
                  90894607.109 7  21854270.320                    21854272.738
                        43.000
                  86849640.283 7  20867056.492                    20867056.738
                        42.400
                  97868397.014 7  23572345.758                    23572351.082
                        44.600
                  84296591.976 6  20239451.617                    20239451.938
                        41.400
 124546878.972 7  97049536.69644  23700484.461                    23700489.852
        43.500          28.000
 126479874.695 7  98555757.78044  24068325.258                    24068325.977
        46.800          26.200
 130492109.938 6 101682174.57544  24831824.984                    24831828.195
        40.400          24.500
 117192215.959 8  91318633.37846  22300937.914                    22300944.141
        49.300          37.200
 114714170.042 7  89387669.17145  21829379.758                    21829382.582
        45.500          31.000
 117852697.092 7  91833291.18045  22426621.969                    22426628.059
        46.900          34.000
 112686777.196 8  87807890.68446  21443580.617                    21443583.969
        51.500          39.000
 110818195.264 8  86351853.65845  21088002.672                    21088005.844
        49.200          34.800
 18  3 11 10 54 18.0000000  0 18G10G20R03R11R12R13R20R21R22R04G27G07
                                G21G30G28G08G15G13
 127024528.608 6  98980196.81544  24171970.992                    24171977.203
        40.800          25.700
 118661223.949 7  92463366.73945  22580496.867                    22580500.238
        46.400          31.400
                  86246129.027 6  20714789.109                    20714790.883
                        41.000
                  97179891.131 6  23381863.352                    23381865.469
                        40.900
                                  20063991.336

                  85137615.815 6  20498836.531                    20498838.262
                        38.000
                  90897166.747 7  21854884.648                    21854888.645
                        42.700
                  86848838.019 7  20866862.164                    20866863.500
                        42.500
                  97865177.391 7  23571571.484                    23571575.773
                        44.800
                  84295562.940 6  20239205.164                    20239205.137
                        41.400
 124550143.390 7  97052080.38644  23701105.508                    23701111.086
        43.400          28.100
 126483742.806 7  98558771.96544  24069060.148                    24069062.055
        45.000          26.400
 130494997.382 6 101684424.52444  24832374.570                    24832377.602
        40.100          26.200
 117195233.412 8  91320984.64146  22301512.156                    22301517.859
        49.400          36.800
 114713153.468 7  89386877.03945  21829186.430                    21829188.738
        45.300          30.400
 117853526.738 7  91833937.65545  22426780.047                    22426785.816
        46.900          33.900
 112686300.176 8  87807518.97946  21443489.828                    21443493.266
        51.100          38.900
 110819477.654 8  86352852.92745  21088246.633                    21088249.582
        49.200          34.200
 18  3 11 10 54 19.0000000  0 18G10G20R03R11R12R13R20R21R22R04G27G07
                                G21G30G28G08G15G13
 127021656.934 6  98977959.14744  24171424.094                    24171430.637
        41.400          25.200
 118663915.087 7  92465463.73145  22581008.688                    22581012.172
        45.800          31.600
                  86248620.911 6  20715390.000                    20715389.836
                        41.000
                  97183593.634 6  23382754.039                    23382756.207
                        41.100
                                  20064446.000

                  85135604.472 6  20498353.242                    20498354.031
                        37.900
                  90899726.928 7  21855500.336                    21855503.793
                        42.700
                  86848036.455 7  20866669.633                    20866671.156
                        42.300
                  97861957.965 7  23570796.109                    23570800.508
                        44.900
                  84294534.545 6  20238957.797                    20238958.332
                        41.300
 124553408.185 7  97054624.37844  23701726.953                    23701732.727
        43.500          27.100
 126487611.126 6  98561786.28544  24069793.930                    24069798.063
        40.900          25.400
 130497885.190 6 101686674.77043  24832923.891                    24832927.684
        39.900          23.600
 117198251.296 8  91323336.23346  22302086.828                    22302092.219
        49.500          36.900
 114712137.448 7  89386085.34244  21828993.148                    21828995.426
        45.300          29.700
 117854357.077 7  91834584.66845  22426937.961                    22426943.766
        47.000          34.600
 112685823.835 8  87807147.81046  21443399.281                    21443402.352
        51.200          38.900
 110820760.716 8  86353852.71145  21088490.344                    21088493.766
        48.700          34.800
 18  3 11 10 54 20.0000000  0 18G10G20R03R11R12R13R20R21R22R04G27G07
                                G21G30G28G08G15G13
 127018785.688 6  98975721.81344  24170877.555                    24170883.965
        41.300          25.600
 118666606.842 7  92467561.20045  22581521.070                    22581524.297
        45.400          30.500
                  86251113.331 6  20715989.461                    20715988.773
                        41.000
                  97187296.342 6  23383644.828                    23383647.313
                        40.700
                                  20064899.938

                  85133593.620 6  20497867.984                    20497869.391
                        37.900
                  90902287.624 7  21856117.703                    21856119.301
                        42.700
                  86847235.666 7  20866477.461                    20866478.762
                        42.300
                  97858738.808 7  23570020.852                    23570025.109
                        44.900
                  84293506.851 6  20238711.328                    20238712.078
                        41.500
 124556673.496 7  97057168.77944  23702348.328                    23702354.012
        43.300          26.200
 126491479.825 6  98564800.83244  24070527.875                    24070534.871
        36.600          26.900
 130500773.292 6 101688925.22244  24833473.023                    24833477.277
        40.100          24.600
 117201269.701 8  91325688.23746  22302660.672                    22302666.992
        49.100          37.500
 114711122.023 7  89385294.09845  21828799.656                    21828802.570
        45.400          30.000
 117855188.183 7  91835232.28145  22427095.805                    22427101.508
        47.300          34.100
 112685348.209 8  87806777.19346  21443308.797                    21443311.926
        51.700          39.000
 110822044.501 8  86354853.06245  21088734.664                    21088738.109
        48.800          34.800
 18  3 11 10 54 21.0000000  0 18G10G20R03R11R12R13R20R21R22R04G27G07
                                G21G30G28G08G15G13
 127015914.844 6  98973484.79044  24170331.094                    24170337.605
        41.200          25.200
 118669299.164 7  92469659.10845  22582032.961                    22582036.770
        45.400          31.600
                  86253606.317 6  20716587.570                    20716587.652
                        41.500
                  97190999.190 6  23384535.961                    23384537.855
                        40.600
                                  20065354.992

                  85131583.313 6  20497381.672                    20497385.527
                        38.200
                  90904848.899 7  21856734.055                    21856734.801
                        42.800
                  86846435.593 7  20866285.547                    20866286.664
                        42.100
                  97855519.870 7  23569245.672                    23569250.230
                        45.000
                  84292479.811 6  20238465.125                    20238465.199
                        41.500
 124559939.300 7  97059713.55844  23702969.523                    23702975.285
        43.100          27.200
 126495348.769 6  98567815.47744  24071266.305                    24071271.738
        37.900          25.800
 130503661.808 6 101691176.00844  24834023.211                    24834026.801
        40.100          25.400
 117204288.589 8  91328040.62046  22303235.477                    22303241.867
        48.900          37.200
 114710107.193 7  89384503.32345  21828606.469                    21828609.484
        45.000          30.700
 117856019.997 7  91835880.44645  22427254.773                    22427260.598
        47.300          34.900
 112684873.320 8  87806407.14946  21443218.398                    21443221.590
        51.300          39.200
 110823329.008 8  86355853.97745  21088979.305                    21088982.273
        48.800          34.500
 18  3 11 10 54 22.0000000  0 18G10G20R03R11R12R13R20R21R22R04G27G07
                                G21G30G28G08G15G13
 127013044.318 6  98971248.00844  24169785.477                    24169791.629
        40.900          25.600
 118671991.999 7  92471757.41745  22582546.281                    22582549.371
        45.300          32.400
                  86256099.886 6  20717184.383                    20717186.605
                        41.400
                  97194702.200 6  23385426.641                    23385428.180
                        41.300
                                  20065809.070

                  85129573.549 6  20496900.266                    20496901.242
                        38.200
                  90907410.757 7  21857349.227                    21857351.301
                        42.800
                  86845636.257 7  20866092.688                    20866094.805
                        42.100
                  97852301.138 7  23568470.586                    23568474.801
                        44.700
                  84291453.456 6  20238217.461                    20238218.000
                        41.600
 124563205.543 7  97062258.69644  23703590.398                    23703596.832
        42.400          26.900
 126499217.871 6  98570830.23344  24072004.570                    24072007.813
        41.800          27.900
 130506550.609 6 101693427.03044  24834572.617                    24834576.523
        40.000          24.600
 117207307.918 8  91330393.34646  22303810.313                    22303815.727
        49.600          37.500
 114709092.923 7  89383712.98045  21828413.680                    21828416.500
        45.200          30.400
 117856852.546 8  91836529.18545  22427413.500                    22427418.516
        48.100          34.900
 112684399.095 8  87806037.62046  21443128.102                    21443131.289
        51.000          39.100
 110824614.192 8  86356855.42245  21089223.992                    21089226.848
        49.000          34.200
 18  3 11 10 54 23.0000000  0 18G10G20R03R11R12R13R20R21R22R04G27G07
                                G21G30G28G08G15G13
 127010174.214 6  98969011.56944  24169239.227                    24169245.742
        40.600          25.400
 118674685.437 7  92473856.19445  22583058.914                    22583061.637
        45.500          31.600
                  86258594.057 6  20717782.914                    20717786.309
                        41.200
                  97198405.355 6  23386317.578                    23386319.699
                        41.100
                                  20066263.008

                  85127564.321 6  20496417.375                    20496417.746
                        38.500
                  90909973.228 7  21857963.117                    21857967.340
                        42.700
                  86844837.688 7  20865901.234                    20865902.543
                        42.000
                  97849082.650 7  23567695.523                    23567699.230
                        44.000
                  84290427.759 6  20237972.125                    20237972.590
                        41.600
 124566472.289 7  97064804.22744  23704212.750                    23704218.422
        42.700          26.200
 126503087.198 7  98573845.22244  24072741.219                    24072744.898
        43.900          28.400
 130509439.812 6 101695678.36544  24835122.828                    24835126.262
        40.400          24.200
 117210327.733 8  91332746.44646  22304385.211                    22304390.465
        50.300          37.500
 114708079.237 7  89382923.09645  21828220.391                    21828223.559
        44.700          30.600
 117857685.808 7  91837178.48445  22427571.898                    22427577.238
        47.500          35.000
 112683925.614 8  87805668.67346  21443037.953                    21443041.125
        50.800          39.200
 110825900.102 8  86357857.42745  21089468.359                    21089471.730
        48.900          34.400
 18  3 11 10 54 24.0000000  0 18G10G20R03R11R12R13R20R21R22R04G27G07
                                G21G30G28G08G15G13
 127007304.445 6  98966775.38344  24168692.758                    24168699.305
        40.500          26.000
 118677379.438 7  92475955.40945  22583571.836                    22583574.449
        45.700          31.600
                  86261088.809 6  20718381.148                    20718385.406
                        41.200
                  97202108.685 6  23387208.109                    23387210.750
                        41.700
                                  20066717.906

                  85125555.585 6  20495932.602                    20495933.816
                        38.600
                  90912536.248 7  21858579.344                    21858583.191
                        42.400
                  86844039.872 7  20865709.945                    20865710.773
                        42.600
                  97845864.376 7  23566919.789                    23566923.273
                        43.400
                  84289402.762 6  20237725.414                    20237726.113
                        41.500
 124569739.523 7  97067350.10044  23704834.375                    23704840.203
        42.600          26.700
 126506956.742 7  98576860.44744  24073476.664                    24073481.520
        44.600          27.200
 130512329.315 6 101697929.93544  24835671.969                    24835675.906
        39.700          24.600
 117213348.016 8  91335099.91846  22304959.477                    22304965.059
        49.900          37.900
 114707066.148 7  89382133.68145  21828028.141                    21828030.641
        44.900          30.900
 117858519.800 7  91837828.35145  22427730.203                    22427736.273
        47.000          35.500
 112683452.835 8  87805300.27646  21442948.016                    21442951.371
        50.900          39.100
 110827186.710 8  86358859.98145  21089713.211                    21089716.613
        49.100          35.000
 18  3 11 10 54 25.0000000  0 18G10G20R03R11R12R13R20R21R22R04G27G07
                                G21G30G28G08G15G13
 127004435.050 6  98964539.49244  24168146.828                    24168153.301
        40.800          26.500
 118680073.979 7  92478055.04645  22584084.078                    22584086.824
        45.500          31.200
                  86263584.068 6  20718982.750                    20718983.969
                        41.100
                  97205812.197 6  23388100.078                    23388101.523
                        41.900
                                  20067173.039

                  85123547.349 6  20495449.086                    20495450.789
                        38.600
                  90915099.813 7  21859196.320                    21859199.891
                        42.100
                  86843242.749 7  20865518.391                    20865519.258
                        42.400
                  97842646.307 7  23566145.227                    23566148.113
                        42.700
                  84288378.404 6  20237479.563                    20237480.266
                        41.200
 124573007.209 7  97069896.32744  23705456.664                    23705462.168
        42.700          27.500
 126510826.544 7  98579875.91944  24074212.453                    24074218.219
        43.100          26.500
 130515219.155 6 101700181.76643  24836222.492                    24836225.941
        39.700          23.200
 117216368.759 8  91337453.74646  22305534.289                    22305540.168
        50.000          37.800
 114706053.610 7  89381344.68445  21827835.234                    21827837.840
        45.400          30.600
 117859354.465 7  91838478.74345  22427888.625                    22427894.555
        47.300          34.800
 112682980.732 8  87804932.40746  21442858.289                    21442861.336
        51.200          39.200
 110828474.019 8  86359863.08145  21089958.406                    21089961.344
        49.400          35.200
 18  3 11 10 54 26.0000000  0 18G10G20R03R11R12R13R20R21R22R04G27G07
                                G21G30G28G08G15G13
 127001565.992 6  98962303.87144  24167600.953                    24167607.352
        41.100          26.200
 118682769.059 7  92480155.10245  22584597.281                    22584599.684
        45.700          31.500
                  86266079.841 6  20719583.938                    20719583.770
                        41.300
                  97209515.840 6  23388991.805                    23388993.098
                        41.800
                                  20067627.844

                  85121539.648 6  20494965.039                    20494966.680
                        38.300
                  90917663.940 7  21859813.031                    21859815.973
                        42.100
                  86842446.334 7  20865326.922                    20865327.328
                        42.800
                  97839428.457 6  23565370.430                    23565372.543
                        41.900
                  84287354.717 6  20237234.008                    20237234.949
                        41.700
 124576275.325 7  97072442.89644  23706078.805                    23706083.883
        43.500          26.000
 126514696.612 7  98582891.59644  24074948.234                    24074954.539
        42.000          25.800
 130518109.370 6 101702433.88444  24836772.102                    24836776.109
        40.000          24.800
 117219389.987 8  91339807.95546  22306108.945                    22306115.023
        49.900          37.300
 114705041.660 7  89380556.15545  21827642.672                    21827645.422
        45.100          30.900
 117860189.880 7  91839129.72145  22428047.648                    22428053.828
        47.200          35.100
 112682509.338 8  87804565.08446  21442768.898                    21442771.914
        51.200          39.000
 110829762.034 8  86360866.72545  21090203.602                    21090206.422
        49.300          34.700
 18  3 11 10 54 27.0000000  0 18G10G20R03R11R12R13R20R21R22R04G27G07
                                G21G30G28G08G15G13
 126998697.342 6  98960068.55144  24167054.742                    24167061.254
        41.100          25.500
 118685464.702 7  92482255.60145  22585110.188                    22585112.656
        45.500          30.500
                  86268576.181 6  20720184.250                    20720183.754
                        41.200
                  97213219.650 6  23389882.383                    23389884.758
                        41.600
                                  20068082.445

                  85119532.478 6  20494482.531                    20494483.863
                        38.300
                  90920228.645 7  21860428.469                    21860432.473
                        42.000
                  86841650.656 7  20865135.094                    20865136.730
                        42.300
                  97836210.801 6  23564594.633                    23564597.145
                        41.600
                  84286331.694 6  20236988.703                    20236988.668
                        41.500
 124579543.920 7  97074989.85744  23706700.563                    23706705.527
        43.800          26.700
 126518566.926 6  98585907.44244  24075684.945                    24075690.398
        41.900          24.500
 130520999.894 6 101704686.23543  24837322.656                    24837325.711
        39.700          22.500
 117222411.656 8  91342162.50446  22306684.680                    22306690.023
        50.500          37.700
 114704030.270 7  89379768.06045  21827450.398                    21827453.164
        45.000          30.300
 117861025.992 7  91839781.23845  22428206.688                    22428212.664
        47.300          34.400
 112682038.658 8  87804198.31846  21442679.156                    21442682.410
        51.500          39.200
 110831050.729 8  86361870.89645  21090449.117                    21090451.625
        49.700          35.200
 18  3 11 10 54 28.0000000  0 18G10G20R03R11R12R13R20R21R22R04G27G07
                                G21G30G28G08G15G13
 126995829.060 6  98957833.52144  24166509.523                    24166515.426
        40.900          25.300
 118688160.906 7  92484356.54945  22585623.156                    22585625.574
        45.700          31.500
                  86271073.071 6  20720782.336                    20720783.277
                        41.200
                  97216923.643 6  23390773.328                    23390774.922
                        41.600
                                  20068538.555

                  85117525.828 6  20493998.461                    20494000.824
                        38.400
                  90922793.951 7  21861044.953                    21861048.992
                        42.100
                  86840855.724 7  20864944.266                    20864945.828
                        42.100
                  97832993.376 6  23563820.352                    23563821.551
                        41.400
                  84285309.363 6  20236742.672                    20236743.203
                        41.200
 124582812.968 7  97077537.17244  23707322.555                    23707327.625
        43.800          26.600
 126522437.479 7  98588923.45544  24076422.930                    24076426.773
        43.200          25.400
 130523890.754 6 101706938.85643  24837872.422                    24837876.020
        38.700          22.800
 117225433.800 8  91344517.42146  22307259.328                    22307265.176
        50.000          37.000
 114703019.462 7  89378980.42045  21827257.930                    21827260.523
        45.400          30.600
 117861862.843 7  91840433.32245  22428366.094                    22428372.000
        47.800          34.400
 112681568.665 8  87803832.09046  21442589.797                    21442592.719
        51.600          39.200
 110832340.123 8  86362875.62045  21090694.344                    21090697.113
        49.600          35.300
 18  3 11 10 54 29.0000000  0 18G10G20R03R11R12R13R20R21R22R04G27G07
                                G21G30G28G08G15G13
 126992961.176 6  98955598.80244  24165964.141                    24165969.727
        41.400          25.300
 118690857.689 7  92486457.94145  22586136.516                    22586138.785
        46.000          31.500
                  86273570.572 6  20721381.000                    20721383.527
                        41.000
                  97220627.815 7  23391664.523                    23391666.488
                        42.300
                                  20068993.406

                  85115519.707 6  20493515.867                    20493517.168
                        38.100
                  90925359.824 7  21861663.703                    21861666.066
                        42.400
                  86840061.551 7  20864753.945                    20864755.000
                        42.000
                  97829776.196 7  23563045.031                    23563046.512
                        42.100
                  84284287.764 6  20236498.578                    20236498.414
                        41.500
 124586082.530 7  97080084.89644  23707945.344                    23707949.625
        43.900          26.400
 126526308.265 7  98591939.63944  24077160.242                    24077163.156
        44.400          26.900
 130526781.974 6 101709191.75643  24838422.680                    24838426.148
        39.000          22.900
 117228456.451 8  91346872.73346  22307834.305                    22307840.035
        49.900          37.500
 114702009.293 7  89378193.27645  21827066.156                    21827068.590
        46.100          30.400
 117862700.424 7  91841085.98045  22428525.234                    22428531.434
        47.100          34.700
 112681099.438 8  87803466.46446  21442500.680                    21442503.398
        51.400          39.700
 110833630.278 8  86363880.93945  21090939.727                    21090942.488
        49.500          34.900
 18  3 11 10 54 30.0000000  0 18G10G20R03R11R12R13R20R21R22R04G27G07
                                G21G30G28G08G15G13
 126990093.661 6  98953364.36444  24165418.828                    24165424.031
        41.900          24.700
 118693555.017 7  92488559.76245  22586650.141                    22586651.992
        46.100          31.500
                  86276068.663 6  20721979.922                    20721983.223
                        40.800
                  97224332.114 6  23392556.469                    23392558.027
                        41.800
                                  20069449.109

                  85113514.152 6  20493034.563                    20493034.719
                        38.200
                  90927926.220 7  21862281.938                    21862283.328
                        42.500
                  86839268.107 6  20864563.305                    20864565.121
                        41.800
                  97826559.241 7  23562270.453                    23562272.316
                        42.200
                  84283266.760 6  20236252.258                    20236253.074
                        41.700
 124589352.532 7  97082632.96044  23708567.438                    23708572.250
        43.900          26.000
 126530179.278 7  98594956.00844  24077896.773                    24077899.664
        45.400          27.900
 130529673.556 6 101711444.93943  24838973.383                    24838976.434
        39.700          22.500
 117231479.571 8  91349228.41646  22308409.609                    22308415.824
        49.900          37.500
 114700999.681 7  89377406.56545  21826873.563                    21826876.070
        46.000          30.600
 117863538.707 7  91841739.18445  22428684.797                    22428690.930
        47.300          34.200
 112680630.891 8  87803101.36846  21442411.477                    21442414.430
        51.400          39.400
 110834921.096 8  86364886.77245  21091184.992                    21091188.047
        49.700          34.500
 18  3 11 10 54 31.0000000  0 18G10G20R03R11R12R13R20R21R22R04G27G07
                                G21G30G28G08G15G13
 126987226.470 6  98951130.18644  24164873.570                    24164878.371
        41.600          25.500
 118696252.883 7  92490661.99945  22587163.500                    22587165.238
        46.100          31.200
                  86278567.260 6  20722580.398                    20722582.895
                        40.300
                  97228036.564 6  23393447.383                    23393449.125
                        41.600
                                  20069905.367

                  85111509.060 6  20492551.828                    20492552.230
                        38.500
                  90930493.204 7  21862898.734                    21862900.496
                        42.300
                  86838475.396 7  20864372.453                    20864373.906
                        42.100
                  97823342.494 7  23561495.523                    23561497.070
                        42.700
                  84282246.485 6  20236007.781                    20236008.258
                        41.500
 124592622.997 7  97085181.38144  23709189.734                    23709194.480
        44.500          26.900
 126534050.510 7  98597972.56444  24078633.133                    24078636.109
        45.100          25.600
 130532565.411 6 101713698.31943  24839523.398                    24839526.633
        39.500          22.000
 117234503.117 8  91351584.42046  22308984.641                    22308990.754
        49.300          37.100
 114699990.603 7  89376620.27245  21826681.320                    21826684.004
        46.000          31.100
 117864377.691 7  91842392.93745  22428844.266                    22428850.223
        47.100          34.500
 112680163.041 8  87802736.80846  21442322.188                    21442325.047
        51.600          39.400
 110836212.592 8  86365893.12845  21091431.125                    21091434.043
        49.500          34.700
 18  3 11 10 54 32.0000000  0 18G10G20R03R11R12R13R20R21R22R04G27G07
                                G21G30G28G08G15G13
 126984359.716 7  98948896.35844  24164327.047                    24164332.770
        42.300          26.700
 118698951.330 7  92492764.69045  22587676.391                    22587678.996
        46.000          31.000
                  86281066.438 6  20723181.844                    20723182.598
                        40.400
                  97231741.198 6  23394337.695                    23394340.301
                        41.800
                                  20070360.969

                  85109504.430 6  20492066.070                    20492069.781
                        38.300
                  90933060.818 7  21863516.289                    21863518.859
                        42.400
                  86837683.405 7  20864182.516                    20864183.930
                        42.100
                  97820125.984 7  23560721.945                    23560723.176
                        42.800
                  84281226.866 6  20235762.953                    20235762.832
                        41.700
 124595893.972 7  97087730.18944  23709812.305                    23709816.770
        44.300          26.000
 126537921.960 7  98600989.31344  24079368.992                    24079372.590
        44.800          26.200
 130535457.658 6 101715952.02144  24840073.992                    24840076.637
        40.100          24.400
 117237527.153 8  91353940.81046  22309560.961                    22309566.090
        49.500          37.100
 114698982.130 7  89375834.44045  21826489.625                    21826492.539
        46.100          30.900
 117865217.435 7  91843047.28845  22429004.453                    22429010.426
        47.000          34.600
 112679695.902 8  87802372.80146  21442233.328                    21442236.273
        51.400          39.600
 110837504.825 8  86366900.07145  21091677.063                    21091679.969
        49.300          34.800
 18  3 11 10 54 33.0000000  0 18G10G20R03R11R12R13R20R21R22R04G27G07
                                G21G30G28G08G15G13
 126981493.322 6  98946662.81744  24163781.625                    24163787.621
        41.700          26.500
 118701650.363 7  92494867.83445  22588189.695                    22588192.375
        46.200          31.300
                  86283566.189 6  20723783.656                    20723783.359
                        40.600
                  97235446.008 6  23395230.125                    23395231.922
                        41.500
                                  20070816.484

                  85107500.425 6  20491584.172                    20491586.441
                        38.300
                  90935628.964 7  21864134.719                    21864136.523
                        42.500
                  86836892.146 7  20863992.484                    20863994.059
                        42.400
                  97816909.741 7  23559946.898                    23559948.598
                        43.000
                  84280207.935 6  20235517.914                    20235518.719
                        41.500
 124599165.378 7  97090279.33444  23710434.508                    23710439.254
        44.100          26.600
 126541793.744 7  98604006.30644  24080106.172                    24080109.219
        44.000          27.100
 130538350.242 6 101718205.97244  24840623.977                    24840627.332
        40.600          25.300
 117240551.689 8  91356297.59146  22310136.211                    22310142.328
        49.300          37.200
 114697974.248 7  89375049.08045  21826297.883                    21826300.320
        45.700          30.600
 117866057.922 7  91843702.21045  22429164.211                    22429170.328
        47.300          34.600
 112679229.500 8  87802009.37246  21442144.602                    21442147.477
        51.500          39.900
 110838797.767 8  86367907.55945  21091923.406                    21091926.105
        49.100          34.500
 18  3 11 10 54 34.0000000  0 18G10G20R03R11R12R13R20R21R22R04G27G07
                                G21G30G28G08G15G13
 126978627.274 6  98944429.54544  24163236.461                    24163242.188
        41.100          26.000
 118704349.903 7  92496971.37545  22588703.914                    22588706.434
        46.000          31.000
                  86286066.455 6  20724383.047                    20724384.586
                        40.600
                  97239150.987 6  23396121.258                    23396123.266
                        41.600
                                  20071272.844

                  85105496.949 6  20491105.109                    20491104.586
                        38.600
                  90938197.663 7  21864751.609                    21864753.535
                        42.500
                  86836101.609 7  20863802.031                    20863804.074
                        42.300
                  97813693.701 7  23559172.586                    23559174.258
                        43.900
                  84279189.709 6  20235273.195                    20235274.191
                        41.500
 124602437.302 7  97092828.89544  23711056.734                    23711061.492
        44.200          26.900
 126545665.761 7  98607023.46544  24080842.922                    24080845.750
        44.200          27.300
 130541243.158 6 101720460.20044  24841174.961                    24841178.352
        40.900          25.600
 117243576.688 8  91358654.73446  22310711.672                    22310717.711
        49.500          37.500
 114696966.921 7  89374264.15245  21826105.914                    21826109.031
        45.500          30.800
 117866899.129 7  91844357.69745  22429324.305                    22429330.164
        47.300          34.700
 112678763.783 8  87801646.47546  21442056.281                    21442058.879
        51.700          39.400
 110840091.400 8  86368915.58345  21092169.813                    21092172.117
        49.400          34.500
 18  3 11 10 54 35.0000000  0 18G10G20R03R11R12R13R20R21R22R04G27G07
                                G21G30G28G08G15G13
 126975761.575 6  98942196.54244  24162690.867                    24162697.184
        41.100          26.000
 118707049.977 7  92499075.32845  22589217.500                    22589219.707
        45.800          31.600
                  86288567.265 6  20724983.336                    20724985.207
                        40.500
                  97242856.050 6  23397012.602                    23397014.109
                        41.900
                                  20071728.883

                  85103493.891 6  20490622.273                    20490622.188
                        38.100
                  90940766.866 7  21865368.672                    21865370.832
                        42.600
                  86835311.803 7  20863612.313                    20863614.285
                        42.100
                  97810477.853 7  23558398.781                    23558400.305
                        43.900
                  84278172.072 6  20235028.789                    20235029.941
                        41.500
 124605709.592 7  97095378.73944  23711679.914                    23711684.770
        43.600          26.000
 126549537.911 7  98610040.70544  24081580.984                    24081582.703
        45.800          29.500
 130544136.379 6 101722714.66244  24841724.977                    24841728.469
        40.500          25.300
 117246602.098 8  91361012.19346  22311287.781                    22311293.016
        49.600          37.100
 114695960.140 7  89373479.65245  21825914.609                    21825917.129
        45.600          30.700
 117867740.988 7  91845013.68445  22429484.789                    22429490.598
        47.300          34.600
 112678298.722 8  87801284.08446  21441967.883                    21441970.098
        51.700          39.300
 110841385.690 8  86369924.11445  21092415.766                    21092418.230
        48.800          34.200
 18  3 11 10 54 36.0000000  0 18G10G20R03R11R12R13R20R21R22R04G27G07
                                G21G30G28G08G15G13
 126972896.210 6  98939963.79044  24162145.516                    24162151.277
        41.400          27.000
 118709750.604 7  92501179.70845  22589731.008                    22589734.156
        45.600          32.000
                  86291068.648 6  20725583.109                    20725586.109
                        40.500
                  97246561.265 6  23397903.914                    23397906.195
                        41.400
                                  20072186.219

                  85101491.309 6  20490137.969                    20490139.816
                        38.500
                  90943336.645 7  21865986.641                    21865989.359
                        42.400
                  86834522.741 7  20863423.547                    20863424.773
                        42.200
                  97807262.186 7  23557624.008                    23557625.645
                        44.000
                  84277155.114 6  20234785.477                    20234785.809
                        41.400
 124608982.373 7  97097928.96744  23712303.234                    23712307.273
        44.300          26.300
 126553410.296 7  98613058.14545  24082318.266                    24082319.629
        46.600          31.200
 130547029.914 6 101724969.37844  24842275.938                    24842279.434
        40.200          24.600
 117249627.946 8  91363369.99346  22311863.688                    22311869.305
        49.800          36.800
 114694953.944 7  89372695.61345  21825723.445                    21825725.730
        45.400          31.300
 117868583.575 7  91845670.24545  22429645.242                    22429650.867
        47.800          34.700
 112677834.346 8  87800922.23546  21441879.375                    21441882.031
        51.500          39.400
 110842680.666 8  86370933.18845  21092662.102                    21092664.973
        48.800          34.500
 18  3 11 10 54 37.0000000  0 18G10G20R03R11R12R13R20R21R22R04G27G07
                                G21G30G28G08G15G13
 126970031.266 6  98937731.36444  24161599.883                    24161606.148
        41.300          25.800
 118712451.786 7  92503284.52545  22590245.219                    22590247.848
        45.800          31.900
                  86293570.590 6  20726183.836                    20726187.156
                        40.700
                  97250266.646 6  23398796.430                    23398798.008
                        41.200
                                  20072642.516

                  85099489.294 6  20489655.305                    20489657.770
                        38.300
                  90945907.038 7  21866603.258                    21866607.449
                        42.300
                  86833734.409 7  20863234.422                    20863235.219
                        42.100
                  97804046.772 7  23556849.078                    23556851.656
                        43.700
                  84276138.812 6  20234540.930                    20234541.508
                        41.400
 124612255.619 7  97100479.56744  23712925.789                    23712929.863
        44.300          27.100
 126557282.915 7  98616075.77145  24083054.773                    24083057.316
        46.900          31.900
 130549923.797 6 101727224.35644  24842826.250                    24842830.230
        39.400          24.000
 117252654.311 8  91365728.20346  22312439.359                    22312445.137
        49.300          37.200
 114693948.320 7  89371912.00945  21825531.945                    21825534.445
        45.600          31.200
 117869426.888 7  91846327.37645  22429806.000                    22429811.457
        47.500          34.000
 112677370.715 8  87800560.96946  21441791.008                    21441794.270
        51.300          39.400
 110843976.355 8  86371942.82145  21092908.766                    21092911.438
        48.800          34.900
 18  3 11 10 54 38.0000000  0 18G10G20R03R11R12R13R20R21R22R04G27G07
                                G21G30G28G08G15G13
 126967166.693 6  98935499.22844  24161055.188                    24161061.383
        41.400          24.700
 118715153.566 7  92505389.81545  22590758.883                    22590761.934
        45.600          31.200
                  86296073.091 6  20726784.922                    20726788.191
                        41.100
                  97253972.249 6  23399688.125                    23399689.699
                        41.100
                                  20073099.297

                  85097487.896 6  20489174.352                    20489175.773
                        38.200
                  90948478.037 7  21867220.250                    21867225.570
                        42.600
                  86832946.786 7  20863045.094                    20863045.457
                        42.300
                  97800831.594 7  23556073.570                    23556076.863
                        44.000
                  84275123.245 6  20234297.297                    20234297.961
                        41.400
 124615529.362 7  97103030.55944  23713548.836                    23713553.078
        44.500          26.800
 126561155.822 7  98619093.62944  24083791.055                    24083794.766
        46.400          29.700
 130552818.053 6 101729479.61344  24843377.188                    24843380.910
        39.500          24.600
 117255681.160 8  91368086.79046  22313014.938                    22313021.000
        49.100          37.300
 114692943.315 7  89371128.87545  21825341.008                    21825343.863
        45.200          31.100
 117870270.943 7  91846985.09245  22429965.672                    22429972.277
        47.600          34.000
 112676907.814 8  87800200.26946  21441702.680                    21441705.867
        51.500          39.800
 110845272.783 8  86372953.02845  21093155.320                    21093158.074
        48.700          34.900
 18  3 11 10 54 39.0000000  0 18G10G20R03R11R12R13R20R21R22R04G27G07
                                G21G30G28G08G15G13
 126964302.501 6  98933267.38544  24160509.492                    24160516.137
        41.200          24.100
 118717855.896 7  92507495.52145  22591273.766                    22591276.461
        45.000          31.900
                  86298576.129 6  20727388.070                    20727389.152
                        40.600
                  97257677.975 6  23400579.852                    23400580.957
                        40.900
                                  20073555.813

                  85095486.970 6  20488694.594                    20488694.207
                        38.300
                  90951049.567 7  21867840.945                    21867843.578
                        42.500
                  86832159.930 7  20862855.594                    20862857.152
                        42.100
                  97797616.653 7  23555299.227                    23555302.258
                        43.700
                  84274108.352 6  20234053.172                    20234053.813
                        41.200
 124618803.573 7  97105581.90844  23714171.430                    23714176.031
        44.300          27.300
 126565028.963 7  98622111.66644  24084527.367                    24084531.750
        44.700          28.000
 130555712.658 6 101731735.14644  24843928.477                    24843931.633
        39.200          24.200
 117258708.477 8  91370445.73946  22313591.461                    22313597.090
        49.500          37.800
 114691938.875 7  89370346.18845  21825148.852                    21825152.063
        45.500          31.000
 117871115.741 7  91847643.38345  22430126.305                    22430133.266
        47.200          33.800
 112676445.628 8  87799840.12546  21441614.859                    21441617.902
        52.200          39.600
 110846569.897 8  86373963.76645  21093401.625                    21093405.078
        48.700          34.700
 18  3 11 10 54 40.0000000  0 18G10G20R03R11R12R13R20R21R22R04G27G07
                                G21G30G28G08G15G13
 126961438.647 6  98931035.80343  24159965.172                    24159971.152
        40.900          23.200
 118720558.758 7  92509601.64745  22591787.859                    22591790.762
        44.500          32.000
                  86301079.673 6  20727989.922                    20727990.434
                        40.500
                  97261383.871 6  23401470.586                    23401472.801
                        40.800
                                  20074013.680

                  85093486.556 6  20488212.289                    20488212.855
                        38.300
                  90953621.626 7  21868458.688                    21868462.094
                        42.600
                  86831373.804 6  20862666.820                    20862668.172
                        41.900
                  97794401.925 7  23554524.625                    23554528.418
                        43.200
                  84273094.120 6  20233809.969                    20233809.863
                        41.200
 124622078.232 7  97108133.59644  23714794.906                    23714799.438
        43.900          26.900
 126568902.365 7  98625129.90344  24085263.133                    24085268.941
        43.500          27.200
 130558607.563 6 101733990.91444  24844478.945                    24844482.313
        39.200          25.800
 117261736.253 8  91372805.04846  22314167.383                    22314173.406
        49.200          37.100
 114690935.003 7  89369563.94845  21824958.070                    21824961.133
        44.700          30.000
 117871961.259 7  91848302.23345  22430287.000                    22430293.656
        47.300          34.400
 112675984.120 8  87799480.50646  21441527.070                    21441530.152
        52.500          39.400
 110847867.720 8  86374975.05345  21093648.602                    21093651.844
        48.200          34.700
 18  3 11 10 54 41.0000000  0 18G10G20R03R11R12R13R20R21R22R04G27G07
                                G21G30G28G08G15G13
 126958575.194 6  98928804.55044  24159420.141                    24159426.047
        40.800          25.600
 118723262.178 7  92511708.19345  22592302.664                    22592305.645
        44.900          31.900
                  86303583.775 6  20728591.203                    20728592.133
                        40.700
                  97265089.913 6  23402362.727                    23402364.207
                        41.400
                                  20074470.852

                  85091486.626 6  20487727.797                    20487731.590
                        37.900
                  90956194.267 7  21869077.625                    21869080.133
                        42.400
                  86830588.415 7  20862477.781                    20862479.059
                        42.300
                  97791187.436 7  23553749.305                    23553753.730
                        43.200
                  84272080.536 6  20233566.953                    20233566.746
                        41.200
 124625353.383 7  97110685.66144  23715417.438                    23715422.617
        43.600          26.600
 126572776.021 7  98628148.31244  24085999.984                    24086005.629
        42.900          26.900
 130561502.812 6 101736246.94844  24845029.984                    24845033.504
        38.300          25.000
 117264764.478 8  91375164.69746  22314743.805                    22314749.480
        49.400          37.200
 114689931.678 7  89368782.13645  21824767.117                    21824770.180
        44.900          30.400
 117872807.452 7  91848961.60445  22430447.953                    22430454.672
        46.800          34.400
 112675523.307 8  87799121.43046  21441439.320                    21441442.031
        52.200          39.400
 110849166.219 8  86375986.86945  21093895.852                    21093898.984
        48.100          34.900
 18  3 11 10 54 42.0000000  0 18G10G20R03R11R12R13R20R21R22R04G27G07
                                G21G30G28G08G15G13
 126955712.131 6  98926573.58744  24158875.664                    24158881.141
        41.300          25.800
 118725966.218 7  92513815.23645  22592817.609                    22592820.379
        45.100          32.300
                  86306088.467 6  20729191.539                    20729193.598
                        40.500
                  97268796.142 6  23403253.508                    23403256.426
                        41.000
                                  20074927.375

                  85089487.286 6  20487247.367                    20487249.008
                        38.300
                  90958767.556 7  21869693.836                    21869698.871
                        42.500
                  86829803.734 7  20862289.125                    20862290.785
                        42.300
                  97787973.166 7  23552975.141                    23552979.316
                        43.100
                  84271067.615 6  20233323.336                    20233323.629
                        40.700
 124628628.987 7  97113238.06744  23716041.055                    23716046.074
        43.200          27.200
 126576649.881 7  98631166.87144  24086738.563                    24086743.098
        43.700          27.800
 130564398.433 6 101738503.27343  24845581.180                    24845584.180
        38.300          23.300
 117267793.189 8  91377524.73446  22315319.750                    22315325.945
        49.300          37.300
 114688928.984 7  89368000.81645  21824575.984                    21824579.504
        45.000          30.600
 117873654.413 7  91849621.56545  22430609.266                    22430615.707
        46.300          34.000
 112675063.252 8  87798762.94146  21441351.742                    21441354.625
        52.300          39.400
 110850465.463 8  86376999.25945  21094143.188                    21094146.277
        48.100          34.700
 18  3 11 10 54 43.0000000  0 18G10G20R03R11R12R13R20R21R22R04G27G07
                                G21G30G28G08G15G13
 126952849.437 6  98924342.91144  24158330.617                    24158335.969
        41.600          24.200
 118728670.736 7  92515922.65145  22593332.523                    22593334.473
        45.500          32.000
                  86308593.725 6  20729792.688                    20729795.668
                        40.800
                  97272502.533 6  23404145.766                    23404147.109
                        41.400
                                  20075384.773

                  85087488.489 6  20486768.016                    20486768.973
                        37.800
                  90961341.372 7  21870314.719                    21870317.395
                        42.500
                  86829019.770 7  20862100.797                    20862102.320
                        42.200
                  97784759.127 7  23552201.531                    23552204.504
                        43.300
                  84270055.351 6  20233080.648                    20233080.797
                        40.900
 124631905.059 7  97115790.85544  23716663.977                    23716669.559
        43.200          27.000
 126580523.965 7  98634185.65044  24087475.789                    24087479.813
        44.300          28.600
 130567294.362 6 101740759.84444  24846132.273                    24846135.684
        37.700          24.300
 117270822.388 8  91379885.15446  22315896.250                    22315902.738
        49.300          37.600
 114687926.842 7  89367219.93545  21824386.211                    21824388.660
        44.500          30.600
 117874502.103 7  91850282.09945  22430770.914                    22430776.898
        46.200          34.600
 112674603.860 8  87798404.97746  21441264.391                    21441267.617
        52.400          39.400
 110851765.379 7  86378012.17945  21094390.703                    21094393.699
        47.600          34.600
 18  3 11 10 54 44.0000000  0 18G10G20R03R11R12R13R20R21R22R04G27G07
                                G21G30G28G08G15G13
 126949987.100 6  98922112.51144  24157785.969                    24157791.508
        41.000          25.600
 118731375.899 7  92518030.56345  22593847.102                    22593849.094
        45.500          31.800
                  86311099.578 6  20730395.219                    20730396.953
                        40.600
                  97276209.108 6  23405037.461                    23405040.125
                        41.200
                                  20075842.813

                  85085490.177 6  20486286.383                    20486287.855
                        38.400
                  90963915.673 7  21870936.398                    21870936.184
                        42.300
                  86828236.594 7  20861912.852                    20861913.512
                        42.400
                  97781545.319 7  23551427.719                    23551430.895
                        43.500
                  84269043.795 6  20232837.758                    20232837.770
                        41.100
 124635181.658 7  97118344.03344  23717287.797                    23717293.266
        42.600          26.400
 126584398.320 7  98637204.65744  24088212.539                    24088217.102
        44.500          27.000
 130570190.669 6 101743016.69743  24846683.461                    24846686.680
        37.800          22.800
 117273852.042 8  91382245.91846  22316473.148                    22316478.824
        49.600          37.500
 114686925.339 7  89366439.55045  21824195.227                    21824198.063
        45.100          30.900
 117875350.517 7  91850943.19745  22430932.398                    22430938.879
        45.800          34.600
 112674145.222 8  87798047.59146  21441177.039                    21441180.098
        52.500          39.000
 110853066.023 8  86379025.66445  21094638.266                    21094641.395
        48.100          34.100
 18  3 11 10 54 45.0000000  0 18G10G20R03R11R12R13R20R21R22R04G27G07
                                G21G30G28G08G15G13
 126947125.172 6  98919882.43044  24157241.273                    24157246.844
        40.900          24.500
 118734081.589 7  92520138.89345  22594361.625                    22594363.941
        45.400          31.400
                  86313605.976 6  20730997.406                    20730999.082
                        40.800
                  97279915.839 6  23405929.141                    23405931.070
                        41.400
                                  20076300.477

                  85083492.386 6  20485804.766                    20485805.730
                        38.600
                  90966490.561 7  21871554.477                    21871556.125
                        42.300
                  86827454.192 7  20861724.867                    20861725.625
                        42.300
                  97778331.746 7  23550654.273                    23550656.688
                        43.100
                  84268032.968 6  20232595.375                    20232595.445
                        41.100
 124638458.689 7  97120897.55544  23717911.000                    23717916.613
        42.200          27.000
 126588272.902 7  98640223.84744  24088949.047                    24088954.500
        42.100          26.700
 130573087.316 6 101745273.81343  24847234.234                    24847237.609
        37.000          22.900
 117276882.189 8  91384607.07046  22317050.070                    22317055.145
        49.100          37.900
 114685924.387 7  89365659.58345  21824004.930                    21824007.184
        45.100          30.600
 117876199.628 7  91851604.84145  22431094.414                    22431100.254
        45.500          34.800
 112673687.291 8  87797690.76646  21441089.813                    21441092.852
        52.600          39.300
 110854367.360 8  86380039.69245  21094886.445                    21094888.727
        48.600          34.400
 18  3 11 10 54 46.0000000  0 18G10G20R03R11R12R13R20R21R22R04G27G07
                                G21G30G28G08G15G13
 126944263.587 6  98917652.61644  24156697.297                    24156702.539
        40.900          26.000
 118736787.814 7  92522247.63745  22594876.914                    22594879.133
        45.500          32.200
                  86316112.895 6  20731600.172                    20731600.766
                        40.900
                  97283622.696 6  23406821.477                    23406823.453
                        40.900
                                  20076758.406

                  85081495.116 6  20485323.797                    20485325.383
                        38.100
                  90969066.056 7  21872172.227                    21872175.648
                        42.600
                  86826672.470 7  20861537.461                    20861537.289
                        42.200
                  97775118.374 7  23549880.328                    23549882.813
                        42.400
                  84267022.796 6  20232351.500                    20232352.641
                        41.400
 124641736.161 7  97123451.42644  23718535.063                    23718540.301
        42.600          27.300
 126592147.770 6  98643243.23044  24089684.969                    24089691.746
        40.200          26.500
 130575984.262 6 101747531.16043  24847785.656                    24847789.184
        37.600          22.500
 117279912.783 8  91386968.56946  22317626.063                    22317632.457
        49.100          37.700
 114684923.991 7  89364880.05345  21823814.586                    21823817.012
        44.900          31.200
 117877049.492 7  91852267.06945  22431255.844                    22431261.668
        45.800          34.400
 112673230.038 8  87797334.46146  21441002.984                    21441006.039
        52.700          39.200
 110855669.392 8  86381054.26745  21095133.766                    21095136.543
        49.000          34.900
 18  3 11 10 54 47.0000000  0 18G10G20R03R11R12R13R20R21R22R04G27G07
                                G21G30G28G08G15G13
 126941402.358 6  98915423.07544  24156152.578                    24156158.074
        41.000          24.800
 118739494.581 7  92524356.80145  22595391.508                    22595393.832
        45.600          32.100
                  86318620.365 6  20732201.539                    20732203.313
                        40.800
                  97287329.692 6  23407713.188                    23407715.570
                        41.200
                                  20077217.039

                  85079498.331 6  20484842.859                    20484844.652
                        38.300
                  90971642.193 7  21872791.172                    21872794.043
                        43.000
                  86825891.462 7  20861349.375                    20861350.930
                        42.100
                  97771905.229 7  23549107.750                    23549108.516
                        42.700
                  84266013.273 6  20232110.031                    20232110.238
                        41.200
 124645014.091 7  97126005.65044  23719158.453                    23719164.438
        42.800          27.200
 126596022.855 6  98646262.74944  24090423.891                    24090428.855
        39.600          25.800
 130578881.539 6 101749788.78343  24848336.523                    24848340.141
        37.400          22.600
 117282943.803 8  91389330.40546  22318203.383                    22318209.309
        48.900          37.900
 114683924.172 7  89364100.97345  21823624.430                    21823627.102
        45.300          30.500
 117877900.036 7  91852929.82945  22431418.156                    22431423.652
        46.300          34.400
 112672773.499 8  87796978.71446  21440915.773                    21440919.254
        52.300          39.100
 110856972.122 8  86382069.38345  21095381.750                    21095384.617
        48.700          34.700
 18  3 11 10 54 48.0000000  0 18G10G20R03R11R12R13R20R21R22R04G27G07
                                G21G30G28G08G15G13
 126938541.523 6  98913193.84544  24155608.188                    24155613.063
        40.900          24.700
 118742201.932 7  92526466.43145  22595907.188                    22595909.281
        45.900          31.600
                  86321128.417 6  20732803.078                    20732805.813
                        40.900
                  97291036.893 6  23408605.461                    23408607.406
                        41.000
                                  20077674.773

                  85077502.083 6  20484361.234                    20484363.422
                        38.500
                  90974218.812 7  21873413.383                    21873413.359
                        42.800
                  86825111.185 7  20861162.250                    20861163.012
                        42.100
                  97768692.315 7  23548334.539                    23548334.953
                        43.100
                  84265004.429 6  20231867.680                    20231868.160
                        41.800
 124648292.508 7  97128560.26444  23719782.453                    23719788.527
        42.600          27.400
 126599898.209 6  98649282.43944  24091163.133                    24091166.164
        41.400          26.800
 130581779.202 6 101752046.70343  24848888.266                    24848892.102
        37.500          22.500
 117285975.355 8  91391692.65346  22318780.047                    22318785.953
        49.400          37.700
 114682924.947 7  89363322.35445  21823434.094                    21823436.465
        45.600          30.800
 117878751.316 7  91853593.15645  22431579.969                    22431585.535
        46.600          34.900
 112672317.676 8  87796623.52146  21440829.203                    21440832.145
        52.200          39.300
 110858275.547 8  86383085.03745  21095629.570                    21095632.551
        48.600          33.800
 18  3 11 10 54 49.0000000  0 18G10G20R03R11R12R13R20R21R22R04G27G07
                                G21G30G28G08G15G13
 126935681.053 6  98910964.92044  24155063.516                    24155069.395
        40.800          24.200
 118744909.821 7  92528576.47245  22596422.672                    22596424.453
        46.000          31.300
                  86323637.027 6  20733404.609                    20733408.348
                        40.700
                  97294744.237 6  23409496.891                    23409499.176
                        41.200
                                  20078132.813

                  85075506.431 6  20483883.688                    20483883.813
                        38.300
                  90976795.966 7  21874033.516                    21874033.547
                        42.900
                  86824331.675 7  20860974.047                    20860975.809
                        42.400
                  97765479.617 7  23547560.242                    23547560.852
                        42.800
                  84263996.247 6  20231626.086                    20231626.512
                        41.400
 124651571.392 7  97131115.24144  23720405.773                    23720412.234
        42.200          27.500
 126603773.705 7  98652302.26044  24091901.773                    24091903.984
        43.500          26.900
 130584677.161 6 101754304.85143  24849439.328                    24849443.438
        37.900          22.900
 117289007.336 8  91394055.23646  22319357.289                    22319362.703
        49.700          37.600
 114681926.283 7  89362544.17745  21823244.164                    21823246.727
        45.100          30.100
 117879603.309 7  91854257.04445  22431742.398                    22431747.770
        46.900          34.700
 112671862.539 8  87796268.86946  21440742.688                    21440745.957
        52.400          39.600
 110859579.688 8  86384101.24945  21095877.805                    21095880.703
        48.700          34.200
 18  3 11 10 54 50.0000000  0 18G10G20R03R11R12R13R20R21R22R04G27G07
                                G21G30G28G08G15G13
 126932820.963 6  98908736.28944  24154519.375                    24154524.871
        40.200          25.400
 118747618.279 7  92530686.96145  22596937.813                    22596940.145
        46.200          31.900
                  86326146.211 6  20734008.711                    20734010.539
                        40.900
                  97298451.752 6  23410389.492                    23410391.625
                        41.600
                                  20078591.609

                  85073511.292 6  20483403.961                    20483402.637
                        37.800
                  90979373.722 7  21874652.133                    21874653.867
                        43.000
                  86823552.910 7  20860786.938                    20860788.215
                        42.300
                  97762267.147 7  23546785.500                    23546787.156
                        42.400
                  84262988.729 6  20231383.641                    20231383.875
                        41.500
 124654850.736 6  97133670.57244  23721029.633                    23721036.566
        41.700          26.700
 126607649.487 7  98655322.34344  24092639.492                    24092641.473
        45.100          26.400
 130587575.489 6 101756563.29143  24849991.383                    24849995.023
        38.000          22.900
 117292039.801 8  91396418.19446  22319934.367                    22319939.762
        49.900          37.700
 114680928.223 7  89361766.47445  21823054.172                    21823056.828
        45.200          30.000
 117880456.007 7  91854921.49645  22431904.633                    22431910.473
        47.200          34.100
 112671408.140 8  87795914.78646  21440656.344                    21440659.078
        51.900          39.600
 110860884.526 8  86385118.01345  21096125.656                    21096128.707
        48.600          34.500
 18  3 11 10 54 51.0000000  0 18G10G20R03R11R12R13R20R21R22R04G27G07
                                G21G30G28G08G15G13
 126929961.227 6  98906507.91544  24153974.539                    24153980.535
        40.600          24.400
 118750327.274 7  92532797.87045  22597452.852                    22597455.371
        46.100          32.300
                  86328655.850 6  20734613.641                    20734613.336
                        40.900
                  97302159.392 6  23411281.922                    23411283.383
                        41.100
                                  20079050.320

                  85071516.549 6  20482920.813                    20482923.590
                        38.500
                  90981952.104 7  21875269.063                    21875273.641
                        42.800
                  86822774.853 7  20860600.367                    20860601.980
                        42.100
                  97759054.874 7  23546011.344                    23546013.316
                        42.500
                  84261981.888 6  20231142.797                    20231142.492
                        41.400
 124658130.543 6  97136226.25844  23721653.867                    23721660.637
        41.500          26.900
 126611525.464 7  98658342.62044  24093376.484                    24093378.707
        45.500          27.200
 130590474.141 6 101758821.98043  24850542.727                    24850546.516
        37.200          22.600
 117295072.722 8  91398781.51546  22320510.656                    22320516.969
        49.400          37.700
 114679930.711 7  89360989.18845  21822864.234                    21822866.859
        44.900          30.800
 117881309.405 7  91855586.48645  22432066.477                    22432072.797
        46.900          34.700
 112670954.417 8  87795561.23846  21440569.555                    21440572.918
        51.200          39.400
 110862190.059 8  86386135.30545  21096374.086                    21096377.664
        48.600          34.500
 18  3 11 10 54 52.0000000  0 18G10G20R03R11R12R13R20R21R22R04G27G07
                                G21G30G28G08G15G13
 126927101.873 6  98904279.85444  24153430.422                    24153436.500
        40.600          24.500
 118753036.803 7  92534909.19245  22597968.453                    22597971.258
        46.000          32.200
                  86331166.032 6  20735218.031                    20735216.488
                        40.900
                  97305867.181 6  23412173.766                    23412176.070
                        41.800
                                  20079508.539

                  85069522.371 6  20482439.633                    20482442.750
                        37.900
                  90984530.987 7  21875888.867                    21875893.965
                        42.700
                  86821997.481 7  20860413.320                    20860414.438
                        42.100
                  97755842.851 7  23545237.539                    23545239.508
                        42.500
                  84260975.695 6  20230901.305                    20230900.969
                        41.400
 124661410.786 6  97138782.26844  23722277.898                    23722284.715
        41.400          27.000
 126615401.667 7  98661363.09244  24094113.195                    24094116.289
        44.600          27.900
 130593373.127 6 101761080.92843  24851094.422                    24851098.320
        37.500          23.400
 117298106.093 8  91401145.18446  22321088.320                    22321094.031
        49.300          37.900
 114678933.767 7  89360212.34945  21822674.578                    21822677.188
        45.100          30.300
 117882163.519 7  91856252.04145  22432228.656                    22432235.078
        46.500          34.400
 112670501.374 8  87795208.21946  21440483.461                    21440486.742
        51.400          39.300
 110863496.248 8  86387153.11945  21096622.773                    21096625.539
        48.900          34.700
 18  3 11 10 54 53.0000000  0 18G10G20R03R11R12R13R20R21R22R04G27G07
                                G21G30G28G08G15G13
 126924242.851 6  98902052.04544  24152886.750                    24152892.680
        40.800          25.400
 118755746.873 7  92537020.93245  22598484.625                    22598486.660
        46.400          32.800
                  86333676.736 6  20735819.938                    20735819.430
                        40.900
                  97309575.111 6  23413066.188                    23413067.957
                        41.500
                                  20079967.539

                  85067528.774 6  20481962.109                    20481962.316
                        38.300
                  90987110.406 7  21876509.469                    21876513.367
                        43.000
                  86821220.862 7  20860227.117                    20860228.027
                        42.000
                  97752631.014 7  23544463.688                    23544466.039
                        42.000
                  84259970.136 6  20230659.234                    20230659.508
                        41.200
 124664691.506 6  97141338.66444  23722903.273                    23722909.297
        41.800          26.400
 126619278.098 7  98664383.72744  24094850.352                    24094854.109
        43.600          29.100
 130596272.429 6 101763340.11843  24851646.750                    24851650.004
        37.800          22.500
 117301139.906 8  91403509.18446  22321666.086                    22321671.328
        50.000          37.700
 114677937.361 7  89359435.93045  21822484.742                    21822487.539
        45.400          30.100
 117883018.348 7  91856918.14245  22432391.336                    22432397.699
        46.800          34.600
 112670049.023 8  87794855.74446  21440397.531                    21440400.391
        51.400          39.600
 110864803.144 8  86388171.47845  21096871.773                    21096874.250
        48.700          34.600
 18  3 11 10 54 54.0000000  0 18G10G20R03R11R12R13R20R21R22R04G27G07
                                G21G30G28G08G15G13
 126921384.223 6  98899824.54944  24152342.578                    24152348.516
        39.800          24.200
 118758457.497 7  92539133.10745  22598999.992                    22599003.020
        46.500          32.300
                  86336188.081 6  20736421.047                    20736422.973
                        40.900
                  97313283.288 6  23413957.641                    23413960.121
                        41.400
                                  20080426.938

                  85065535.715 6  20481484.305                    20481483.039
                        38.100
                  90989690.396 7  21877130.930                    21877134.324
                        42.600
                  86820445.018 7  20860040.281                    20860042.113
                        42.000
                  97749419.444 7  23543690.992                    23543692.176
                        42.100
                  84258965.307 6  20230417.977                    20230418.074
                        41.200
 124667972.688 7  97143895.40044  23723527.648                    23723533.660
        42.300          26.700
 126623154.856 7  98667404.58144  24095587.539                    24095592.293
        43.400          29.700
 130599172.077 6 101765599.59843  24852197.523                    24852201.816
        37.700          22.500
 117304174.230 8  91405873.59846  22322243.203                    22322248.801
        50.000          37.300
 114676941.596 7  89358660.00845  21822295.688                    21822298.211
        45.800          30.500
 117883873.943 7  91857584.83145  22432554.078                    22432560.914
        46.500          34.700
 112669597.390 8  87794503.81446  21440311.641                    21440314.566
        51.400          39.400
 110866110.748 8  86389190.39545  21097120.555                    21097123.512
        48.900          34.600
 18  3 11 10 54 55.0000000  0 18G10G20R03R11R12R13R20R21R22R04G27G07
                                G21G30G28G08G15G13
 126918525.963 6  98897597.34244  24151798.727                    24151804.887
        40.000          25.300
 118761168.704 7  92541245.74645  22599516.273                    22599518.844
        46.400          31.900
                  86338700.021 6  20737021.625                    20737026.863
                        40.900
                  97316991.568 6  23414850.469                    23414851.543
                        41.200
                                  20080885.813

                  85063543.109 6  20481003.359                    20481002.973
                        38.600
                  90992270.950 7  21877750.602                    21877755.145
                        42.300
                  86819669.896 6  20859854.469                    20859855.891
                        41.900
                  97746208.106 7  23542916.961                    23542919.203
                        42.100
                  84257961.141 6  20230176.211                    20230177.066
                        41.000
 124671254.331 7  97146452.51744  23724153.047                    23724157.711
        42.900          26.600
 126627031.808 7  98670425.54044  24096326.664                    24096329.656
        43.800          29.500
 130602072.054 6 101767859.31643  24852750.031                    24852753.500
        38.500          22.900
 117307208.997 8  91408238.35246  22322820.523                    22322826.324
        49.600          36.700
 114675946.378 7  89357884.51245  21822105.836                    21822108.590
        45.400          30.600
 117884730.248 7  91858252.06945  22432717.648                    22432723.516
        46.700          35.100
 112669146.476 8  87794152.45646  21440225.852                    21440229.039
        51.500          39.200
 110867419.045 8  86390209.84845  21097369.438                    21097372.063
        49.000          34.800
 18  3 11 10 54 56.0000000  0 18G10G20R03R11R12R13R20R21R22R04G27G07
                                G21G30G28G08G15G13
 126915668.105 6  98895370.44544  24151254.859                    24151261.133
        40.300          24.500
 118763880.471 7  92543358.80945  22600032.188                    22600034.508
        46.100          31.700
                  86341212.589 6  20737625.648                    20737629.891
                        40.700
                  97320700.006 6  23415743.125                    23415744.293
                        41.600
                                  20081345.617

                  85061550.959 6  20480519.156                    20480524.086
                        38.500
                  90994852.134 7  21878370.773                    21878375.727
                        42.000
                  86818895.489 7  20859668.102                    20859669.645
                        42.300
                  97742996.996 7  23542144.078                    23542145.848
                        42.400
                  84256957.676 6  20229936.023                    20229936.477
                        41.100
 124674536.474 7  97149010.02344  23724777.297                    23724782.656
        43.100          25.800
 126630909.002 7  98673446.68645  24097064.820                    24097068.051
        44.700          30.000
 130604972.387 6 101770119.31743  24853301.750                    24853305.672
        38.900          22.200
 117310244.264 8  91410603.49546  22323397.977                    22323404.141
        49.700          36.900
 114674951.782 7  89357109.50545  21821916.609                    21821919.762
        45.200          30.400
 117885587.289 7  91858919.88945  22432881.305                    22432887.051
        47.000          34.300
 112668696.271 8  87793801.64946  21440140.273                    21440143.250
        51.400          39.000
 110868728.094 8  86391229.88245  21097618.656                    21097621.277
        49.100          34.300
 18  3 11 10 54 57.0000000  0 18G10G20R03R11R12R13R20R21R22R04G27G07
                                G21G30G28G08G15G13
 126912810.632 6  98893143.84644  24150711.000                    24150717.453
        39.700          24.900
 118766592.796 7  92545472.30945  22600548.047                    22600550.859
        46.200          30.900
                  86343725.662 6  20738231.102                    20738232.809
                        40.700
                  97324408.610 6  23416634.508                    23416636.605
                        41.900
                                  20081804.969

                  85059559.472 6  20480041.258                    20480043.387
                        38.300
                  90997433.898 7  21878990.047                    21878996.070
                        42.100
                  86818121.829 7  20859482.188                    20859483.801
                        42.400
                  97739786.108 7  23541370.641                    23541372.309
                        42.300
                  84255954.896 6  20229694.625                    20229695.305
                        41.200
 124677819.079 7  97151567.90744  23725401.586                    23725407.418
        43.900          26.300
 126634786.443 7  98676468.04044  24097803.000                    24097805.953
        45.200          29.600
 130607873.111 6 101772379.63543  24853854.438                    24853857.559
        38.800          22.800
 117313280.012 8  91412969.00646  22323976.266                    22323981.359
        49.700          37.200
 114673957.752 7  89356334.93445  21821727.781                    21821730.340
        45.500          31.000
 117886445.041 7  91859588.26245  22433044.555                    22433049.832
        47.000          34.100
 112668246.804 8  87793451.41846  21440054.563                    21440057.969
        51.600          39.000
 110870037.851 8  86392250.47545  21097867.813                    21097870.574
        48.800          34.400
 18  3 11 10 54 58.0000000  0 18G10G20R03R11R12R13R20R21R22R04G27G07
                                G21G30G28G08G15G13
 126909953.521 6  98890917.53644  24150167.180                    24150173.738
        39.900          25.600
 118769305.689 7  92547586.25045  22601064.375                    22601067.125
        46.100          31.300
                  86346239.227 6  20738837.805                    20738837.004
                        40.800
                  97328117.368 6  23417526.508                    23417528.902
                        41.300
                                  20082264.961

                  85057568.535 6  20479564.680                    20479564.141
                        38.200
                  91000016.179 7  21879613.188                    21879616.836
                        42.000
                  86817348.920 7  20859297.117                    20859298.469
                        42.400
                  97736575.438 7  23540596.836                    23540598.785
                        42.400
                  84254952.778 6  20229453.648                    20229454.996
                        41.300
 124681102.142 7  97154126.14744  23726026.266                    23726031.926
        43.900          27.200
 126638664.100 7  98679489.58044  24098539.945                    24098544.074
        45.200          28.100
 130610774.110 6 101774640.16043  24854406.531                    24854409.410
        39.400          22.900
 117316316.209 8  91415334.86946  22324554.211                    22324559.219
        49.700          37.400
 114672964.311 7  89355560.82345  21821538.875                    21821541.258
        45.100          30.600
 117887303.490 7  91860257.19345  22433207.625                    22433213.492
        47.200          34.400
 112667798.022 8  87793101.72246  21439969.391                    21439972.020
        51.600          39.000
 110871348.278 8  86393271.59745  21098117.547                    21098119.984
        49.100          34.700
 18  3 11 10 54 59.0000000  0 18G10G20R03R11R12R13R20R21R22R04G27G07
                                G21G30G28G08G15G13
 126907096.770 6  98888691.49844  24149624.078                    24149630.168
        39.900          27.100
 118772019.128 7  92549700.61745  22601580.492                    22601583.676
        45.700          31.600
                  86348753.321 6  20739440.328                    20739440.707
                        40.500
                  97331826.315 6  23418420.375                    23418421.234
                        41.500
                                  20082724.234

                  85055578.061 6  20479087.008                    20479084.645
                        38.600
                  91002599.009 6  21880235.383                    21880237.938
                        41.600
                  86816576.749 7  20859111.773                    20859112.285
                        42.400
                  97733364.982 7  23539823.266                    23539825.875
                        42.200
                  84253951.332 6  20229214.047                    20229213.965
                        41.400
 124684385.651 7  97156684.73544  23726651.328                    23726657.070
        43.400          26.900
 126642542.020 7  98682511.35144  24099277.883                    24099281.957
        44.900          26.800
 130613675.476 6 101776900.95243  24854958.133                    24854961.434
        39.700          22.200
 117319352.853 8  91417701.08946  22325132.109                    22325137.430
        50.100          37.900
 114671971.455 7  89354787.17345  21821349.547                    21821352.383
        45.100          30.200
 117888162.671 7  91860926.68945  22433370.773                    22433376.992
        47.100          34.600
 112667349.933 8  87792752.56846  21439883.914                    21439886.902
        51.600          39.100
 110872659.421 8  86394293.27145  21098366.406                    21098369.605
        48.400          34.500
 18  3 11 10 55  0.0000000  0 18G10G20R03R11R12R13R20R21R22R04G27G07
                                G21G30G28G08G15G13
 126904240.399 6  98886465.76944  24149080.234                    24149086.270
        40.100          26.000
 118774733.104 7  92551815.39845  22602096.945                    22602099.402
        46.000          31.700
                  86351267.996 6  20740043.031                    20740044.691
                        40.500
                  97335535.391 6  23419312.195                    23419313.977
                        41.400
                                  20083184.000

                  85053588.056 6  20478604.945                    20478606.336
                        38.400
                  91005182.412 7  21880857.344                    21880858.680
                        42.100
                  86815805.263 7  20858925.469                    20858927.383
                        42.300
                  97730154.780 7  23539050.195                    23539052.922
                        42.300
                  84252950.557 6  20228973.242                    20228974.238
                        41.500
 124687669.639 7  97159243.68144  23727275.375                    23727281.777
        43.700          26.500
 126646420.164 7  98685533.30544  24100015.867                    24100019.246
        44.500          26.200
 130616577.160 6 101779161.99843  24855510.758                    24855513.938
        39.800          23.800
 117322389.972 8  91420067.67846  22325709.188                    22325715.047
        49.800          37.600
 114670979.141 7  89354013.94245  21821160.719                    21821163.531
        45.300          30.400
 117889022.563 7  91861596.74445  22433534.000                    22433540.129
        47.000          34.700
 112666902.552 8  87792403.96246  21439799.031                    21439801.777
        51.900          39.300
 110873971.251 8  86395315.47445  21098616.227                    21098619.145
        48.300          34.200
 18  3 11 10 55  1.0000000  0 18G10G20R03R11R12R13R20R21R22R04G27G07
                                G21G30G28G08G15G13
 126901384.403 6  98884240.31244  24148537.047                    24148543.211
        40.300          24.300
 118777447.637 7  92553930.61445  22602613.484                    22602616.387
        45.500          31.600
                  86353783.252 6  20740644.969                    20740648.664
                        41.000
                  97339244.617 6  23420204.766                    23420206.523
                        41.500
                                  20083644.359

                  85051598.587 6  20478124.156                    20478126.781
                        38.600
                  91007766.386 6  21881478.383                    21881480.316
                        41.900
                  86815034.522 7  20858740.328                    20858741.680
                        42.300
                  97726944.795 7  23538277.758                    23538279.777
                        42.600
                  84251950.481 6  20228733.297                    20228734.328
                        41.500
 124690954.076 7  97161802.98344  23727900.813                    23727906.734
        43.600          27.000
 126650298.539 7  98688555.43444  24100754.125                    24100757.156
        45.000          27.500
 130619479.169 6 101781423.31744  24856062.383                    24856066.133
        39.900          24.000
 117325427.571 8  91422434.63746  22326287.820                    22326293.227
        49.800          37.500
 114669987.425 7  89353241.17845  21820972.102                    21820974.867
        45.100          31.400
 117889883.191 7  91862267.35945  22433697.695                    22433704.207
        46.900          34.900
 112666455.900 8  87792055.91946  21439714.125                    21439716.711
        51.600          39.200
 110875283.802 8  86396338.23445  21098865.953                    21098868.875
        48.400          34.300
 18  3 11 10 55  2.0000000  0 18G10G20R03R11R12R13R20R21R22R04G27G07
                                G21G30G28G08G15G13
 126898528.792 6  98882015.16944  24147994.023                    24147999.438
        40.700          25.600
 118780162.751 7  92556046.28545  22603130.453                    22603132.988
        45.400          30.800
                  86356299.067 6  20741249.609                    20741253.414
                        41.000
                  97342954.038 6  23421096.859                    23421099.039
                        41.200
                                  20084104.492

                  85049609.729 6  20477647.570                    20477648.254
                        38.100
                  91010350.937 6  21882098.375                    21882101.258
                        41.800
                  86814264.564 7  20858555.461                    20858556.984
                        42.100
                  97723735.081 7  23537505.117                    23537506.629
                        43.100
                  84250951.062 6  20228492.727                    20228494.105
                        41.600
 124694239.039 7  97164362.69544  23728526.469                    23728531.727
        43.700          26.800
 126654177.172 7  98691577.76844  24101492.609                    24101495.465
        45.600          27.700
 130622381.586 6 101783684.94744  24856614.594                    24856618.563
        39.700          24.200
 117328465.639 8  91424801.96646  22326865.945                    22326871.402
        49.800          37.300
 114668996.271 7  89352468.84945  21820783.586                    21820786.156
        45.300          30.500
 117890744.562 7  91862938.56245  22433862.211                    22433868.215
        46.600          34.600
 112666009.950 8  87791708.43046  21439629.258                    21439632.031
        51.800          39.300
 110876597.067 8  86397361.56345  21099115.984                    21099119.027
        48.600          34.400
 18  3 11 10 55  3.0000000  0 18G10G20R03R11R12R13R20R21R22R04G27G07
                                G21G30G28G08G15G13
 126895673.560 6  98879790.30844  24147450.672                    24147456.305
        40.500          25.600
 118782878.392 7  92558162.37045  22603647.273                    22603649.813
        45.700          31.800
                  86358815.389 6  20741855.258                    20741857.223
                        41.100
                  97346663.586 6  23421989.578                    23421991.707
                        41.500
                                  20084565.102

                  85047621.355 6  20477169.563                    20477168.715
                        37.900
                  91012936.040 6  21882721.289                    21882722.617
                        41.800
                  86813495.328 7  20858370.609                    20858372.137
                        42.400
                  97720525.562 7  23536731.422                    23536733.738
                        43.700
                  84249952.313 6  20228253.453                    20228254.059
                        41.400
 124697524.416 7  97166922.73544  23729151.578                    23729157.457
        43.600          26.200
 126658056.005 7  98694600.25444  24102230.359                    24102233.152
        45.700          28.000
 130625284.258 6 101785946.77243  24857167.398                    24857170.441
        39.400          23.300
 117331504.156 8  91427169.64346  22327444.141                    22327449.715
        50.000          37.700
 114668005.681 7  89351696.95645  21820595.109                    21820597.766
        45.400          30.600
 117891606.638 7  91863610.30045  22434025.727                    22434032.453
        46.300          34.400
 112665564.700 8  87791361.47646  21439544.531                    21439547.324
        51.800          39.500
 110877911.027 8  86398385.42645  21099365.992                    21099368.988
        49.100          34.500
 18  3 11 10 55  4.0000000  0 18G10G20R03R11R12R13R20R21R22R04G27G07
                                G21G30G28G08G15G13
 126892818.722 6  98877565.75744  24146906.766                    24146912.707
        41.300          25.300
 118785594.651 7  92560278.93545  22604164.445                    22604166.738
        45.600          31.500
                  86361332.262 6  20742461.383                    20742461.781
                        41.300
                  97350373.356 6  23422881.711                    23422883.914
                        41.900
                                  20085025.273

                  85045633.527 6  20476691.148                    20476690.777
                        38.400
                  91015521.730 6  21883342.516                    21883344.242
                        41.600
                  86812726.822 7  20858186.336                    20858188.086
                        42.100
                  97717316.306 7  23535957.758                    23535961.301
                        43.900
                  84248954.293 6  20228013.883                    20228014.688
                        41.300
 124700810.299 7  97169483.16744  23729777.328                    23729781.875
        43.600          25.700
 126661935.121 7  98697622.95644  24102967.250                    24102971.637
        45.300          27.700
 130628187.350 6 101788208.93743  24857719.781                    24857723.137
        39.000          22.900
 117334543.194 8  91429537.72746  22328022.258                    22328027.953
        50.000          37.700
 114667015.726 7  89350925.55945  21820407.000                    21820409.422
        45.500          30.700
 117892469.468 7  91864282.63745  22434189.734                    22434196.375
        45.900          34.500
 112665120.209 8  87791015.12446  21439459.586                    21439462.652
        52.100          39.500
 110879225.716 8  86399409.85645  21099616.359                    21099619.215
        49.600          34.700
 18  3 11 10 55  5.0000000  0 18G10G20R03R11R12R13R20R21R22R04G27G07
                                G21G30G28G08G15G13
 126889964.279 6  98875341.51544  24146364.172                    24146369.457
        41.300          24.700
 118788311.446 7  92562395.91445  22604681.180                    22604683.676
        45.900          32.100
                  86363849.672 6  20743066.008                    20743066.406
                        41.200
                  97354083.254 6  23423774.516                    23423776.395
                        41.700
                                  20085486.563

                  85043646.166 6  20476210.383                    20476212.648
                        38.300
                  91018108.012 6  21883965.000                    21883965.938
                        41.700
                  86811959.069 7  20858001.117                    20858003.063
                        42.200
                  97714107.271 7  23535182.969                    23535189.328
                        44.100
                  84247956.915 6  20227774.328                    20227775.270
                        41.600
 124704096.636 7  97172043.95244  23730402.586                    23730406.938
        43.600          25.100
 126665814.510 7  98700645.86844  24103704.531                    24103709.664
        43.600          26.600
 130631090.747 6 101790471.32843  24858272.297                    24858275.414
        39.200          22.200
 117337582.705 8  91431906.17946  22328600.492                    22328606.488
        49.600          38.100
 114666026.346 7  89350154.62145  21820218.297                    21820221.074
        45.700          30.900
 117893332.979 7  91864955.50845  22434353.539                    22434360.918
        45.500          34.400
 112664676.412 8  87790669.30446  21439375.391                    21439378.184
        52.300          39.300
 110880541.099 8  86400434.83045  21099866.688                    21099869.000
        49.500          34.000
 18  3 11 10 55  6.0000000  0 18G10G20R03R11R12R13R20R21R22R04G27G07
                                G21G30G28G08G15G13
 126887110.220 6  98873117.56544  24145820.523                    24145826.250
        41.500          25.800
 118791028.798 7  92564513.33045  22605198.055                    22605200.609
        45.900          32.100
                  86366367.685 6  20743670.492                    20743672.125
                        41.500
                  97357793.285 6  23424667.664                    23424669.578
                        41.300
                                  20085946.648

                  85041659.365 6  20475730.953                    20475733.508
                        38.300
                  91020694.853 6  21884585.641                    21884588.719
                        41.800
                  86811192.063 7  20857816.961                    20857819.137
                        42.700
                  97710898.458 7  23534411.031                    23534415.582
                        44.100
                  84246960.222 6  20227534.836                    20227535.512
                        41.500
 124707383.487 7  97174605.14444  23731027.992                    23731032.559
        43.900          26.500
 126669694.123 6  98703668.94244  24104442.164                    24104448.000
        41.100          24.800
 130633994.503 6 101792733.99443  24858824.438                    24858827.887
        38.900          22.500
 117340622.665 8  91434274.97046  22329179.352                    22329184.992
        49.800          37.600
 114665037.538 7  89349384.11745  21820029.547                    21820032.789
        45.600          30.800
 117894197.277 7  91865628.98445  22434518.148                    22434525.313
        45.100          34.400
 112664233.322 8  87790324.04046  21439290.797                    21439293.891
        52.500          39.200
 110881857.182 8  86401460.34845  21100117.320                    21100119.957
        48.900          34.100
 18  3 11 10 55  7.0000000  0 18G10G20R03R11R12R13R20R21R22R04G27G07
                                G21G30G28G08G15G13
 126884256.513 6  98870893.89144  24145277.688                    24145283.789
        40.600          25.300
 118793746.711 7  92566631.18445  22605715.695                    22605717.711
        45.800          31.900
                  86368886.264 6  20744274.727                    20744276.199
                        40.900
                  97361503.515 6  23425560.055                    23425561.512
                        41.600
                                  20086408.031

                  85039673.123 6  20475253.523                    20475255.324
                        37.900
                  91023282.294 7  21885205.844                    21885210.633
                        42.100
                  86810425.807 7  20857633.477                    20857634.844
                        42.700
                  97707689.906 7  23533638.633                    23533644.059
                        44.200
                  84245964.214 6  20227296.453                    20227296.305
                        41.600
 124710670.741 7  97177166.65944  23731653.063                    23731658.355
        43.700          25.800
 126673574.007 6  98706692.21144  24105180.609                    24105186.375
        39.900          25.000
 130636898.543 6 101794996.88043  24859377.820                    24859380.727
        39.200          22.000
 117343663.087 8  91436644.13246  22329757.836                    22329763.410
        49.800          37.500
 114664049.302 7  89348614.06345  21819842.188                    21819844.965
        46.000          30.500
 117895062.262 7  91866302.99045  22434683.375                    22434689.902
        45.400          34.700
 112663790.941 8  87789979.32946  21439206.406                    21439209.574
        52.500          39.400
 110883173.964 8  86402486.41045  21100367.656                    21100370.652
        49.200          34.400
 18  3 11 10 55  8.0000000  0 18G10G20R03R11R12R13R20R21R22R04G27G07
                                G21G30G28G08G15G13
 126881403.159 6  98868670.50344  24144734.852                    24144740.766
        40.900          25.000
 118796465.141 7  92568749.43945  22606232.641                    22606235.328
        46.000          30.900
                  86371405.446 6  20744879.031                    20744881.305
                        41.000
                  97365213.919 6  23426453.109                    23426454.020
                        41.200
                                  20086868.734

                  85037687.387 6  20474776.578                    20474776.961
                        37.900
                  91025870.252 7  21885828.258                    21885833.090
                        42.300
                  86809660.252 7  20857449.391                    20857450.840
                        42.600
                  97704481.557 7  23532866.203                    23532870.340
                        44.200
                  84244968.862 6  20227057.844                    20227057.660
                        41.500
 124713958.465 7  97179728.54444  23732279.273                    23732283.633
        43.300          26.400
 126677454.118 6  98709715.63044  24105920.570                    24105924.535
        41.400          26.000
 130639802.971 6 101797260.07343  24859930.086                    24859933.461
        39.200          22.300
 117346703.955 8  91439013.64446  22330336.203                    22330342.059
        49.500          37.100
 114663061.656 7  89347844.46845  21819654.133                    21819656.840
        46.000          30.600
 117895927.968 7  91866977.56045  22434848.664                    22434854.520
        45.400          34.100
 112663349.245 8  87789635.15346  21439122.594                    21439125.980
        52.300          39.300
 110884491.439 8  86403513.01645  21100618.500                    21100621.148
        48.700          34.900
 18  3 11 10 55  9.0000000  0 18G10G20R03R11R12R13R20R21R22R04G27G07
                                G21G30G28G08G15G13
 126878550.185 6  98866447.39444  24144191.797                    24144197.301
        40.400          25.000
 118799184.129 7  92570868.13045  22606750.328                    22606752.770
        46.100          32.400
                  86373925.144 6  20745484.258                    20745487.137
                        41.100
                  97368924.472 6  23427346.328                    23427347.570
                        41.100
                                  20087330.164

                  85035702.173 6  20474299.547                    20474299.512
                        38.100
                  91028458.761 7  21886451.734                    21886455.758
                        42.300
                  86808895.412 7  20857265.250                    20857266.852
                        42.400
                  97701273.438 7  23532094.336                    23532097.820
                        44.000
                  84243974.188 6  20226817.953                    20226818.168
                        41.700
 124717246.639 7  97182290.76844  23732904.281                    23732909.297
        42.800          26.400
 126681334.422 7  98712739.21044  24106660.688                    24106663.234
        43.500          28.200
 130642707.677 6 101799523.47943  24860482.625                    24860486.801
        38.700          22.500
 117349745.307 8  91441383.52646  22330915.234                    22330920.668
        49.300          37.500
 114662074.558 7  89347075.30645  21819466.266                    21819469.332
        45.700          30.500
 117896794.375 7  91867652.67645  22435013.875                    22435019.488
        46.000          34.900
 112662908.241 8  87789291.51546  21439038.797                    21439041.852
        52.500          39.500
 110885809.587 8  86404540.15045  21100868.922                    21100872.090
        48.700          35.100
 18  3 11 10 55 10.0000000  0 18G10G20R03R11R12R13R20R21R22R04G27G07
                                G21G30G28G08G15G13
 126875697.594 6  98864224.58644  24143648.867                    24143654.762
        40.700          25.200
 118801903.693 7  92572987.27445  22607267.938                    22607270.164
        46.900          31.900
                  86376445.429 6  20746089.594                    20746092.328
                        41.300
                  97372635.137 6  23428238.563                    23428240.328
                        40.700
                                  20087791.633

                  85033717.458 6  20473820.859                    20473821.789
                        38.600
                  91031047.849 7  21887075.383                    21887078.105
                        42.400
                  86808131.347 7  20857082.211                    20857083.453
                        42.400
                  97698065.500 7  23531321.281                    23531324.754
                        43.700
                  84242980.223 6  20226580.000                    20226580.156
                        41.600
 124720535.309 7  97184853.36644  23733530.133                    23733535.277
        42.900          27.500
 126685214.937 7  98715762.97244  24107399.797                    24107401.734
        44.400          28.600
 130645612.761 6 101801787.19243  24861035.656                    24861039.035
        38.900          23.200
 117352787.099 8  91443753.75446  22331493.641                    22331499.441
        48.700          38.000
 114661088.071 7  89346306.61845  21819279.219                    21819281.461
        45.600          30.400
 117897661.492 7  91868328.35145  22435179.484                    22435184.648
        46.400          33.800
 112662467.968 8  87788948.44346  21438954.742                    21438958.164
        52.300          39.100
 110887128.448 8  86405567.83745  21101119.805                    21101123.043
        48.200          34.200
 18  3 11 10 55 11.0000000  0 18G10G20R03R11R12R13R20R21R22R04G27G07
                                G21G30G28G08G15G13
 126872845.383 6  98862002.07644  24143105.938                    24143111.512
        40.200          26.600
 118804623.808 7  92575106.85045  22607785.242                    22607787.730
        46.800          32.800
                  86378966.236 6  20746695.750                    20746697.074
                        40.900
                  97376345.991 6  23429130.477                    23429132.563
                        40.500
                                  20088253.117

                  85031733.249 6  20473340.945                    20473344.180
                        38.900
                  91033637.485 7  21887694.969                    21887700.359
                        42.400
                  86807368.013 7  20856899.203                    20856900.164
                        42.400
                  97694857.839 7  23530549.352                    23530552.383
                        43.600
                  84241986.941 6  20226340.992                    20226341.355
                        41.600
 124723824.470 7  97187416.34744  23734155.406                    23734160.570
        42.200          25.300
 126689095.688 7  98718786.94444  24108138.172                    24108140.594
        45.500          29.500
 130648518.175 6 101804051.15643  24861588.164                    24861592.070
        38.300          22.500
 117355829.383 8  91446124.36346  22332072.961                    22332078.543
        49.300          37.400
 114660102.179 7  89345538.38745  21819090.914                    21819094.066
        45.600          30.400
 117898529.367 7  91869004.62145  22435344.305                    22435350.070
        46.400          34.000
 112662028.425 8  87788605.94446  21438871.328                    21438874.395
        52.300          39.200
 110888448.041 8  86406596.09045  21101370.930                    21101374.402
        48.300          34.600
 18  3 11 10 55 12.0000000  0 18G10G20R03R11R12R13R20R21R22R04G27G07
                                G21G30G28G08G15G13
 126869993.562 6  98859779.87844  24142563.523                    24142569.090
        40.500          26.000
 118807344.502 7  92577226.87145  22608303.102                    22608305.379
        46.300          32.400
                  86381487.609 6  20747302.305                    20747302.402
                        41.500
                  97380057.007 6  23430023.406                    23430025.848
                        40.600
                                  20088714.000

                  85029749.666 6  20472864.578                    20472866.391
                        38.900
                  91036227.757 7  21888317.813                    21888323.477
                        42.600
                  86806605.407 7  20856715.047                    20856716.793
                        42.300
                  97691650.409 7  23529776.953                    23529779.414
                        43.000
                  84240994.361 6  20226103.180                    20226103.348
                        41.400
 124727114.074 6  97189979.68044  23734781.805                    23734787.145
        41.800          27.000
 126692976.730 7  98721811.14744  24108875.789                    24108879.637
        45.200          29.100
 130651423.976 6 101806315.41843  24862140.945                    24862144.781
        38.500          22.600
 117358872.145 8  91448495.33746  22332652.070                    22332657.625
        49.600          37.900
 114659116.865 7  89344770.60945  21818903.578                    21818906.367
        45.300          30.500
 117899397.949 7  91869681.44045  22435509.398                    22435515.328
        46.400          34.600
 112661589.582 8  87788263.99046  21438787.797                    21438790.875
        52.500          39.200
 110889768.340 8  86407624.88645  21101622.344                    21101625.508
        48.100          34.100
 18  3 11 10 55 13.0000000  0 18G10G20R03R11R12R13R20R21R22R04G27G07
                                G21G30G28G08G15G13
 126867142.118 6  98857557.98344  24142020.648                    24142026.441
        40.100          26.900
 118810065.742 7  92579347.32245  22608821.203                    22608823.672
        46.200          33.100
                  86384009.504 6  20747907.805                    20747908.648
                        41.300
                  97383768.197 6  23430916.961                    23430918.578
                        40.800
                                  20089176.578

                  85027766.605 6  20472389.922                    20472389.090
                        39.100
                  91038818.546 7  21888942.539                    21888946.461
                        42.600
                  86805843.519 7  20856532.008                    20856533.348
                        42.600
                  97688443.231 7  23529004.891                    23529006.465
                        42.300
                  84240002.423 6  20225864.578                    20225865.297
                        41.500
 124730404.155 6  97192543.37844  23735408.070                    23735412.934
        41.800          26.400
 126696858.012 7  98724835.53844  24109613.188                    24109618.242
        44.600          29.100
 130654330.107 6 101808579.94343  24862694.695                    24862697.727
        38.700          21.800
 117361915.380 8  91450866.69546  22333231.125                    22333236.906
        49.500          37.400
 114658132.132 7  89344003.28445  21818716.055                    21818718.906
        45.300          30.400
 117900267.282 7  91870358.85045  22435674.164                    22435680.371
        46.300          34.300
 112661151.454 8  87787922.59446  21438704.320                    21438707.691
        52.800          39.100
 110891089.340 8  86408654.23345  21101873.703                    21101876.973
        48.200          34.500
 18  3 11 10 55 14.0000000  0 18G10G20R03R11R12R13R20R21R22R04G27G07
                                G21G30G28G08G15G13
 126864291.051 6  98855336.38244  24141478.125                    24141483.859
        39.700          26.000
 118812787.558 7  92581468.21845  22609338.555                    22609341.586
        46.100          32.400
                  86386531.965 6  20748512.359                    20748514.012
                        41.500
                  97387479.510 6  23431810.297                    23431811.340
                        41.000
                                  20089638.609

                  85025784.028 6  20471912.602                    20471911.965
                        38.900
                  91041409.868 7  21889567.055                    21889569.332
                        42.700
                  86805082.396 7  20856349.172                    20856350.984
                        42.200
                  97685236.271 6  23528232.008                    23528234.254
                        41.500
                  84239011.152 6  20225626.430                    20225626.684
                        41.800
 124733694.699 7  97195107.43144  23736034.258                    23736038.996
        42.100          26.100
 126700739.505 7  98727860.07044  24110351.594                    24110356.422
        43.900          27.800
 130657236.577 6 101810844.72943  24863247.602                    24863250.887
        38.300          22.600
 117364959.095 8  91453238.42046  22333809.695                    22333815.703
        49.300          37.500
 114657147.989 7  89343236.42245  21818529.211                    21818531.703
        45.200          30.400
 117901137.319 7  91871036.81245  22435839.438                    22435846.055
        46.400          34.700
 112660714.042 8  87787581.75746  21438621.141                    21438624.047
        52.800          39.500
 110892411.033 8  86409684.12545  21102125.641                    21102128.336
        48.300          34.500
 18  3 11 10 55 15.0000000  0 18G10G20R03R11R12R13R20R21R22R04G27G07
                                G21G30G28G08G15G13
 126861440.337 6  98853115.04144  24140935.477                    24140941.297
        40.000          26.200
 118815509.894 7  92583589.51945  22609857.211                    22609859.660
        45.800          32.400
                  86389054.978 6  20749117.602                    20749120.641
                        41.400
                  97391190.998 6  23432702.453                    23432705.188
                        40.900
                                  20090100.555

                  85023801.892 6  20471431.148                    20471434.676
                        38.400
                  91044001.797 7  21890189.367                    21890192.777
                        42.400
                  86804321.997 7  20856166.492                    20856168.250
                        42.100
                  97682029.497 6  23527459.859                    23527460.480
                        41.200
                  84238020.510 6  20225389.211                    20225389.227
                        41.600
 124736985.696 7  97197671.84944  23736660.008                    23736665.371
        42.300          25.300
 126704621.229 7  98730884.77644  24111090.656                    24111095.266
        44.400          26.400
 130660143.379 6 101813109.74543  24863800.633                    24863803.828
        39.000          22.900
 117368003.220 8  91455610.46546  22334390.148                    22334395.078
        49.600          37.700
 114656164.396 7  89342469.98545  21818341.953                    21818344.586
        45.800          31.000
 117902008.063 7  91871715.31445  22436004.844                    22436011.434
        46.400          34.400
 112660277.301 8  87787241.43546  21438538.297                    21438541.250
        52.800          39.400
 110893733.397 8  86410714.53845  21102377.102                    21102380.004
        48.400          34.900
 18  3 11 10 55 16.0000000  0 18G10G20R03R11R12R13R20R21R22R04G27G07
                                G21G30G28G08G15G13
 126858589.987 6  98850893.99444  24140393.258                    24140399.398
        40.100          27.300
 118818232.767 7  92585711.23345  22610375.156                    22610377.789
        45.700          32.200
                  86391578.556 6  20749723.766                    20749726.836
                        41.200
                  97394902.654 6  23433595.844                    23433598.281
                        40.900
                                  20090563.055

                  85021820.351 6  20470954.352                    20470956.652
                        37.900
                  91046594.260 7  21890813.492                    21890815.426
                        42.400
                  86803562.335 7  20855984.125                    20855985.594
                        42.400
                  97678822.953 6  23526686.977                    23526688.180
                        40.400
                  84237030.508 6  20225151.703                    20225151.906
                        41.400
 124740277.089 7  97200236.57544  23737286.469                    23737291.738
        42.500          27.500
 126708503.161 7  98733909.66144  24111829.703                    24111833.496
        45.400          26.500
 130663050.467 6 101815374.99744  24864353.961                    24864357.016
        39.000          24.600
 117371047.826 8  91457982.88146  22334968.914                    22334974.824
        50.000          37.300
 114655181.377 7  89341704.00144  21818155.023                    21818157.359
        45.800          29.000
 117902879.505 7  91872394.35445  22436170.594                    22436177.793
        46.200          34.200
 112659841.252 8  87786901.65546  21438455.047                    21438458.445
        52.900          39.400
 110895056.475 8  86411745.50945  21102628.883                    21102631.855
        48.300          34.900
 18  3 11 10 55 17.0000000  0 18G10G20R03R11R12R13R20R21R22R04G27G07
                                G21G30G28G08G15G13
 126855740.038 6  98848673.26344  24139851.195                    24139857.164
        39.900          24.700
 118820956.237 7  92587833.41445  22610893.227                    22610896.289
        45.400          32.100
                  86394102.671 6  20750332.516                    20750332.832
                        41.100
                  97398614.485 6  23434488.672                    23434490.461
                        41.000
                                  20091025.516

                  85019839.405 6  20470480.094                    20470479.984
                        37.900
                  91049187.300 6  21891437.266                    21891438.938
                        41.800
                  86802803.427 7  20855801.188                    20855803.016
                        42.300
                  97675616.634 6  23525913.656                    23525915.324
                        40.100
                  84236041.235 6  20224913.805                    20224914.375
                        41.400
 124743569.019 7  97202801.71544  23737913.477                    23737918.164
        42.800          26.800
 126712385.386 7  98736934.79444  24112568.273                    24112571.766
        45.600          26.700
 130665957.915 6 101817640.52544  24864906.375                    24864910.313
        38.300          25.300
 117374092.912 8  91460355.67346  22335548.648                    22335554.211
        49.900          37.900
 114654198.962 7  89340938.48245  21817968.266                    21817970.328
        46.000          30.500
 117903751.703 7  91873073.98545  22436337.500                    22436343.586
        46.800          34.500
 112659405.948 8  87786562.45746  21438372.039                    21438375.578
        53.200          38.900
 110896380.277 8  86412777.04845  21102880.125                    21102883.563
        48.300          34.900
 18  3 11 10 55 18.0000000  0 18G10G20R03R11R12R13R20R21R22R04G27G07
                                G21G30G28G08G15G13
 126852890.472 6  98846452.82344  24139309.273                    24139314.535
        40.400          25.700
 118823680.218 7  92589955.98545  22611411.641                    22611414.363
        45.400          32.200
                  86396627.315 6  20750938.656                    20750939.984
                        40.800
                  97402326.409 6  23435382.633                    23435383.742
                        41.200
                                  20091487.414

                  85017858.892 6  20470003.445                    20470003.043
                        38.200
                  91051780.896 6  21892060.844                    21892062.363
                        41.900
                  86802045.240 7  20855619.852                    20855621.680
                        42.300
                  97672410.525 6  23525141.070                    23525143.074
                        40.300
                  84235052.663 6  20224676.828                    20224676.875
                        41.200
 124746861.409 7  97205367.22844  23738539.586                    23738544.656
        42.800          26.500
 126716267.811 7  98739960.10044  24113306.664                    24113310.488
        44.800          26.700
 130668865.706 6 101819906.33543  24865460.320                    24865463.699
        38.600          22.900
 117377138.460 8  91462728.82946  22336127.727                    22336133.633
        49.800          37.300
 114653217.131 7  89340173.41745  21817780.938                    21817783.438
        46.600          31.100
 117904624.599 7  91873754.16045  22436503.578                    22436509.641
        47.000          34.600
 112658971.358 8  87786223.81646  21438289.492                    21438292.887
        53.100          39.300
 110897704.771 8  86413809.12245  21103132.359                    21103135.469
        48.100          34.400
 18  3 11 10 55 19.0000000  0 18G10G20R03R11R12R13R20R21R22R04G27G07
                                G21G30G28G08G15G13
 126850041.278 6  98844232.68744  24138767.070                    24138772.539
        40.500          26.900
 118826404.767 7  92592079.00545  22611930.180                    22611932.688
        45.300          32.000
                  86399152.511 6  20751544.656                    20751545.945
                        41.000
                  97406038.493 6  23436274.750                    23436276.805
                        41.000
                                  20091950.070

                  85015878.908 6  20469526.344                    20469526.785
                        38.100
                  91054375.118 6  21892683.648                    21892686.293
                        41.500
                  86801287.807 7  20855438.461                    20855439.016
                        42.100
                  97669204.679 6  23524367.828                    23524371.152
                        40.700
                  84234064.777 6  20224439.688                    20224439.801
                        41.100
 124750154.259 7  97207933.08344  23739165.875                    23739171.605
        42.100          25.800
 126720150.480 7  98742985.58544  24114044.891                    24114049.598
        43.600          27.300
 130671773.816 6 101822172.39343  24866014.258                    24866016.977
        38.800          22.800
 117380184.469 8  91465102.33446  22336707.633                    22336713.254
        49.900          37.500
 114652235.876 7  89339408.79845  21817593.711                    21817596.938
        46.300          30.400
 117905498.216 7  91874434.90445  22436670.148                    22436676.039
        47.200          34.900
 112658537.456 8  87785885.70646  21438206.836                    21438210.176
        52.800          39.500
 110899029.951 7  86414841.72645  21103384.195                    21103387.664
        47.900          33.600
 18  3 11 10 55 20.0000000  0 18G10G20R03R11R12R13R20R21R22R04G27G07
                                G21G30G28G08G15G13
 126847192.465 6  98842012.84044  24138224.922                    24138230.379
        41.000          27.900
 118829129.896 7  92594202.48845  22612448.797                    22612451.461
        45.500          31.900
                  86401678.294 6  20752150.188                    20752152.770
                        40.700
                  97409750.798 6  23437168.758                    23437170.465
                        41.000
                                  20092413.320

                  85013899.416 6  20469047.039                    20469049.742
                        38.000
                  91056969.908 6  21893305.883                    21893311.223
                        41.900
                  86800531.109 7  20855256.102                    20855257.395
                        42.000
                  97665999.074 6  23523596.656                    23523599.500
                        41.500
                  84233077.563 6  20224201.945                    20224202.957
                        40.900
 124753447.596 7  97210499.31244  23739792.594                    23739798.434
        42.000          26.000
 126724033.424 7  98746011.24944  24114783.883                    24114788.176
        42.600          29.300
 130674682.304 6 101824438.74644  24866567.984                    24866570.816
        39.000          24.900
 117383230.948 8  91467476.22046  22337287.508                    22337293.133
        49.800          37.800
 114651255.197 7  89338644.63445  21817407.328                    21817410.266
        46.200          30.400
 117906372.545 7  91875116.20445  22436836.375                    22436841.680
        47.500          34.400
 112658104.269 8  87785548.15546  21438124.516                    21438127.688
        52.600          39.400
 110900355.846 8  86415874.88845  21103637.141                    21103639.891
        48.500          34.100
 18  3 11 10 55 21.0000000  0 18G10G20R03R11R12R13R20R21R22R04G27G07
                                G21G30G28G08G15G13
 126844344.061 6  98839793.30744  24137682.820                    24137688.734
        40.700          27.200
 118831855.581 7  92596326.40445  22612967.383                    22612970.184
        46.000          32.100
                  86404204.637 6  20752756.000                    20752759.621
                        40.700
                  97413463.276 6  23438061.953                    23438063.582
                        40.900
                                  20092876.359

                  85011920.498 6  20468571.398                    20468573.133
                        38.400
                  91059565.236 6  21893930.133                    21893934.570
                        41.900
                  86799775.158 7  20855074.109                    20855075.160
                        42.100
                  97662793.730 7  23522824.914                    23522828.117
                        42.100
                  84232091.024 6  20223965.672                    20223965.941
                        41.200
 124756741.377 6  97213065.88644  23740419.250                    23740424.996
        41.800          26.800
 126727916.601 7  98749037.07844  24115523.203                    24115527.375
        43.100          29.400
 130677591.138 6 101826705.38343  24867120.969                    24867124.355
        39.000          23.000
 117386277.932 8  91469850.49346  22337866.852                    22337872.727
        49.500          37.500
 114650275.113 7  89337880.93845  21817220.859                    21817223.715
        46.100          30.400
 117907247.647 7  91875798.10545  22437002.531                    22437008.652
        47.400          34.800
 112657671.805 8  87785211.17246  21438041.852                    21438045.430
        52.800          39.400
 110901682.457 8  86416908.60845  21103889.898                    21103892.605
        48.500          34.400
 18  3 11 10 55 22.0000000  0 18G10G20R03R11R12R13R20R21R22R04G27G07
                                G21G30G28G08G15G13
 126841495.994 6  98837574.02944  24137140.813                    24137146.809
        40.800          27.600
 118834581.789 7  92598450.72545  22613486.320                    22613488.707
        45.900          32.500
                  86406731.517 6  20753364.516                    20753366.266
                        40.600
                  97417175.879 6  23438954.742                    23438956.805
                        40.600
                                  20093339.250

                  85009942.138 6  20468097.313                    20468096.754
                        38.000
                  91062161.104 6  21894555.234                    21894557.941
                        41.900
                  86799019.907 6  20854893.039                    20854893.836
                        41.900
                  97659588.599 7  23522053.063                    23522055.723
                        42.600
                  84231105.142 6  20223727.898                    20223728.984
                        41.100
 124760035.642 6  97215632.84044  23741046.594                    23741052.012
        41.900          26.800
 126731800.016 7  98752063.07345  24116263.352                    24116266.781
        44.100          30.000
 130680500.241 6 101828972.23743  24867675.141                    24867678.035
        39.000          22.200
 117389325.356 8  91472225.10846  22338446.758                    22338452.629
        49.500          37.600
 114649295.619 7  89337117.69744  21817034.539                    21817037.273
        45.800          29.900
 117908123.441 7  91876480.55345  22437169.352                    22437175.656
        47.700          34.200
 112657240.031 8  87784874.72946  21437959.891                    21437963.297
        52.700          39.200
 110903009.768 8  86417942.87445  21104142.734                    21104145.039
        48.800          34.500
 18  3 11 10 55 23.0000000  0 18G10G20R03R11R12R13R20R21R22R04G27G07
                                G21G30G28G08G15G13
 126838648.329 6  98835355.06544  24136599.023                    24136604.801
        41.100          26.100
 118837308.583 7  92600575.50545  22614004.852                    22614007.738
        46.000          31.900
                  86409258.932 6  20753973.641                    20753973.230
                        40.400
                  97420888.593 6  23439848.547                    23439850.141
                        41.100
                                  20093802.070

                  85007964.292 6  20467620.648                    20467621.039
                        38.400
                  91064757.539 6  21895179.070                    21895181.938
                        41.600
                  86798265.409 7  20854711.281                    20854713.012
                        42.300
                  97656383.731 7  23521281.789                    23521285.383
                        42.800
                  84230119.952 6  20223492.023                    20223492.637
                        40.900
 124763330.354 6  97218200.13444  23741674.078                    23741678.867
        41.900          26.900
 126735683.636 7  98755089.23545  24117003.031                    24117006.012
        45.400          30.400
 130683409.733 6 101831239.37043  24868228.156                    24868231.746
        39.000          23.200
 117392373.244 8  91474600.08946  22339026.688                    22339032.629
        49.500          37.900
 114648316.713 7  89336354.91945  21816848.484                    21816851.211
        45.700          30.800
 117908999.969 7  91877163.57345  22437335.680                    22437342.559
        47.000          34.200
 112656808.988 8  87784538.85446  21437877.570                    21437881.281
        52.500          38.900
 110904337.778 8  86418977.68345  21104395.836                    21104397.426
        48.700          34.500
 18  3 11 10 55 24.0000000  0 18G10G20R03R11R12R13R20R21R22R04G27G07
                                G21G30G28G08G15G13
 126835801.040 6  98833136.40044  24136057.563                    24136062.938
        41.000          25.800
 118840035.945 7  92602700.72045  22614523.984                    22614526.543
        46.300          31.900
                  86411786.937 6  20754579.703                    20754580.238
                        40.800
                  97424601.508 6  23440742.313                    23440743.355
                        41.000
                                  20094265.453

                  85005986.931 6  20467142.961                    20467144.680
                        38.000
                  91067354.595 6  21895801.070                    21895806.617
                        41.500
                  86797511.701 7  20854530.195                    20854531.922
                        42.300
                  97653179.062 7  23520509.820                    23520513.211
                        43.200
                  84229135.441 6  20223255.180                    20223256.195
                        40.600
 124766625.550 7  97220767.81444  23742300.906                    23742306.238
        42.500          26.800
 126739567.502 7  98758115.60144  24117742.445                    24117745.430
        46.000          29.300
 130686319.573 6 101833506.77043  24868781.102                    24868785.023
        38.900          22.600
 117395421.628 8  91476975.45046  22339607.117                    22339612.984
        49.500          37.600
 114647338.404 7  89335592.59545  21816662.305                    21816664.977
        45.800          30.800
 117909877.222 7  91877847.15045  22437502.172                    22437508.930
        47.200          33.800
 112656378.670 8  87784203.53746  21437795.813                    21437799.293
        52.500          39.200
 110905666.498 8  86420013.05145  21104648.055                    21104650.395
        49.300          34.400
 18  3 11 10 55 25.0000000  0 18G10G20R03R11R12R13R20R21R22R04G27G07
                                G21G30G28G08G15G13
 126832954.181 6  98830918.06944  24135515.102                    24135521.246
        39.600          26.400
 118842763.853 7  92604826.36145  22615042.930                    22615045.883
        46.300          31.600
                  86414315.514 6  20755185.828                    20755187.809
                        41.100
                  97428314.635 6  23441635.703                    23441637.059
                        40.600
                                  20094728.984

                  85004010.150 6  20466666.727                    20466668.637
                        38.500
                  91069952.245 7  21896425.625                    21896431.031
                        42.100
                  86796758.715 7  20854349.680                    20854350.883
                        42.100
                  97649974.638 7  23519737.719                    23519741.191
                        42.800
                  84228151.646 6  20223019.820                    20223020.051
                        40.500
 124769921.204 7  97223335.85344  23742928.391                    23742933.211
        42.700          25.900
 126743451.614 7  98761142.19144  24118480.563                    24118484.867
        45.600          28.200
 130689229.735 6 101835774.42743  24869335.695                    24869339.180
        39.100          22.800
 117398470.499 8  91479351.19046  22340187.070                    22340192.770
        49.000          37.600
 114646360.675 7  89334830.73245  21816476.117                    21816478.938
        45.800          31.000
 117910755.217 7  91878531.30545  22437669.539                    22437676.691
        46.400          34.000
 112655949.043 8  87783868.76646  21437713.961                    21437717.500
        52.100          39.000
 110906995.938 8  86421048.98445  21104900.859                    21104903.574
        49.000          34.600
 18  3 11 10 55 26.0000000  0 18G10G20R03R11R12R13R20R21R22R04G27G07
                                G21G30G28G08G15G13
 126830107.657 6  98828699.98544  24134974.250                    24134979.902
        40.200          26.200
 118845492.330 7  92606952.44745  22615562.180                    22615564.352
        45.900          31.300
                  86416844.673 6  20755792.383                    20755795.133
                        41.000
                  97432027.889 6  23442529.469                    23442530.410
                        40.200
                                  20095193.070

                  85002033.922 6  20466192.125                    20466192.855
                        38.700
                  91072550.401 6  21897051.719                    21897056.172
                        41.900
                  86796006.459 7  20854169.117                    20854170.016
                        42.500
                  97646770.438 7  23518964.688                    23518968.531
                        42.900
                  84227168.506 6  20222783.328                    20222783.484
                        40.900
 124773217.320 7  97225904.24544  23743555.234                    23743560.477
        42.900          26.900
 126747335.966 7  98764168.99344  24119218.883                    24119223.852
        44.900          25.400
 130692140.246 6 101838042.36643  24869890.047                    24869892.883
        39.700          23.900
 117401519.802 8  91481727.27446  22340767.180                    22340773.344
        49.600          37.100
 114645383.547 7  89334069.33045  21816290.383                    21816292.848
        46.000          31.300
 117911633.905 7  91879215.99745  22437836.383                    22437843.836
        46.600          34.000
 112655520.140 8  87783534.56646  21437632.617                    21437636.016
        51.900          39.200
 110908326.065 8  86422085.45545  21105154.086                    21105157.094
        49.300          34.300
 18  3 11 10 55 27.0000000  0 18G10G20R03R11R12R13R20R21R22R04G27G07
                                G21G30G28G08G15G13
 126827261.512 6  98826482.20344  24134431.766                    24134437.582
        40.500          27.600
 118848221.345 7  92609078.95445  22616081.273                    22616083.809
        46.300          31.200
                  86419374.406 6  20756399.055                    20756402.520
                        41.000
                  97435741.273 6  23443421.102                    23443423.859
                        40.700
                                  20095656.727

                  85000058.191 6  20465716.102                    20465717.477
                        38.600
                  91075149.035 7  21897679.102                    21897681.641
                        42.300
                  86795254.919 7  20853988.945                    20853989.648
                        42.500
                  97643566.476 7  23518194.375                    23518197.480
                        42.600
                  84226186.064 6  20222548.383                    20222547.598
                        41.300
 124776513.898 7  97228473.01444  23744183.055                    23744187.895
        43.000          26.200
 126751220.570 7  98767195.98644  24119956.695                    24119962.395
        43.200          24.400
 130695051.144 6 101840310.60044  24870443.805                    24870446.781
        39.400          24.200
 117404569.573 8  91484103.71846  22341348.063                    22341353.184
        49.900          37.300
 114644406.961 7  89333308.35045  21816104.047                    21816106.988
        46.000          31.500
 117912513.311 7  91879901.23345  22438003.648                    22438010.883
        45.900          34.200
 112655091.930 8  87783200.89846  21437551.258                    21437554.703
        52.100          39.200
 110909656.879 8  86423122.45445  21105407.336                    21105409.953
        49.200          34.700
 18  3 11 10 55 28.0000000  0 18G10G20R03R11R12R13R20R21R22R04G27G07
                                G21G30G28G08G15G13
 126824415.734 6  98824264.71144  24133891.453                    24133896.250
        40.900          26.500
 118850950.886 7  92611205.87245  22616600.969                    22616603.438
        45.800          31.900
                  86421904.638 6  20757008.703                    20757009.945
                        40.700
                  97439454.803 6  23444316.500                    23444317.098
                        40.200
                                  20096120.477

                  84998082.977 6  20465242.141                    20465241.703
                        38.500
                  91077748.315 7  21898302.063                    21898306.223
                        42.200
                  86794504.108 7  20853807.828                    20853809.402
                        42.300
                  97640362.723 7  23517423.625                    23517425.645
                        42.800
                  84225204.222 6  20222311.758                    20222312.422
                        41.400
 124779810.928 7  97231042.13744  23744810.141                    23744815.320
        42.900          25.400
 126755105.441 7  98770223.17444  24120696.977                    24120701.605
        42.600          25.100
 130697962.210 6 101842578.96543  24870997.234                    24871000.820
        39.400          23.300
 117407619.813 8  91486480.52946  22341928.359                    22341933.859
        49.900          37.700
 114643430.982 7  89332547.85045  21815918.648                    21815921.137
        46.200          30.800
 117913393.434 7  91880587.03845  22438171.289                    22438178.125
        46.000          34.400
 112654664.404 8  87782867.77146  21437469.898                    21437472.902
        52.500          39.100
 110910988.399 8  86424160.00545  21105660.523                    21105663.223
        48.800          34.900
 18  3 11 10 55 29.0000000  0 18G10G20R03R11R12R13R20R21R22R04G27G07
                                G21G30G28G08G15G13
 126821570.354 6  98822047.53444  24133348.953                    24133354.910
        40.400          26.200
 118853681.018 7  92613333.24545  22617120.578                    22617122.828
        45.700          31.900
                  86424435.406 6  20757617.352                    20757618.363
                        40.900
                  97443168.497 6  23445208.742                    23445210.379
                        40.200
                                  20096584.711

                  84996108.319 6  20464766.555                    20464766.391
                        38.300
                  91080348.184 7  21898927.797                    21898930.793
                        42.300
                  86793754.065 7  20853627.250                    20853629.082
                        42.200
                  97637159.230 7  23516652.438                    23516654.098
                        42.800
                  84224223.100 6  20222075.813                    20222076.746
                        41.200
 124783108.415 7  97233611.61744  23745437.508                    23745442.961
        42.800          26.400
 126758990.522 7  98773250.49744  24121436.867                    24121440.539
        43.800          24.800
 130700873.746 6 101844847.69243  24871551.539                    24871554.578
        39.100          22.000
 117410670.524 8  91488857.70846  22342508.844                    22342514.551
        49.600          37.100
 114642455.585 7  89331787.79745  21815732.813                    21815735.707
        46.300          30.500
 117914274.295 7  91881273.41245  22438338.906                    22438345.926
        46.100          34.200
 112654237.638 8  87782535.22646  21437388.602                    21437391.934
        52.700          39.200
 110912320.619 8  86425198.10045  21105914.281                    21105917.117
        48.400          34.600
 18  3 11 10 55 30.0000000  0 18G10G20R03R11R12R13R20R21R22R04G27G07
                                G21G30G28G08G15G13
 126818725.312 6  98819830.62744  24132807.430                    24132813.715
        40.100          24.700
 118856411.679 7  92615461.03045  22617640.156                    22617642.770
        46.000          31.700
                  86426966.696 6  20758225.281                    20758226.938
                        40.900
                  97446882.350 6  23446102.211                    23446104.191
                        39.900
                                  20097049.117

                  84994134.103 6  20464288.641                    20464291.230
                        38.300
                  91082948.536 7  21899554.703                    21899556.023
                        42.200
                  86793004.715 7  20853447.297                    20853449.039
                        42.300
                  97633955.905 7  23515880.719                    23515882.598
                        43.000
                  84223242.656 6  20221841.289                    20221840.656
                        41.000
 124786406.397 7  97236181.47044  23746064.680                    23746070.660
        42.800          28.200
 126762875.808 7  98776277.97544  24122176.742                    24122179.320
        45.500          27.400
 130703785.558 6 101847116.63843  24872105.336                    24872108.961
        38.700          22.800
 117413721.669 8  91491235.21846  22343089.375                    22343095.016
        49.800          37.600
 114641480.732 7  89331028.17845  21815547.250                    21815550.473
        46.500          30.900
 117915155.856 7  91881960.33545  22438507.336                    22438514.184
        46.100          34.600
 112653811.552 8  87782203.21146  21437307.641                    21437310.750
        52.900          39.300
 110913653.548 8  86426236.74545  21106167.602                    21106170.438
        48.600          34.500
 18  3 11 10 55 31.0000000  0 18G10G20R03R11R12R13R20R21R22R04G27G07
                                G21G30G28G08G15G13
 126815880.646 6  98817614.01544  24132266.156                    24132272.414
        40.200          24.800
 118859142.898 7  92617589.25245  22618159.828                    22618162.520
        45.900          31.900
                  86429498.545 6  20758833.023                    20758835.535
                        40.600
                  97450596.372 6  23446996.594                    23446997.695
                        39.800
                                  20097512.875

                  84992160.489 6  20463814.320                    20463815.895
                        38.200
                  91085549.445 7  21900181.313                    21900182.480
                        42.200
                  86792256.103 7  20853267.625                    20853269.297
                        42.500
                  97630752.859 7  23515109.039                    23515111.566
                        43.600
                  84222262.929 6  20221605.297                    20221606.383
                        41.400
 124789704.809 7  97238751.65744  23746692.469                    23746698.473
        42.400          25.800
 126766761.324 7  98779305.65444  24122916.148                    24122918.887
        46.200          27.500
 130706697.701 6 101849385.84243  24872659.594                    24872663.176
        38.800          23.300
 117416773.302 8  91493613.11046  22343670.102                    22343676.039
        49.800          37.300
 114640506.460 7  89330269.01345  21815361.781                    21815364.926
        46.400          30.000
 117916038.147 7  91882647.83345  22438675.500                    22438681.898
        46.200          34.400
 112653386.164 8  87781871.73946  21437226.781                    21437229.934
        52.800          39.300
 110914987.146 8  86427275.91345  21106421.258                    21106424.461
        48.500          34.600
 18  3 11 10 55 32.0000000  0 18G10G20R03R11R12R13R20R21R22R04G27G07
                                G21G30G28G08G15G13
 126813036.374 6  98815397.70744  24131724.664                    24131730.984
        40.200          25.600
 118861874.635 7  92619717.87245  22618679.906                    22618682.375
        46.000          32.600
                  86432030.952 6  20759440.906                    20759443.527
                        40.400
                  97454310.517 6  23447889.336                    23447891.434
                        40.000
                                  20097978.063

                  84990187.389 6  20463340.719                    20463340.617
                        38.500
                  91088150.911 7  21900805.289                    21900807.723
                        42.100
                  86791508.229 7  20853087.953                    20853089.801
                        42.300
                  97627550.015 7  23514336.727                    23514340.000
                        43.900
                  84221283.878 6  20221370.508                    20221371.570
                        41.700
 124793003.675 7  97241322.19944  23747320.500                    23747325.813
        42.500          25.900
 126770647.054 7  98782333.52044  24123655.375                    24123658.613
        45.900          27.300
 130709610.171 6 101851655.29744  24873213.719                    24873217.258
        39.200          24.000
 117419825.366 8  91495991.34546  22344250.953                    22344256.551
        49.700          37.300
 114639532.762 7  89329510.29345  21815177.000                    21815179.543
        46.600          30.200
 117916921.125 7  91883335.86145  22438843.578                    22438849.570
        46.200          34.900
 112652961.477 8  87781540.81846  21437146.109                    21437149.227
        52.600          39.200
 110916321.446 8  86428315.62545  21106675.195                    21106678.313
        48.700          34.700
 18  3 11 10 55 33.0000000  0 18G10G20R03R11R12R13R20R21R22R04G27G07
                                G21G30G28G08G15G13
 126810192.452 6  98813181.66444  24131183.438                    24131189.758
        39.900          27.000
 118864606.944 7  92621846.94645  22619199.836                    22619202.395
        45.900          32.000
                  86434563.919 6  20760048.125                    20760051.109
                        40.300
                  97458024.795 6  23448783.195                    23448785.328
                        39.800
                                  20098442.438

                  84988214.759 6  20462865.914                    20462866.332
                        38.200
                  91090753.013 6  21901430.516                    21901432.887
                        41.900
                  86790761.099 7  20852908.813                    20852909.750
                        42.300
                  97624347.398 7  23513565.664                    23513568.793
                        44.000
                  84220305.484 6  20221136.102                    20221135.902
                        41.500
 124796302.987 7  97243893.08444  23747948.867                    23747954.164
        42.600          26.500
 126774532.995 7  98785361.55444  24124393.961                    24124397.707
        44.400          27.200
 130712523.017 6 101853925.04444  24873768.156                    24873771.809
        39.500          24.300
 117422877.879 8  91498369.92446  22344831.961                    22344837.531
        49.600          37.500
 114638559.631 7  89328752.00845  21814991.805                    21814994.633
        46.400          30.700
 117917804.822 7  91884024.45845  22439012.156                    22439017.820
        46.300          34.300
 112652537.499 8  87781210.44246  21437065.102                    21437068.438
        52.500          39.300
 110917656.432 8  86429355.87345  21106929.008                    21106932.461
        48.600          34.000
 18  3 11 10 55 34.0000000  0 18G10G20R03R11R12R13R20R21R22R04G27G07
                                G21G30G28G08G15G13
 126807348.899 6  98810965.90944  24130642.219                    24130648.559
        39.500          26.000
 118867339.773 7  92623976.42045  22619719.602                    22619722.332
        45.800          31.700
                  86437097.429 6  20760657.516                    20760659.199
                        40.400
                  97461739.240 6  23449677.180                    23449679.059
                        39.800
                                  20098907.391

                  84986242.636 6  20462389.258                    20462390.922
                        38.500
                  91093355.623 6  21902055.609                    21902058.598
                        41.700
                  86790014.736 7  20852729.281                    20852730.570
                        42.300
                  97621145.034 7  23512794.016                    23512797.969
                        43.600
                  84219327.708 6  20220900.688                    20220900.957
                        41.300
 124799602.766 7  97246464.33744  23748576.508                    23748581.605
        42.600          26.900
 126778419.237 7  98788389.81344  24125132.195                    24125137.508
        42.400          27.700
 130715436.149 6 101856195.03044  24874323.344                    24874326.203
        38.900          25.300
 117425930.871 8  91500748.87846  22345412.781                    22345418.762
        49.400          37.300
 114637587.081 7  89327994.17145  21814806.297                    21814808.871
        46.100          30.400
 117918689.225 7  91884713.60445  22439179.766                    22439186.375
        46.700          35.200
 112652114.213 8  87780880.60946  21436984.711                    21436987.703
        53.000          39.300
 110918992.116 8  86430396.66445  21107183.438                    21107186.402
        48.700          34.700
 18  3 11 10 55 35.0000000  0 18G10G20R03R11R12R13R20R21R22R04G27G07
                                G21G30G28G08G15G13
 126804505.743 6  98808750.46144  24130102.063                    24130107.531
        39.800          25.300
 118870073.177 7  92626106.34345  22620240.531                    22620242.777
        46.100          32.100
                  86439631.482 6  20761265.414                    20761267.750
                        40.900
                  97465453.851 6  23450571.016                    23450572.742
                        40.200
                                  20099372.156

                  84984271.063 6  20461914.820                    20461916.629
                        38.300
                  91095958.747 6  21902683.789                    21902684.102
                        41.200
                  86789269.052 7  20852550.711                    20852551.629
                        42.300
                  97617942.880 7  23512024.367                    23512027.082
                        43.600
                  84218350.625 6  20220666.063                    20220666.754
                        41.600
 124802903.006 7  97249035.94444  23749203.852                    23749209.813
        43.000          25.700
 126782305.735 7  98791418.23944  24125872.133                    24125877.559
        42.100          27.900
 130718349.604 6 101858465.25243  24874877.172                    24874880.414
        38.400          22.200
 117428984.322 8  91503128.19346  22345994.063                    22345999.410
        49.500          37.500
 114636615.104 7  89327236.77845  21814620.891                    21814624.090
        46.000          31.000
 117919574.340 7  91885403.30745  22439348.094                    22439354.828
        47.000          34.000
 112651691.628 8  87780551.31446  21436904.586                    21436907.512
        53.200          39.200
 110920328.494 8  86431437.99945  21107438.000                    21107440.742
        49.000          34.500
 18  3 11 10 55 36.0000000  0 18G10G20R03R11R12R13R20R21R22R04G27G07
                                G21G30G28G08G15G13
 126801662.953 6  98806535.30144  24129560.359                    24129566.449
        39.600          24.600
 118872807.126 7  92628236.69145  22620760.203                    22620762.738
        46.100          32.100
                  86442166.081 6  20761874.891                    20761876.324
                        41.100
                  97469168.632 6  23451464.633                    23451466.395
                        40.200
                                  20099837.500

                  84982300.027 6  20461440.383                    20461442.168
                        38.400
                  91098562.479 6  21903308.234                    21903311.004
                        41.200
                  86788524.112 7  20852370.914                    20852371.984
                        42.000
                  97614740.992 7  23511252.117                    23511255.371
                        44.000
                  84217374.228 6  20220431.219                    20220432.461
                        41.500
 124806203.689 7  97251607.90644  23749832.359                    23749838.160
        43.300          26.000
 126786192.418 7  98794446.77244  24126613.117                    24126616.887
        43.500          28.300
 130721263.463 6 101860735.80143  24875432.352                    24875434.660
        38.300          22.300
 117432038.246 8  91505507.87746  22346574.430                    22346580.668
        49.500          37.400
 114635643.722 7  89326479.86244  21814436.680                    21814439.484
        45.500          29.800
 117920460.208 7  91886093.59845  22439517.000                    22439523.258
        47.200          34.600
 112651269.794 8  87780222.61246  21436823.984                    21436827.207
        53.000          39.300
 110921665.602 8  86432479.90845  21107692.500                    21107695.102
        48.900          34.700
