     2.11           OBSERVATION DATA    M (MIXED)           RINEX VERSION / TYPE
teqc  2018Mar15                         20180319 14:17:32UTCPGM / RUN BY / DATE
Linux 2.6.32-573.12.1.x86_64|x86_64|gcc -static|Linux 64|=+ COMMENT
END OF STATIC MODE OBSERVATION                              COMMENT
BIT 2 OF LLI FLAGS DATA COLLECTED UNDER A/S CONDITION       COMMENT
-Unknown-                                                   MARKER NAME
4625                                                        MARKER NUMBER
-Unknown-           -Unknown-                               OBSERVER / AGENCY
5127468778          TRIMBLE             4.63                REC # / TYPE / VERS
47477114                            NONE                    ANT # / TYPE
 -3298977.3383        0.0000  5440395.6774                  APPROX POSITION XYZ
        0.0000        0.0000        0.0000                  ANTENNA: DELTA H/E/N
     1     1                                                WAVELENGTH FACT L1/2
     7    L1    L2    C1    P1    P2    S1    S2            # / TYPES OF OBSERV
    18                                                      LEAP SECONDS
 SNR is mapped to RINEX snr flag value [0-9]                COMMENT
  L1 & L2: min(max(int(snr_dBHz/6), 0), 9)                  COMMENT
  2018     3    11    12     7    4.0000000     GPS         TIME OF FIRST OBS
                                                            END OF HEADER
 18  3 11 12  7  4.0000000  0 16R05R13G08R04G17R14R21R12R22G28G11G01
                                G10G24G15G13
                  85848593.271 5  20648257.406                    20648258.434
                        35.200
                  80337889.675 6  19343195.227                    19343195.801
                        40.200
 125310289.067 6  97644435.84344  23845762.703                    23845769.148
        40.100          26.200
                  84777104.227 7  20354822.141                    20354823.023
                        42.600
 127168757.712 7  99092572.74444  24199415.602                    24199419.063
        45.700          26.700
                  86435113.034 7  20847866.961                    20847869.852
                        42.200
                  88640742.656 7  21297396.805                    21297400.184
                        42.300
                                  22688612.094

                  85739720.617 7  20651064.250                    20651066.238
                        42.700
 113684428.649 7  88585277.76845  21633428.102                    21633430.539
        46.600          35.400
 119489822.520 7  93108963.97544  22738158.320                    22738160.574
        45.700          28.600
 124910557.818 7  97332919.15944  23769689.492                    23769695.391
        43.400          26.200
 116948569.606 7  91128773.28945  22254573.609                    22254579.242
        45.300          33.900
 116934267.893 7  91117632.88045  22251851.516                    22251857.129
        46.400          35.900
 115003076.029 8  89612796.65546  21884357.828                    21884361.168
        48.000          36.600
 119991678.233 7  93500028.22544  22833656.977                    22833659.695
        43.100          26.700
 18  3 11 12  7  5.0000000  0 16R05R13G08R04G17R14R21R12R22G28G11G01
                                G10G24G15G13
                  85847315.706 5  20647950.234                    20647950.770
                        35.000
                  80338642.090 6  19343375.813                    19343376.742
                        40.300
 125313681.348 6  97647079.18844  23846408.016                    23846414.922
        40.800          25.600
                  84779152.458 7  20355314.547                    20355315.066
                        42.400
 127165724.572 7  99090209.25744  24198838.742                    24198842.254
        46.000          27.800
                  86432762.555 7  20847300.172                    20847302.316
                        42.000
                  88643090.670 6  21297961.211                    21297963.816
                        41.600
                                  22689487.336

                  85738561.881 7  20650785.977                    20650787.605
                        42.600
 113685997.955 7  88586500.60045  21633726.297                    21633728.750
        46.400          35.100
 119488635.536 7  93108039.03944  22737932.000                    22737934.789
        45.000          29.400
 124907875.488 7  97330829.02444  23769178.352                    23769184.543
        43.600          26.800
 116948115.164 7  91128419.17945  22254487.133                    22254492.559
        45.100          34.400
 116931739.989 7  91115663.08646  22251370.797                    22251376.363
        46.800          36.200
 115005564.617 8  89614735.81446  21884831.516                    21884834.492
        48.100          36.300
 119995396.973 7  93502925.94844  22834364.633                    22834367.504
        43.200          26.200
 18  3 11 12  7  6.0000000  0 16R05R13G08R04G17R14R21R12R22G28G11G01
                                G10G24G15G13
                  85846038.788 5  20647642.664                    20647643.914
                        34.600
                  80339395.147 6  19343557.867                    19343558.008
                        40.200
 125317074.009 6  97649722.82844  23847054.203                    23847060.555
        41.000          26.100
                  84781201.324 7  20355806.594                    20355806.727
                        42.600
 127162691.695 7  99087845.96944  24198261.266                    24198264.879
        45.400          26.500
                  86430412.478 6  20846733.000                    20846735.703
                        41.700
                  88645439.262 6  21298526.734                    21298527.570
                        41.300
                                  22690363.367

                  85737403.822 7  20650507.297                    20650508.773
                        42.100
 113687567.794 7  88587723.85345  21634025.344                    21634027.941
        46.800          34.600
 119487449.208 7  93107114.63644  22737704.875                    22737709.008
        44.500          29.000
 124905193.567 7  97328739.20944  23768668.438                    23768674.496
        43.800          26.500
 116947661.387 7  91128065.58445  22254400.586                    22254406.766
        45.100          34.000
 116929212.508 7  91113693.61645  22250889.883                    22250895.816
        46.400          35.900
 115008053.740 8  89616675.39446  21885305.445                    21885308.316
        48.800          36.600
 119999116.031 7  93505823.93244  22835072.672                    22835075.320
        43.700          24.700
 18  3 11 12  7  7.0000000  0 16R05R13G08R04G17R14R21R12R22G28G11G01
                                G10G24G15G13
                  85844762.512 5  20647336.242                    20647337.473
                        34.800
                  80340148.911 6  19343738.867                    19343739.816
                        40.400
 125320467.090 6  97652366.78344  23847699.828                    23847705.984
        41.400          25.000
                  84783250.845 7  20356297.945                    20356298.574
                        42.800
 127159659.073 7  99085482.88244  24197683.820                    24197687.738
        45.200          25.600
                  86428062.869 6  20846165.867                    20846168.508
                        41.600
                  88647788.443 6  21299091.492                    21299091.453
                        41.600
                                  22691235.008

                  85736246.472 7  20650228.086                    20650230.074
                        42.300
 113689138.188 7  88588947.52745  21634323.977                    21634326.395
        46.600          35.000
 119486263.568 7  93106190.76544  22737478.844                    22737483.477
        43.800          28.400
 124902512.143 7  97326649.77844  23768158.063                    23768164.188
        43.900          26.500
 116947208.341 7  91127712.56345  22254314.758                    22254320.145
        45.700          34.000
 116926685.489 7  91111724.51446  22250408.773                    22250414.605
        46.200          36.500
 115010543.489 7  89618615.46646  21885778.391                    21885782.168
        47.700          36.400
 120002835.514 7  93508722.25544  22835780.125                    22835782.250
        44.200          24.800
 18  3 11 12  7  8.0000000  0 16R05R13G08R04G17R14R21R12R22G28G11G01
                                G10G24G15G13
                  85843486.920 5  20647029.250                    20647030.254
                        35.100
                  80340903.374 6  19343920.227                    19343920.805
                        40.200
 125323860.623 6  97655011.09444  23848345.328                    23848352.012
        41.600          25.500
                  84785301.029 7  20356790.891                    20356791.223
                        42.400
 127156626.717 7  99083119.99944  24197106.914                    24197110.789
        44.600          26.000
                  86425713.709 6  20845600.594                    20845602.305
                        41.900
                  88650138.236 7  21299656.234                    21299656.359
                        42.200
                                  22692112.617

                  85735089.829 7  20649949.406                    20649951.367
                        42.400
 113690709.183 7  88590171.68445  21634623.102                    21634625.633
        47.000          35.400
 119485078.660 7  93105267.47344  22737253.938                    22737257.797
        43.900          29.000
 124899831.161 7  97324560.68944  23767648.297                    23767654.234
        43.900          26.900
 116946755.995 7  91127360.07745  22254229.102                    22254234.313
        45.600          34.000
 116924158.939 7  91109755.77446  22249927.172                    22249933.988
        46.000          36.300
 115013033.826 8  89620555.98146  21886253.102                    21886256.016
        48.500          36.900
 120006555.378 7  93511620.86744  22836488.477                    22836489.996
        45.100          25.600
 18  3 11 12  7  9.0000000  0 16R05R13G08R04G17R14R21R12R22G28G11G01
                                G10G24G15G13
                  85842211.954 5  20646722.016                    20646723.996
                        34.400
                  80341658.485 6  19344101.742                    19344102.941
                        40.200
 125327254.536 6  97657655.70244  23848991.484                    23848997.535
        41.400          27.000
                  84787351.854 7  20357283.133                    20357283.871
                        42.400
 127153594.607 7  99080757.32044  24196529.695                    24196533.406
        44.200          25.400
                  86423364.973 7  20845033.789                    20845035.414
                        42.100
                  88652488.662 7  21300220.484                    21300220.875
                        42.400
                                  22692986.930

                  85733933.894 7  20649670.992                    20649672.902
                        42.100
 113692280.717 7  88591396.25345  21634921.828                    21634924.531
        46.700          35.300
 119483894.451 7  93104344.73344  22737029.953                    22737032.563
        44.300          28.900
 124897150.623 7  97322471.95544  23767136.836                    23767144.176
        43.200          26.200
 116946304.353 7  91127008.14645  22254142.461                    22254148.512
        45.300          34.400
 116921632.833 7  91107787.38246  22249447.180                    22249452.973
        46.100          36.000
 115015524.723 8  89622496.94446  21886727.313                    21886730.074
        48.400          36.600
 120010275.622 7  93514519.76544  22837196.234                    22837197.625
        45.500          26.400
 18  3 11 12  7 10.0000000  0 16R05R13G08R04G17R14R21R12R22G28G11G01
                                G10G24G15G13
                  85840937.682 5  20646415.414                    20646417.309
                        34.900
                  80342414.297 6  19344284.375                    19344284.906
                        39.900
 125330648.873 6  97660300.64944  23849637.555                    23849643.266
        41.300          27.200
                  84789403.269 7  20357775.750                    20357776.316
                        42.400
 127150562.794 7  99078394.87544  24195952.367                    24195956.250
        44.100          25.600
                  86421016.639 6  20844467.383                    20844469.305
                        41.800
                  88654839.678 7  21300787.094                    21300786.574
                        42.700
                                  22693858.844

                  85732778.637 7  20649393.367                    20649394.027
                        42.100
 113693852.794 7  88592621.24545  21635221.328                    21635223.508
        46.700          35.000
 119482710.959 7  93103422.54444  22736804.813                    22736806.672
        44.600          28.100
 124894470.539 7  97320383.57844  23766627.344                    23766634.371
        43.300          27.500
 116945853.417 7  91126656.76045  22254056.492                    22254062.523
        45.200          34.000
 116919107.202 7  91105819.35945  22248966.484                    22248972.508
        46.300          35.800
 115018016.229 7  89624438.39045  21887199.891                    21887204.617
        47.200          35.700
 120013996.236 7  93517418.95644  22837904.148                    22837905.258
        46.100          27.200
 18  3 11 12  7 11.0000000  0 16R05R13G08R04G17R14R21R12R22G28G11G01
                                G10G24G15G13
                  85839664.005 5  20646108.656                    20646110.918
                        35.200
                  80343170.744 6  19344467.406                    19344467.137
                        40.000
 125334043.567 6  97662945.86744  23850283.867                    23850289.629
        41.700          28.900
                  84791455.315 7  20358268.391                    20358268.934
                        42.400
 127147531.180 7  99076032.58344  24195375.195                    24195379.738
        43.700          24.300
                  86418668.715 6  20843901.414                    20843903.145
                        41.900
                  88657191.295 7  21301351.789                    21301351.887
                        42.400
                                  22694734.906

                  85731624.058 7  20649114.711                    20649116.457
                        42.300
 113695425.436 7  88593846.68245  21635520.695                    21635523.070
        46.600          35.100
 119481528.146 7  93102500.86644  22736580.055                    22736582.313
        45.100          28.500
 124891790.910 7  97318295.56344  23766117.633                    23766124.789
        42.700          27.200
 116945403.122 7  91126305.88745  22253970.406                    22253977.074
        45.400          34.000
 116916581.993 7  91103851.66445  22248486.211                    22248491.773
        45.900          35.800
 115020508.317 8  89626380.26946  21887675.359                    21887678.082
        48.400          36.500
 120017717.218 7  93520318.43744  22838612.563                    22838613.531
        46.300          28.000
 18  3 11 12  7 12.0000000  0 16R05R13G08R04G17R14R21R12R22G28G11G01
                                G10G24G15G13
                  85838391.065 5  20645803.305                    20645804.508
                        35.100
                  80343927.919 6  19344649.453                    19344649.711
                        40.600
 125337438.721 6  97665591.42644  23850929.258                    23850935.715
        41.700          25.700
                  84793508.033 7  20358760.617                    20358761.457
                        42.100
 127144499.912 7  99073670.55844  24194798.938                    24194802.695
        43.700          24.200
                  86416321.252 7  20843334.688                    20843336.293
                        42.100
                  88659543.509 7  21301916.680                    21301917.672
                        42.000
                                  22695610.977

                  85730470.216 7  20648836.984                    20648838.840
                        42.400
 113696998.668 7  88595072.57745  21635819.984                    21635822.734
        46.600          35.500
 119480346.069 7  93101579.74644  22736354.859                    22736357.227
        44.700          27.400
 124889111.757 7  97316207.91544  23765607.680                    23765615.012
        42.300          27.100
 116944953.627 7  91125955.63545  22253885.008                    22253891.191
        44.700          34.300
 116914057.317 7  91101884.38345  22248005.297                    22248011.582
        46.100          35.800
 115023000.973 8  89628322.58846  21888150.523                    21888152.770
        49.200          36.500
 120021438.630 7  93523218.23844  22839320.594                    22839321.301
        47.100          28.300
 18  3 11 12  7 13.0000000  0 16R05R13G08R04G17R14R21R12R22G28G11G01
                                G10G24G15G13
                  85837118.745 5  20645498.141                    20645498.879
                        35.200
                  80344685.741 6  19344831.664                    19344831.969
                        40.500
 125340834.258 6  97668237.30044  23851575.688                    23851582.031
        41.900          28.000
                  84795561.369 7  20359254.336                    20359254.762
                        42.300
 127141468.816 7  99071308.67044  24194221.844                    24194225.980
        43.900          25.200
                  86413974.192 6  20842768.641                    20842771.258
                        41.900
                  88661896.298 6  21302481.773                    21302482.469
                        41.700
                                  22696485.398

                  85729317.037 7  20648559.266                    20648560.820
                        42.400
 113698572.413 7  88596298.87345  21636119.477                    21636121.938
        46.400          35.200
 119479164.639 7  93100659.13444  22736129.563                    22736132.574
        44.300          28.000
 124886433.037 6  97314120.60444  23765097.555                    23765105.715
        41.900          27.300
 116944504.763 7  91125605.87145  22253799.375                    22253805.531
        44.600          34.100
 116911533.027 7  91099917.40446  22247525.453                    22247531.348
        46.300          36.200
 115025494.208 8  89630265.37646  21888623.195                    21888627.504
        48.700          36.200
 120025160.367 7  93526118.29344  22840028.555                    22840030.105
        47.200          28.900
 18  3 11 12  7 14.0000000  0 16R05R13G08R04G17R14R21R12R22G28G11G01
                                G10G24G15G13
                  85835847.080 5  20645192.156                    20645192.813
                        34.700
                  80345444.260 6  19345014.336                    19345014.789
                        40.100
 125344230.227 7  97670883.51044  23852221.813                    23852227.891
        42.200          27.300
                  84797615.376 7  20359748.266                    20359747.918
                        42.200
 127138438.033 7  99068947.03144  24193645.125                    24193648.953
        44.300          25.600
                  86411627.580 6  20842202.789                    20842205.117
                        41.600
                  88664249.719 6  21303046.328                    21303047.676
                        41.700
                                  22697358.070

                  85728164.604 7  20648281.680                    20648283.148
                        42.400
 113700146.746 7  88597525.62945  21636419.055                    21636421.121
        46.800          35.100
 119477983.918 7  93099739.08844  22735904.484                    22735907.770
        44.200          27.800
 124883754.782 6  97312033.65744  23764587.688                    23764595.965
        41.500          27.400
 116944056.642 7  91125256.68845  22253714.313                    22253720.418
        45.100          34.900
 116909009.251 7  91097950.82745  22247045.273                    22247050.801
        46.800          35.900
 115027988.056 8  89632208.63346  21889098.539                    21889102.047
        49.100          36.000
 120028882.528 7  93529018.67444  22840737.070                    22840738.238
        47.000          29.300
 18  3 11 12  7 15.0000000  0 16R05R13G08R04G17R14R21R12R22G28G11G01
                                G10G24G15G13
                  85834576.033 5  20644887.258                    20644886.859
                        34.800
                  80346203.420 6  19345196.695                    19345197.609
                        39.800
 125347626.586 6  97673530.02544  23852868.156                    23852874.492
        41.900          27.900
                  84799669.993 7  20360240.672                    20360240.605
                        42.400
 127135407.482 7  99066585.56444  24193068.023                    24193072.539
        44.400          26.700
                  86409281.385 6  20841636.008                    20841639.191
                        41.700
                  88666603.750 6  21303610.398                    21303612.852
                        41.900
                                  22698236.820

                  85727012.841 7  20648003.938                    20648005.520
                        42.200
 113701721.617 7  88598752.79845  21636718.633                    21636721.148
        46.700          35.200
 119476803.886 7  93098819.59044  22735680.055                    22735683.332
        44.300          28.200
 124881076.945 6  97309947.04744  23764078.219                    23764085.977
        40.700          26.200
 116943609.185 7  91124908.02645  22253629.875                    22253635.219
        45.900          34.800
 116906485.873 7  91095984.56045  22246564.516                    22246570.578
        46.500          35.500
 115030482.462 8  89634152.32346  21889573.758                    21889576.281
        49.900          36.600
 120032605.027 7  93531919.32445  22841445.305                    22841447.270
        46.800          31.100
 18  3 11 12  7 16.0000000  0 16R05R13G08R04G17R14R21R12R22G28G11G01
                                G10G24G15G13
                  85833305.680 5  20644580.445                    20644581.465
                        35.000
                  80346963.283 6  19345379.984                    19345380.332
                        40.200
 125351023.386 6  97676176.88044  23853514.453                    23853520.535
        41.700          27.100
                  84801725.274 7  20360734.133                    20360734.402
                        42.400
 127132377.246 7  99064224.34744  24192491.938                    24192495.820
        44.200          26.100
                  86406935.613 6  20841070.891                    20841073.262
                        41.700
                  88668958.424 7  21304175.727                    21304178.430
                        42.100
                                  22699109.945

                  85725861.831 7  20647726.977                    20647728.727
                        42.100
 113703297.097 7  88599980.44745  21637018.500                    21637021.082
        47.400          35.000
 119475624.599 7  93097900.67344  22735456.586                    22735458.898
        44.100          28.100
 124878399.603 6  97307860.82244  23763568.992                    23763576.547
        40.900          25.600
 116943162.494 7  91124559.95245  22253545.008                    22253549.969
        46.000          34.700
 116903963.016 7  91094018.69446  22246084.125                    22246091.207
        46.400          36.200
 115032977.477 8  89636096.49546  21890047.563                    21890051.438
        49.100          36.000
 120036327.944 7  93534820.30145  22842153.773                    22842156.301
        46.400          30.300
 18  3 11 12  7 17.0000000  0 16R05R13G08R04G17R14R21R12R22G28G11G01
                                G10G24G15G13
                  85832035.959 5  20644274.102                    20644275.801
                        35.200
                  80347723.872 6  19345562.594                    19345563.590
                        40.400
 125354420.658 6  97678824.09244  23854161.133                    23854167.020
        41.700          27.100
                  84803781.210 7  20361227.508                    20361227.906
                        42.400
 127129347.306 7  99061863.36444  24191915.453                    24191919.238
        45.000          27.200
                  86404590.313 6  20840505.852                    20840507.699
                        41.600
                  88671313.720 7  21304742.305                    21304744.723
                        42.300
                                  22699983.281

                  85724711.543 7  20647450.313                    20647451.488
                        42.300
 113704873.167 7  88601208.54845  21637318.641                    21637320.906
        46.800          35.300
 119474446.062 7  93096982.33344  22735231.992                    22735234.387
        43.400          28.300
 124875722.745 6  97305774.97644  23763059.938                    23763067.926
        40.900          26.700
 116942716.526 7  91124212.44645  22253459.813                    22253465.500
        46.000          34.500
 116901440.641 7  91092053.20545  22245605.219                    22245611.039
        45.900          35.700
 115035473.148 8  89638041.18245  21890522.742                    21890526.293
        48.200          35.800
 120040051.290 7  93537721.61745  22842862.031                    22842864.980
        46.100          30.800
 18  3 11 12  7 18.0000000  0 16R05R13G08R04G17R14R21R12R22G28G11G01
                                G10G24G15G13
                  85830766.939 5  20643968.977                    20643970.773
                        34.800
                  80348485.153 6  19345746.180                    19345746.625
                        40.000
 125357818.334 6  97681471.62044  23854806.984                    23854813.387
        41.600          26.700
                  84805837.803 7  20361721.266                    20361721.902
                        42.500
 127126317.641 7  99059502.59844  24191338.961                    24191342.570
        45.200          27.300
                  86402245.465 6  20839940.031                    20839941.918
                        41.700
                  88673669.579 7  21305309.914                    21305310.973
                        42.100
                                  22700861.617

                  85723561.971 7  20647173.164                    20647174.707
                        42.200
 113706449.811 7  88602437.10045  21637618.563                    21637620.770
        46.900          35.200
 119473268.220 7  93096064.52444  22735007.961                    22735010.387
        43.500          27.500
 124873046.387 6  97303689.52244  23762550.547                    23762558.234
        40.600          25.600
 116942271.318 7  91123865.52645  22253374.922                    22253380.961
        46.200          34.100
 116898918.764 7  91090088.11145  22245124.828                    22245131.121
        46.300          35.400
 115037969.372 7  89639986.29645  21890997.906                    21891001.477
        47.900          35.800
 120043775.034 7  93540623.24144  22843570.102                    22843573.672
        45.400          29.700
 18  3 11 12  7 19.0000000  0 16R05R13G08R04G17R14R21R12R22G28G11G01
                                G10G24G15G13
                  85829498.598 5  20643664.133                    20643665.926
                        35.300
                  80349247.075 6  19345929.594                    19345930.363
                        40.300
 125361216.437 6  97684119.49544  23855453.602                    23855460.391
        41.300          27.000
                  84807895.020 7  20362215.797                    20362216.328
                        42.600
 127123288.231 7  99057142.02044  24190762.734                    24190766.496
        45.800          27.400
                  86399901.058 6  20839374.242                    20839376.660
                        41.900
                  88676026.032 7  21305876.492                    21305876.898
                        42.400
                                  22701735.477

                  85722413.076 7  20646896.641                    20646897.969
                        42.400
 113708026.991 7  88603666.07045  21637918.695                    21637921.457
        46.600          34.800
 119472091.051 7  93095147.24744  22734784.000                    22734786.168
        44.100          29.100
 124870370.479 6  97301604.40544  23762041.398                    23762049.035
        41.000          24.700
 116941826.759 7  91123519.10645  22253289.883                    22253296.363
        46.200          34.200
 116896397.331 7  91088123.35845  22244644.750                    22244651.129
        46.000          35.800
 115040466.223 7  89641931.90045  21891471.391                    21891476.477
        46.900          35.800
 120047499.143 7  93543525.13744  22844278.703                    22844282.664
        44.500          29.800
 18  3 11 12  7 20.0000000  0 16R05R13G08R04G17R14R21R12R22G28G11G01
                                G10G24G15G13
                  85828230.948 5  20643360.164                    20643360.801
                        34.700
                  80350009.711 6  19346112.914                    19346113.668
                        40.000
 125364614.943 6  97686767.68044  23856100.914                    23856106.969
        40.600          24.900
                  84809952.849 7  20362709.820                    20362710.160
                        42.500
 127120259.137 7  99054781.68244  24190186.406                    24190189.980
        45.900          27.100
                  86397557.098 6  20838808.594                    20838811.066
                        41.700
                  88678383.171 6  21306443.117                    21306444.391
                        41.900
                                  22702609.539

                  85721264.897 7  20646619.508                    20646620.891
                        42.100
 113709604.776 7  88604895.51845  21638218.578                    21638221.180
        46.700          35.100
 119470914.632 7  93094230.57044  22734560.898                    22734562.285
        45.000          28.700
 124867695.060 6  97299519.64644  23761532.711                    23761539.602
        41.600          26.500
 116941382.962 7  91123173.27845  22253205.359                    22253211.789
        45.500          34.400
 116893876.388 7  91086158.98846  22244164.977                    22244171.293
        46.600          36.500
 115042963.697 8  89643877.96545  21891948.609                    21891951.289
        48.600          35.800
 120051223.639 7  93546427.34344  22844986.570                    22844991.512
        44.100          29.400
 18  3 11 12  7 21.0000000  0 16R05R13G08R04G17R14R21R12R22G28G11G01
                                G10G24G15G13
                  85826963.925 5  20643054.867                    20643056.430
                        35.100
                  80350772.996 6  19346296.844                    19346297.348
                        39.900
 125368013.874 6  97689416.19544  23856746.820                    23856753.684
        40.300          24.200
                  84812011.311 7  20363203.930                    20363203.641
                        42.700
 127117230.275 7  99052421.53744  24189610.359                    24189614.117
        46.400          28.000
                  86395213.539 7  20838243.258                    20838245.781
                        42.100
                  88680740.907 6  21307008.133                    21307010.090
                        41.800
                                  22703486.594

                  85720117.411 7  20646343.641                    20646344.734
                        42.100
 113711183.109 7  88606125.38945  21638519.039                    21638521.816
        46.400          35.200
 119469738.924 7  93093314.43144  22734337.883                    22734338.660
        45.300          28.100
 124865020.057 7  97297435.22944  23761023.070                    23761030.266
        42.500          25.300
 116940939.813 7  91122827.95645  22253119.977                    22253127.305
        44.500          34.200
 116891355.910 7  91084194.98045  22243685.758                    22243691.750
        46.100          35.900
 115045461.672 8  89645824.42046  21892424.859                    21892427.066
        49.700          36.300
 120054948.535 7  93549329.84944  22845695.227                    22845700.750
        43.800          29.600
 18  3 11 12  7 22.0000000  0 16R05R13G08R04G17R14R21R12R22G28G11G01
                                G10G24G15G13
                  85825697.587 5  20642751.156                    20642751.520
                        35.700
                  80351536.968 6  19346481.375                    19346481.215
                        39.900
 125371413.218 6  97692065.02444  23857394.070                    23857400.902
        40.600          26.700
                  84814070.436 7  20363698.148                    20363698.332
                        42.400
 127114201.705 7  99050061.61244  24189033.891                    24189037.520
        46.300          28.200
                  86392870.398 6  20837678.172                    20837680.508
                        41.800
                  88683099.252 6  21307575.711                    21307576.488
                        41.600
                                  22704363.250

                  85718970.641 7  20646067.305                    20646068.512
                        42.100
 113712761.996 7  88607355.69245  21638819.602                    21638822.078
        46.900          35.200
 119468563.938 7  93092398.83744  22734113.781                    22734114.863
        45.600          27.700
 124862345.539 7  97295351.19544  23760515.266                    23760521.754
        43.100          26.000
 116940497.395 7  91122483.21845  22253036.063                    22253043.582
        43.700          34.400
 116888835.898 7  91082231.33446  22243206.281                    22243211.836
        46.300          36.200
 115047960.300 7  89647771.42245  21892898.070                    21892902.820
        47.500          35.900
 120058673.841 7  93552232.67844  22846402.938                    22846409.785
        42.700          28.700
 18  3 11 12  7 23.0000000  0 16R05R13G08R04G17R14R21R12R22G28G11G01
                                G10G24G15G13
                  85824431.890 5  20642446.492                    20642447.160
                        35.300
                  80352301.609 6  19346664.766                    19346665.512
                        40.100
 125374812.934 6  97694714.14044  23858041.203                    23858047.949
        40.600          25.800
                  84816130.238 7  20364192.430                    20364193.109
                        42.100
 127111173.378 7  99047701.87044  24188457.508                    24188461.105
        46.600          27.900
                  86390527.683 6  20837113.492                    20837115.500
                        41.800
                  88685458.171 6  21308142.031                    21308142.840
                        41.900
                                  22705234.898

                  85717824.555 7  20645791.594                    20645792.605
                        42.200
 113714341.457 7  88608586.43845  21639120.352                    21639122.582
        47.200          35.100
 119467389.633 7  93091483.77544  22733889.477                    22733891.441
        44.500          28.100
 124859671.479 7  97293267.50544  23760006.148                    23760012.570
        43.600          25.100
 116940055.659 7  91122139.02045  22252952.273                    22252959.859
        43.100          34.700
 116886316.358 7  91080268.05645  22242726.680                    22242732.598
        46.700          35.900
 115050459.550 8  89649718.89045  21893374.641                    21893377.406
        48.800          35.500
 120062399.499 6  93555135.77244  22847112.234                    22847118.711
        41.700          27.400
 18  3 11 12  7 24.0000000  0 16R05R13G08R04G17R14R21R12R22G28G11G01
                                G10G24G15G13
                  85823166.855 5  20642141.039                    20642143.301
                        35.100
                  80353066.949 6  19346849.570                    19346849.762
                        40.200
 125378213.079 6  97697363.59144  23858688.445                    23858694.941
        40.600          25.300
                  84818190.697 7  20364687.219                    20364687.770
                        42.400
 127108145.348 7  99045342.36744  24187881.000                    24187885.266
        46.400          27.700
                  86388185.414 6  20836548.063                    20836550.719
                        41.800
                  88687817.710 7  21308710.031                    21308709.820
                        42.100
                                  22706112.938

                  85716679.207 7  20645515.367                    20645516.711
                        42.400
 113715921.497 7  88609817.64345  21639421.047                    21639423.629
        47.200          35.000
 119466216.020 7  93090569.26544  22733664.836                    22733668.363
        43.400          28.600
 124856997.899 7  97291184.18744  23759497.711                    23759503.867
        43.900          25.300
 116939614.674 7  91121795.42045  22252868.977                    22252875.172
        42.500          34.000
 116883797.308 7  91078305.16146  22242246.852                    22242253.148
        46.700          36.600
 115052959.307 8  89651666.73846  21893852.578                    21893853.176
        51.100          36.500
 120066125.574 6  93558039.18844  22847822.047                    22847827.867
        41.000          27.900
 18  3 11 12  7 25.0000000  0 16R05R13G08R04G17R14R21R12R22G28G11G01
                                G10G24G15G13
                  85821902.463 5  20641836.500                    20641838.344
                        35.000
                  80353832.956 6  19347034.109                    19347034.836
                        40.400
 125381613.679 6  97700013.40344  23859335.508                    23859342.051
        40.200          26.200
                  84820251.768 7  20365182.500                    20365182.691
                        42.000
 127105117.578 7  99042983.06744  24187305.031                    24187308.910
        46.500          27.500
                  86385843.614 7  20835983.281                    20835985.789
                        42.100
                  88690177.852 7  21309276.766                    21309277.184
                        42.200
                                  22706990.297

                  85715534.552 7  20645239.359                    20645240.957
                        42.300
 113717502.081 7  88611049.26645  21639721.773                    21639724.098
        47.000          34.800
 119465043.107 7  93089655.31544  22733441.211                    22733445.273
        42.600          28.200
 124854324.767 7  97289101.22344  23758988.344                    23758995.133
        43.900          26.900
 116939174.410 7  91121452.37345  22252785.445                    22252791.625
        42.800          33.200
 116881278.737 7  91076342.63645  22241767.992                    22241774.090
        47.000          35.800
 115055459.678 8  89653615.09846  21894326.039                    21894329.918
        49.500          36.000
 120069852.049 6  93560942.91744  22848531.180                    22848536.621
        41.100          26.200
 18  3 11 12  7 26.0000000  0 16R05R13G08R04G17R14R21R12R22G28G11G01
                                G10G24G15G13
                  85820638.763 5  20641533.516                    20641535.012
                        35.100
                  80354599.645 6  19347218.836                    19347219.297
                        40.000
 125385014.673 6  97702663.52744  23859982.820                    23859989.000
        41.400          25.800
                  84822313.485 7  20365677.539                    20365677.855
                        42.100
 127102090.070 7  99040623.97444  24186728.883                    24186732.539
        46.100          26.700
                  86383502.224 6  20835418.523                    20835420.703
                        41.900
                  88692538.597 7  21309842.992                    21309844.727
                        42.200
                                  22707861.875

                  85714390.604 7  20644964.586                    20644966.039
                        42.200
 113719083.219 7  88612281.32045  21640022.125                    21640025.082
        47.200          34.600
 119463870.908 7  93088741.93044  22733218.883                    22733222.008
        42.300          28.500
 124851652.089 7  97287018.60444  23758479.922                    23758486.273
        44.300          26.600
 116938734.807 7  91121109.83845  22252702.227                    22252707.738
        43.300          34.200
 116878760.596 7  91074380.44945  22241289.023                    22241294.930
        46.500          35.700
 115057960.685 8  89655563.94846  21894800.852                    21894805.063
        48.500          36.600
 120073578.851 6  93563846.89244  22849240.430                    22849245.922
        41.200          26.900
 18  3 11 12  7 27.0000000  0 16R05R13G08R04G17R14R21R12R22G28G11G01
                                G10G24G15G13
                  85819375.740 5  20641229.828                    20641230.938
                        35.500
                  80355367.010 6  19347403.031                    19347404.027
                        40.000
 125388416.073 6  97705313.97444  23860630.406                    23860636.785
        41.500          26.700
                  84824375.821 6  20366172.406                    20366173.027
                        41.900
 127099062.855 7  99038265.10344  24186153.289                    24186156.887
        46.200          27.000
                  86381161.273 7  20834853.797                    20834856.430
                        42.300
                  88694899.953 7  21310409.961                    21310412.125
                        42.600
                                  22708739.563

                  85713247.358 7  20644688.852                    20644690.250
                        42.400
 113720664.950 7  88613513.83745  21640323.625                    21640326.105
        47.200          34.900
 119462699.412 7  93087829.09644  22732995.781                    22732999.199
        42.100          28.000
 124848979.869 7  97284936.34544  23757971.367                    23757977.836
        43.800          26.000
 116938295.975 7  91120767.90945  22252619.000                    22252624.090
        43.900          34.000
 116876242.955 7  91072418.65446  22240809.094                    22240815.344
        47.000          36.000
 115060462.234 8  89657513.19646  21895279.063                    21895281.273
        50.200          36.100
 120077306.105 6  93566751.22344  22849950.453                    22849955.281
        41.100          26.800
 18  3 11 12  7 28.0000000  0 16R05R13G08R04G17R14R21R12R22G28G11G01
                                G10G24G15G13
                  85818113.358 5  20640925.734                    20640927.563
                        35.400
                  80356135.072 6  19347587.766                    19347588.586
                        40.200
 125391817.917 6  97707964.77644  23861277.578                    23861284.324
        41.600          26.800
                  84826438.844 7  20366667.563                    20366668.410
                        42.100
 127096035.917 7  99035906.44844  24185577.281                    24185580.563
        46.100          27.500
                  86378820.741 7  20834289.141                    20834291.551
                        42.200
                  88697261.919 7  21310976.906                    21310979.609
                        42.300
                                  22709614.570

                  85712104.826 7  20644413.258                    20644414.918
                        42.300
 113722247.240 7  88614746.78645  21640624.563                    21640627.273
        47.400          35.200
 119461528.618 7  93086916.80344  22732773.852                    22732776.195
        42.400          28.600
 124846308.183 7  97282854.50244  23757462.742                    23757469.020
        43.800          25.900
 116937857.840 7  91120426.50545  22252535.883                    22252540.914
        44.900          34.200
 116873725.774 7  91070457.21346  22240330.328                    22240336.957
        46.500          36.100
 115062964.382 8  89659462.92946  21895753.805                    21895757.891
        49.200          36.200
 120081033.738 6  93569655.85144  22850660.859                    22850664.652
        41.600          26.800
 18  3 11 12  7 29.0000000  0 16R05R13G08R04G17R14R21R12R22G28G11G01
                                G10G24G15G13
                  85816851.617 5  20640622.383                    20640623.977
                        35.600
                  80356903.780 6  19347773.383                    19347773.145
                        39.900
 125395220.167 7  97710615.87444  23861924.992                    23861931.539
        42.100          26.400
                  84828502.468 7  20367163.195                    20367163.840
                        42.300
 127093009.232 7  99033547.98844  24185001.156                    24185004.793
        45.900          27.500
                  86376480.647 7  20833724.859                    20833727.473
                        42.300
                  88699624.467 7  21311544.469                    21311547.887
                        42.300
                                  22710489.711

                  85710962.980 7  20644138.695                    20644140.145
                        42.300
 113723830.091 7  88615980.17645  21640925.945                    21640928.613
        47.300          34.900
 119460358.572 7  93086005.08844  22732551.938                    22732553.574
        43.000          27.500
 124843636.883 7  97280772.96144  23756953.648                    23756960.285
        42.600          25.400
 116937420.386 7  91120085.62845  22252452.984                    22252457.879
        45.600          34.000
 116871209.047 7  91068496.12246  22239852.109                    22239857.625
        46.600          36.500
 115065467.149 8  89661413.13946  21896230.234                    21896233.438
        49.200          36.100
 120084761.731 7  93572560.77344  22851370.289                    22851373.559
        42.500          26.600
 18  3 11 12  7 30.0000000  0 16R05R13G08R04G17R14R21R12R22G28G11G01
                                G10G24G15G13
                  85815590.547 5  20640319.320                    20640320.613
                        35.200
                  80357673.185 6  19347958.375                    19347958.621
                        39.900
 125398622.830 6  97713267.29644  23862572.883                    23862578.730
        41.900          28.100
                  84830566.749 7  20367659.211                    20367659.535
                        42.000
 127089982.814 7  99031189.74744  24184425.195                    24184428.832
        46.000          27.000
                  86374141.008 6  20833161.688                    20833163.316
                        41.800
                  88701987.656 6  21312113.555                    21312114.953
                        41.900
                                  22711364.977

                  85709821.827 7  20643863.602                    20643865.051
                        42.000
 113725413.500 7  88617214.00445  21641226.680                    21641229.336
        47.200          35.500
 119459189.194 6  93085093.87644  22732329.219                    22732331.555
        41.700          29.100
 124840966.075 7  97278691.81144  23756444.961                    23756452.324
        42.800          25.200
 116936983.678 7  91119745.33045  22252369.367                    22252374.473
        45.400          34.100
 116868692.796 7  91066535.40646  22239372.969                    22239378.938
        47.000          36.500
 115067970.465 8  89663363.75846  21896707.453                    21896709.980
        50.200          36.100
 120088490.111 7  93575466.00444  22852080.023                    22852082.910
        43.300          26.700
 18  3 11 12  7 31.0000000  0 16R05R13G08R04G17R14R21R12R22G28G11G01
                                G10G24G15G13
                  85814330.141 5  20640016.156                    20640017.289
                        35.800
                  80358443.250 6  19348143.672                    19348144.336
                        40.500
 125402025.876 7  97715919.02944  23863219.953                    23863226.488
        42.200          26.900
                  84832631.656 7  20368154.328                    20368155.512
                        42.400
 127086956.666 7  99028831.70744  24183849.414                    24183852.773
        46.000          27.100
                  86371801.786 7  20832596.984                    20832599.016
                        42.100
                  88704351.447 6  21312682.336                    21312682.570
                        41.900
                                  22712241.367

                  85708681.412 7  20643589.547                    20643590.598
                        42.400
 113726997.491 7  88618448.28645  21641528.727                    21641531.250
        47.900          35.800
 119458020.552 6  93084183.23444  22732106.125                    22732108.824
        41.600          29.200
 124838295.710 7  97276611.00844  23755937.648                    23755944.254
        43.000          26.100
 116936547.664 7  91119405.57345  22252286.172                    22252291.426
        46.000          34.200
 116866176.986 7  91064575.04046  22238894.094                    22238900.309
        46.100          36.500
 115070474.419 8  89665314.90045  21897182.172                    21897186.840
        48.100          35.900
 120092218.864 7  93578371.52444  22852790.219                    22852793.027
        44.300          26.400
 18  3 11 12  7 32.0000000  0 16R05R13G08R04G17R14R21R12R22G28G11G01
                                G10G24G15G13
                  85813070.440 5  20639712.617                    20639714.125
                        35.600
                  80359214.044 6  19348329.609                    19348329.957
                        40.000
 125405429.382 7  97718571.11444  23863868.023                    23863873.805
        42.000          25.800
                  84834697.233 7  20368650.266                    20368650.641
                        42.300
 127083930.819 7  99026473.89744  24183273.305                    24183277.020
        45.700          27.200
                  86369463.012 6  20832032.953                    20832034.555
                        41.900
                  88706715.844 6  21313249.563                    21313249.703
                        41.400
                                  22713118.242

                  85707541.727 7  20643315.188                    20643315.660
                        42.200
 113728582.046 8  88619683.00145  21641830.484                    21641832.715
        48.200          35.500
 119456852.624 6  93083273.14944  22731883.688                    22731886.910
        40.200          28.200
 124835625.860 7  97274530.59944  23755429.117                    23755436.000
        42.500          27.000
 116936112.385 7  91119066.38445  22252202.938                    22252208.664
        45.800          34.600
 116863661.678 7  91062615.05646  22238415.477                    22238421.750
        45.700          36.100
 115072978.990 7  89667266.50645  21897660.250                    21897662.914
        47.900          35.400
 120095948.034 7  93581277.37644  22853500.070                    22853502.066
        45.400          26.100
 18  3 11 12  7 33.0000000  0 16R05R13G08R04G17R14R21R12R22G28G11G01
                                G10G24G15G13
                  85811811.427 5  20639410.477                    20639411.480
                        35.800
                  80359985.542 6  19348515.328                    19348515.590
                        40.100
 125408833.346 6  97721223.56144  23864515.188                    23864521.844
        41.400          27.400
                  84836763.496 7  20369146.531                    20369147.258
                        42.200
 127080905.289 7  99024116.34244  24182697.297                    24182701.281
        45.100          26.700
                  86367124.691 6  20831468.258                    20831471.152
                        41.700
                  88709080.857 6  21313817.961                    21313818.309
                        41.300
                                  22713992.852

                  85706402.771 7  20643039.125                    20643041.473
                        42.100
 113730167.221 7  88620918.20645  21642131.773                    21642133.988
        47.100          35.000
 119455685.439 6  93082363.65844  22731660.805                    22731664.332
        39.900          28.300
 124832956.531 6  97272450.59744  23754920.852                    23754928.438
        41.400          27.000
 116935677.874 7  91118727.78745  22252120.578                    22252126.168
        46.000          34.000
 116861146.883 7  91060655.47945  22237937.328                    22237943.223
        45.600          35.800
 115075484.124 8  89669218.54046  21898138.883                    21898139.887
        50.200          36.100
 120099677.627 7  93584183.55844  22854209.547                    22854211.582
        45.900          27.600
 18  3 11 12  7 34.0000000  0 16R05R13G08R04G17R14R21R12R22G28G11G01
                                G10G24G15G13
                  85810553.144 5  20639107.930                    20639108.469
                        34.800
                  80360757.746 6  19348700.828                    19348701.320
                        39.500
 125412237.748 6  97723876.34244  23865162.891                    23865169.422
        41.100          26.500
                  84838830.437 7  20369643.078                    20369643.566
                        42.200
 127077880.076 7  99021759.04144  24182121.531                    24182126.000
        45.000          24.800
                  86364786.848 6  20830905.180                    20830906.992
                        41.900
                  88711446.535 6  21314385.695                    21314386.457
                        41.600
                                  22714869.211

                  85705264.568 6  20642766.078                    20642767.422
                        41.900
 113731753.005 7  88622153.88345  21642433.461                    21642435.707
        46.700          35.400
 119454518.991 6  93081454.75844  22731439.930                    22731442.473
        40.000          28.600
 124830287.642 6  97270370.94444  23754413.117                    23754420.684
        41.100          25.300
 116935244.096 7  91118389.77145  22252038.156                    22252043.699
        46.700          34.200
 116858632.586 7  91058696.28745  22237458.555                    22237464.457
        45.800          35.800
 115077989.912 8  89671171.12246  21898612.992                    21898617.902
        48.000          36.000
 120103407.629 7  93587090.06344  22854919.594                    22854921.309
        46.600          26.200
 18  3 11 12  7 35.0000000  0 16R05R13G08R04G17R14R21R12R22G28G11G01
                                G10G24G15G13
                  85809295.493 5  20638806.047                    20638806.492
                        35.500
                  80361530.657 6  19348886.984                    19348887.820
                        39.700
 125415642.576 6  97726529.44744  23865811.047                    23865817.738
        40.800          26.400
                  84840898.041 7  20370139.141                    20370139.457
                        42.100
 127074855.127 7  99019401.93944  24181545.766                    24181549.922
        45.100          25.800
                  86362449.474 6  20830341.164                    20830342.980
                        41.800
                  88713812.867 6  21314955.539                    21314955.516
                        41.800
                                  22715745.695

                  85704127.059 7  20642492.281                    20642493.543
                        42.200
 113733339.356 7  88623389.99845  21642735.625                    21642737.953
        47.000          35.300
 119453353.267 6  93080546.43144  22731218.813                    22731220.293
        41.100          28.600
 124827619.274 6  97268291.69444  23753905.492                    23753912.816
        41.100          25.700
 116934811.062 7  91118052.33645  22251955.531                    22251961.496
        47.000          34.100
 116856118.776 7  91056737.47945  22236979.758                    22236985.926
        46.300          35.700
 115080496.380 7  89673124.22246  21899089.133                    21899093.641
        47.400          36.100
 120107138.040 7  93589996.89744  22855629.242                    22855630.648
        47.000          26.500
 18  3 11 12  7 36.0000000  0 16R05R13G08R04G17R14R21R12R22G28G11G01
                                G10G24G15G13
                  85808038.490 5  20638503.766                    20638504.180
                        35.000
                  80362304.245 6  19349073.156                    19349073.949
                        39.400
 125419047.824 6  97729182.88144  23866458.922                    23866465.930
        40.400          25.300
                  84842966.263 7  20370636.031                    20370636.172
                        42.200
 127071830.453 7  99017045.05144  24180970.398                    24180974.242
        44.400          26.000
                  86360112.518 6  20829777.438                    20829779.223
                        41.600
                  88716179.775 7  21315523.883                    21315524.793
                        42.500
                                  22716622.367

                  85702990.264 7  20642218.898                    20642219.527
                        42.100
 113734926.270 7  88624626.55545  21643037.320                    21643039.734
        46.400          35.500
 119452188.302 7  93079638.69044  22730998.461                    22730998.715
        42.000          28.300
 124824951.350 6  97266212.80244  23753398.289                    23753405.508
        41.300          25.300
 116934378.714 7  91117715.42745  22251872.672                    22251879.234
        46.300          34.200
 116853605.424 7  91054779.02346  22236502.094                    22236508.344
        46.400          36.000
 115083003.348 8  89675077.68746  21899569.398                    21899570.820
        50.200          36.000
 120110868.837 7  93592904.02544  22856339.000                    22856340.465
        47.200          27.200
 18  3 11 12  7 37.0000000  0 16R05R13G08R04G17R14R21R12R22G28G11G01
                                G10G24G15G13
                  85806782.092 5  20638200.148                    20638202.000
                        34.600
                  80363078.469 6  19349259.273                    19349259.973
                        39.400
 125422453.472 6  97731836.61544  23867106.727                    23867113.781
        40.100          25.400
                  84845035.089 7  20371132.539                    20371132.660
                        42.400
 127068806.000 7  99014688.33444  24180394.773                    24180399.000
        44.700          26.400
                  86357775.970 6  20829213.859                    20829215.977
                        41.700
                  88718547.255 7  21316092.750                    21316094.492
                        42.600
                                  22717496.961

                  85701854.140 6  20641943.867                    20641946.430
                        41.900
 113736513.706 7  88625863.51945  21643339.484                    21643342.086
        46.600          34.800
 119451023.983 7  93078731.42744  22730776.969                    22730777.293
        42.100          28.500
 124822283.843 6  97264134.24844  23752890.984                    23752897.996
        41.700          25.900
 116933947.048 7  91117379.05445  22251790.297                    22251796.773
        45.200          34.400
 116851092.523 7  91052820.91846  22236023.797                    22236030.121
        46.300          36.200
 115085510.858 8  89677031.60445  21900044.859                    21900049.066
        49.000          35.800
 120114599.944 7  93595811.40444  22857049.211                    22857049.715
        47.400          26.600
 18  3 11 12  7 38.0000000  0 16R05R13G08R04G17R14R21R12R22G28G11G01
                                G10G24G15G13
                  85805526.371 5  20637897.883                    20637899.609
                        35.000
                  80363853.377 6  19349446.836                    19349447.180
                        39.500
 125425859.551 6  97734490.70044  23867754.719                    23867761.797
        39.900          24.200
                  84847104.556 6  20371629.477                    20371630.066
                        41.900
 127065781.833 7  99012331.84444  24179819.063                    24179823.730
        44.300          25.500
                  86355439.855 6  20828650.531                    20828652.688
                        41.400
                  88720915.315 7  21316660.328                    21316663.527
                        42.300
                                  22718373.109

                  85700718.724 6  20641671.195                    20641673.004
                        41.900
 113738101.721 7  88627100.93845  21643642.117                    21643643.938
        47.100          35.000
 119449860.385 7  93077824.70944  22730554.930                    22730556.316
        42.000          26.800
 124819616.823 6  97262056.07144  23752383.563                    23752390.785
        41.800          26.400
 116933516.111 7  91117043.25545  22251708.305                    22251715.395
        44.500          34.200
 116848580.072 7  91050863.16345  22235545.719                    22235551.762
        46.300          35.800
 115088019.054 7  89678986.05345  21900519.867                    21900525.871
        46.400          35.700
 120118331.467 7  93598719.11544  22857759.516                    22857760.137
        47.200          27.300
 18  3 11 12  7 39.0000000  0 16R05R13G08R04G17R14R21R12R22G28G11G01
                                G10G24G15G13
                  85804271.351 5  20637597.164                    20637598.203
                        34.500
                  80364628.942 6  19349632.773                    19349633.781
                        39.300
 125429266.002 6  97737145.06843  23868402.992                    23868410.039
        39.500          23.900
                  84849174.685 7  20372126.266                    20372126.703
                        42.000
 127062757.919 7  99009975.54744  24179243.672                    24179248.055
        44.600          26.400
                  86353104.165 6  20828086.836                    20828089.133
                        41.500
                  88723284.012 7  21317229.172                    21317232.949
                        42.200
                                  22719251.281

                  85699584.016 7  20641398.344                    20641399.168
                        42.200
 113739690.284 7  88628338.77345  21643944.133                    21643946.391
        47.000          35.700
 119448697.479 6  93076918.53044  22730332.570                    22730335.184
        41.800          26.700
 124816950.247 7  97259978.23644  23751876.281                    23751883.391
        42.600          27.900
 116933085.845 7  91116707.98245  22251625.844                    22251632.648
        44.000          34.500
 116846068.104 7  91048905.78846  22235067.242                    22235073.586
        46.000          36.300
 115090527.744 8  89680940.86045  21901000.242                    21901002.758
        48.800          35.900
 120122063.351 7  93601627.10744  22858468.977                    22858469.742
        46.700          28.500
 18  3 11 12  7 40.0000000  0 16R05R13G08R04G17R14R21R12R22G28G11G01
                                G10G24G15G13
                  85803016.986 5  20637295.391                    20637296.043
                        35.000
                  80365405.220 6  19349819.555                    19349820.305
                        39.400
 125432672.916 6  97739799.79844  23869051.961                    23869058.348
        39.100          25.100
                  84851245.426 7  20372623.758                    20372624.266
                        42.400
 127059734.295 7  99007619.48444  24178668.711                    24178672.840
        44.900          26.900
                  86350768.893 6  20827523.945                    20827525.980
                        41.900
                  88725653.302 6  21317798.445                    21317802.020
                        41.900
                                  22720126.727

                  85698450.007 7  20641124.398                    20641126.180
                        42.300
 113741279.401 7  88629577.05145  21644246.172                    21644248.563
        47.600          35.200
 119447535.258 6  93076012.88444  22730111.172                    22730113.703
        40.900          27.700
 124814284.126 7  97257900.74944  23751368.656                    23751376.008
        42.500          26.600
 116932656.288 7  91116373.26845  22251544.500                    22251551.266
        42.700          34.100
 116843556.593 7  91046948.76545  22234589.680                    22234596.102
        46.300          35.700
 115093037.035 8  89682896.14846  21901477.039                    21901480.547
        48.700          36.000
 120125795.613 7  93604535.38444  22859179.016                    22859179.914
        46.500          28.700
 18  3 11 12  7 41.0000000  0 16R05R13G08R04G17R14R21R12R22G28G11G01
                                G10G24G15G13
                  85801763.270 5  20636994.273                    20636995.230
                        34.500
                  80366182.162 6  19350007.117                    19350007.633
                        40.000
 125436080.191 6  97742454.81843  23869699.742                    23869706.523
        39.100          22.600
                  84853316.777 7  20373121.453                    20373121.887
                        42.400
 127056710.926 7  99005263.62144  24178093.203                    24178097.270
        45.500          27.300
                  86348434.044 7  20826960.820                    20826962.164
                        42.100
                  88728023.182 6  21318369.070                    21318370.645
                        41.600
                                  22721002.180

                  85697316.715 7  20640852.055                    20640853.414
                        42.400
 113742869.097 8  88630815.77345  21644548.586                    21644551.086
        48.000          35.500
 119446373.718 6  93075107.78044  22729889.367                    22729892.770
        39.800          28.200
 124811618.489 7  97255823.63744  23750861.859                    23750868.898
        43.000          26.800
 116932227.424 7  91116039.09345  22251462.523                    22251469.762
        42.500          34.000
 116841045.535 7  91044992.09846  22234112.281                    22234117.918
        46.500          36.200
 115095546.960 7  89684851.93845  21901954.008                    21901957.891
        47.900          35.500
 120129528.282 7  93607443.97444  22859888.586                    22859890.410
        45.900          28.600
 18  3 11 12  7 42.0000000  0 16R05R13G08R04G17R14R21R12R22G28G11G01
                                G10G24G15G13
                  85800510.201 5  20636692.266                    20636693.199
                        34.800
                  80366959.792 6  19350195.156                    19350195.188
                        40.100
 125439487.888 6  97745110.15944  23870348.117                    23870355.035
        40.100          26.300
                  84855388.776 7  20373618.500                    20373619.098
                        42.300
 127053687.844 7  99002907.98044  24177518.094                    24177522.391
        45.900          27.800
                  86346099.658 6  20826397.922                    20826399.984
                        41.900
                  88730393.702 6  21318939.414                    21318940.133
                        41.600
                                  22721877.977

                  85696184.122 7  20640579.320                    20640581.082
                        42.000
 113744459.360 8  88632054.93745  21644851.461                    21644853.715
        48.200          35.100
 119445212.936 6  93074203.30444  22729669.258                    22729671.906
        41.000          28.200
 124808953.333 7  97253746.90144  23750354.281                    23750361.918
        43.800          26.500
 116931799.263 7  91115705.47945  22251381.742                    22251388.254
        42.400          33.700
 116838534.983 7  91043035.82446  22233634.242                    22233639.938
        46.500          36.200
 115098057.454 8  89686808.15345  21902433.219                    21902435.359
        49.400          35.900
 120133261.344 7  93610352.86044  22860598.492                    22860600.445
        45.200          27.300
 18  3 11 12  7 43.0000000  0 16R05R13G08R04G17R14R21R12R22G28G11G01
                                G10G24G15G13
                  85799257.825 5  20636391.148                    20636392.484
                        35.100
                  80367738.146 6  19350381.789                    19350382.504
                        39.900
 125442896.054 6  97747765.86844  23870997.641                    23871003.836
        40.300          26.200
                  84857461.425 7  20374116.242                    20374116.582
                        42.200
 127050665.048 7  99000552.56344  24176942.711                    24176947.004
        46.000          29.000
                  86343765.726 6  20825835.086                    20825836.922
                        41.800
                  88732764.825 6  21319509.789                    21319509.344
                        41.500
                                  22722756.188

                  85695052.237 7  20640305.695                    20640307.859
                        42.400
 113746050.190 8  88633294.54645  21645154.031                    21645156.516
        48.100          35.400
 119444052.831 7  93073299.35344  22729449.680                    22729450.449
        42.700          26.100
 124806288.638 7  97251670.50244  23749847.133                    23749854.688
        44.100          26.500
 116931371.858 7  91115372.45445  22251300.656                    22251306.664
        43.000          33.000
 116836024.893 7  91041079.90845  22233156.336                    22233162.582
        46.600          35.800
 115100568.540 8  89688764.84345  21902909.969                    21902913.516
        49.200          35.800
 120136994.769 7  93613262.02244  22861308.461                    22861311.363
        44.300          27.800
 18  3 11 12  7 44.0000000  0 16R05R13G08R04G17R14R21R12R22G28G11G01
                                G10G24G15G13
                  85798006.083 5  20636089.617                    20636091.602
                        35.200
                  80368517.121 6  19350568.602                    19350569.625
                        40.500
 125446304.554 6  97750421.84644  23871646.563                    23871652.527
        40.300          25.400
                  84859534.721 7  20374614.469                    20374615.129
                        42.100
 127047642.479 7  98998197.31744  24176368.156                    24176372.184
        46.000          29.600
                  86341432.212 6  20825272.133                    20825274.070
                        41.400
                  88735136.530 6  21320079.641                    21320079.664
                        41.900
                                  22723630.625

                  85693921.046 7  20640034.133                    20640035.102
                        42.400
 113747641.550 8  88634534.57345  21645457.016                    21645459.129
        48.000          35.300
 119442893.464 7  93072395.96844  22729230.141                    22729230.293
        43.600          28.100
 124803624.409 7  97249594.46744  23749340.516                    23749347.266
        44.300          25.800
 116930945.117 7  91115039.94845  22251219.656                    22251225.359
        43.700          33.600
 116833515.235 7  91039124.33045  22232678.609                    22232685.008
        46.500          34.900
 115103080.202 8  89690721.98245  21903388.203                    21903391.586
        49.500          35.200
 120140728.582 7  93616171.48944  22862018.461                    22862021.895
        43.100          27.000
 18  3 11 12  7 45.0000000  0 16R05R13G08R04G17R14R21R12R22G28G11G01
                                G10G24G15G13
                  85796755.026 5  20635788.297                    20635789.957
                        35.000
                  80369296.837 6  19350756.719                    19350757.578
                        40.200
 125449713.561 6  97753078.21844  23872294.336                    23872300.656
        40.300          25.800
                  84861608.694 7  20375111.914                    20375112.445
                        42.000
 127044620.250 7  98995842.33244  24175793.352                    24175797.113
        45.900          28.800
                  86339099.166 6  20824708.789                    20824711.504
                        41.600
                  88737508.876 6  21320649.188                    21320649.359
                        41.900
                                  22724509.539

                  85692790.606 7  20639762.391                    20639762.973
                        42.300
 113749233.526 7  88635775.07645  21645760.258                    21645762.441
        47.800          35.700
 119441734.827 7  93071493.14044  22729008.180                    22729009.703
        43.800          28.900
 124800960.653 7  97247518.80044  23748833.297                    23748840.648
        43.300          25.800
 116930519.177 7  91114708.05745  22251139.117                    22251144.797
        44.400          33.500
 116831006.126 7  91037169.17745  22232201.805                    22232207.594
        46.400          35.900
 115105592.485 8  89692679.60046  21903867.242                    21903869.770
        49.900          36.000
 120144462.844 6  93619081.29244  22862728.023                    22862732.930
        41.400          26.800
 18  3 11 12  7 46.0000000  0 16R05R13G08R04G17R14R21R12R22G28G11G01
                                G10G24G15G13
                  85795504.663 5  20635486.727                    20635489.684
                        34.900
                  80370077.269 6  19350945.094                    19350945.516
                        39.800
 125453122.989 6  97755734.92644  23872943.891                    23872949.582
        40.600          25.600
                  84863683.324 6  20375610.313                    20375610.969
                        41.600
 127041598.344 7  98993487.60444  24175218.063                    24175222.000
        46.400          28.600
                  86336766.568 6  20824146.195                    20824148.254
                        41.800
                  88739881.869 6  21321218.977                    21321219.484
                        41.500
                                  22725385.492

                  85691660.890 7  20639489.266                    20639491.379
                        42.300
 113750826.136 7  88637016.07246  21646062.961                    21646065.234
        46.300          36.000
 119440576.968 7  93070590.88344  22728786.820                    22728789.586
        43.600          28.400
 124798297.434 7  97245443.55544  23748326.141                    23748333.492
        44.100          26.500
 116930093.996 7  91114376.74045  22251058.289                    22251063.684
        45.000          34.200
 116828497.570 7  91035214.46345  22231724.117                    22231729.848
        46.500          35.900
 115108105.377 8  89694637.70845  21904344.453                    21904347.867
        48.300          35.800
 120148197.520 6  93621991.41644  22863438.258                    22863444.078
        40.600          26.800
 18  3 11 12  7 47.0000000  0 16R05R13G08R04G17R14R21R12R22G28G11G01
                                G10G24G15G13
                  85794254.984 5  20635187.547                    20635189.016
                        35.100
                  80370858.352 6  19351133.406                    19351133.656
                        40.100
 125456532.813 6  97758391.93644  23873592.938                    23873598.906
        40.800          24.700
                  84865758.565 7  20376108.320                    20376109.098
                        42.000
 127038576.654 7  98991133.03644  24174642.875                    24174646.895
        46.700          28.600
                  86334434.387 6  20823584.570                    20823586.203
                        41.900
                  88742255.437 6  21321788.695                    21321789.520
                        41.200
                                  22726260.602

                  85690531.881 7  20639217.367                    20639218.988
                        42.300
 113752419.267 7  88638257.46945  21646366.063                    21646368.398
        46.800          35.400
 119439419.774 7  93069689.16244  22728565.852                    22728569.438
        43.300          29.400
 124795634.636 7  97243368.64244  23747819.578                    23747826.332
        43.900          24.700
 116929669.477 7  91114045.92845  22250978.000                    22250982.465
        45.500          34.300
 116825989.419 7  91033260.05645  22231246.234                    22231252.805
        45.700          35.700
 115110618.887 7  89696596.30545  21904821.734                    21904826.215
        47.500          35.700
 120151932.551 6  93624901.80744  22864149.586                    22864154.660
        39.700          26.200
 18  3 11 12  7 48.0000000  0 16R05R13G08R04G17R14R21R12R22G28G11G01
                                G10G24G15G13
                  85793005.977 5  20634887.961                    20634888.641
                        35.300
                  80371640.129 6  19351321.641                    19351321.891
                        39.900
 125459943.071 6  97761049.29144  23874241.484                    23874247.488
        41.600          26.500
                  84867834.461 6  20376606.484                    20376607.020
                        41.800
 127035555.264 7  98988778.70444  24174068.070                    24174072.180
        46.700          28.700
                  86332102.668 6  20823021.438                    20823024.137
                        41.500
                  88744629.651 6  21322357.664                    21322358.707
                        41.100
                                  22727139.320

                  85689403.595 7  20638945.914                    20638947.594
                        42.300
 113754012.951 7  88639499.30145  21646669.750                    21646671.688
        47.300          35.200
 119438263.266 7  93068787.98044  22728345.789                    22728349.363
        43.100          29.300
 124792972.321 7  97241294.10744  23747313.141                    23747319.625
        43.700          24.500
 116929245.691 7  91113715.68745  22250897.148                    22250902.281
        46.200          33.900
 116823481.751 7  91031306.02545  22230769.297                    22230776.164
        46.100          35.700
 115113132.998 8  89698555.34245  21905301.070                    21905304.066
        48.700          35.900
 120155668.016 6  93627812.53344  22864861.445                    22864865.621
        39.700          26.400
 18  3 11 12  7 49.0000000  0 16R05R13G08R04G17R14R21R12R22G28G11G01
                                G10G24G15G13
                  85791757.588 5  20634588.516                    20634588.129
                        34.900
                  80372422.552 6  19351509.586                    19351510.301
                        39.800
 125463353.711 6  97763706.93844  23874890.602                    23874896.477
        41.700          26.000
                  84869910.946 7  20377104.805                    20377105.949
                        42.000
 127032534.099 7  98986424.54944  24173492.930                    24173497.262
        46.400          29.200
                  86329771.337 6  20822459.539                    20822461.281
                        41.600
                  88747004.428 6  21322928.758                    21322929.098
                        41.600
                                  22728013.820

                  85688275.965 6  20638673.539                    20638675.488
                        41.900
 113755607.186 7  88640741.56345  21646972.781                    21646975.270
        46.400          35.000
 119437107.434 7  93067887.34344  22728126.242                    22728128.973
        43.900          28.600
 124790310.417 7  97239219.89144  23746806.383                    23746812.953
        43.200          25.000
 116928822.558 7  91113385.96345  22250816.266                    22250821.711
        46.000          34.600
 116820974.504 7  91029352.32745  22230293.117                    22230298.738
        45.600          35.300
 115115647.582 8  89700514.75446  21905780.438                    21905783.270
        48.800          36.200
 120159403.801 6  93630723.50144  22865572.977                    22865576.996
        39.800          27.400
 18  3 11 12  7 50.0000000  0 16R05R13G08R04G17R14R21R12R22G28G11G01
                                G10G24G15G13
                  85790509.824 5  20634287.617                    20634288.590
                        34.600
                  80373205.643 6  19351698.258                    19351698.734
                        39.800
 125466764.692 6  97766364.85944  23875539.289                    23875545.359
        41.400          26.400
                  84871988.094 6  20377604.117                    20377603.957
                        41.900
 127029513.176 7  98984070.58444  24172918.336                    24172922.359
        46.500          29.400
                  86327440.459 6  20821897.406                    20821899.723
                        41.900
                  88749379.768 6  21323500.563                    21323500.516
                        41.900
                                  22728893.734

                  85687149.050 6  20638404.086                    20638404.168
                        41.900
 113757201.971 7  88641984.24945  21647275.891                    21647278.816
        46.600          35.200
 119435952.313 7  93066987.26244  22727906.813                    22727909.164
        44.500          29.100
 124787648.981 7  97237146.03444  23746299.922                    23746306.355
        42.900          24.800
 116928400.156 7  91113056.81345  22250735.242                    22250741.121
        46.000          33.400
 116818467.705 7  91027398.98045  22229815.453                    22229821.148
        45.600          35.600
 115118162.815 7  89702474.69046  21906257.484                    21906262.348
        46.900          36.400
 120163139.937 6  93633634.74144  22866284.992                    22866288.012
        40.700          27.300
 18  3 11 12  7 51.0000000  0 16R05R13G08R04G17R14R21R12R22G28G11G01
                                G10G24G15G13
                  85789262.709 5  20633986.070                    20633988.148
                        34.700
                  80373989.408 6  19351887.125                    19351888.059
                        39.700
 125470176.077 6  97769023.08444  23876188.938                    23876194.563
        41.600          25.700
                  84874065.920 7  20378102.914                    20378103.719
                        42.100
 127026492.556 7  98981716.87344  24172343.063                    24172347.379
        46.600          29.800
                  86325109.999 6  20821334.750                    20821337.246
                        41.900
                  88751755.705 7  21324073.820                    21324073.121
                        42.400
                                  22729769.359

                  85686022.827 7  20638131.055                    20638133.191
                        42.100
 113758797.302 7  88643227.36945  21647579.836                    21647582.672
        46.400          35.600
 119434797.929 7  93066087.74244  22727687.094                    22727690.086
        44.900          28.100
 124784988.031 6  97235072.54044  23745793.000                    23745799.918
        41.800          24.600
 116927978.465 7  91112728.20945  22250654.758                    22250661.113
        46.200          34.000
 116815961.390 7  91025446.00745  22229338.008                    22229344.828
        45.700          35.700
 115120678.650 7  89704435.07646  21906736.570                    21906740.234
        47.200          36.300
 120166876.473 6  93636546.29844  22866996.383                    22866999.230
        41.400          27.100
 18  3 11 12  7 52.0000000  0 16R05R13G08R04G17R14R21R12R22G28G11G01
                                G10G24G15G13
                  85788016.264 5  20633686.086                    20633688.660
                        34.800
                  80374773.825 6  19352075.961                    19352076.328
                        40.100
 125473587.886 6  97771681.64044  23876838.164                    23876844.156
        40.400          26.200
                  84876144.313 7  20378602.188                    20378602.195
                        42.100
 127023472.149 7  98979363.31944  24171768.414                    24171772.980
        46.600          28.600
                  86322779.912 6  20820772.758                    20820775.305
                        41.600
                  88754132.229 7  21324644.070                    21324644.477
                        42.600
                                  22730645.008

                  85684897.275 7  20637860.453                    20637861.930
                        42.300
 113760393.174 7  88644470.90445  21647883.508                    21647886.141
        46.600          35.200
 119433644.164 7  93065188.71144  22727467.633                    22727470.336
        44.700          28.000
 124782327.465 6  97232999.37744  23745286.531                    23745293.234
        41.300          25.400
 116927557.437 7  91112400.12945  22250574.438                    22250581.023
        45.400          34.400
 116813455.493 7  91023493.35945  22228861.430                    22228867.758
        45.500          35.700
 115123195.000 8  89706395.85245  21907216.633                    21907219.270
        48.500          35.500
 120170613.356 7  93639458.14044  22867707.938                    22867710.141
        43.200          26.200
 18  3 11 12  7 53.0000000  0 16R05R13G08R04G17R14R21R12R22G28G11G01
                                G10G24G15G13
                  85786770.542 5  20633387.289                    20633388.258
                        34.800
                  80375558.919 6  19352264.516                    19352265.293
                        40.000
 125477000.093 6  97774340.50444  23877487.180                    23877493.488
        40.000          25.200
                  84878223.338 7  20379101.273                    20379101.727
                        42.200
 127020452.038 7  98977009.98744  24171193.797                    24171197.867
        46.400          27.800
                  86320450.294 6  20820210.203                    20820212.785
                        41.600
                  88756509.359 7  21325213.820                    21325216.570
                        42.500
                                  22731522.297

                  85683772.447 7  20637590.227                    20637590.883
                        42.300
 113761989.629 7  88645714.90345  21648187.000                    21648189.641
        46.300          34.700
 119432491.157 7  93064290.26444  22727248.070                    22727250.605
        45.200          28.400
 124779667.411 6  97230926.61343  23744780.992                    23744787.305
        40.900          23.800
 116927137.126 7  91112072.60245  22250494.578                    22250500.840
        45.200          33.900
 116810950.100 7  91021541.10645  22228385.063                    22228391.352
        45.500          35.700
 115125711.949 8  89708357.11546  21907695.047                    21907698.582
        48.300          36.500
 120174350.623 7  93642370.28744  22868419.852                    22868421.977
        44.000          28.800
 18  3 11 12  7 54.0000000  0 16R05R13G08R04G17R14R21R12R22G28G11G01
                                G10G24G15G13
                  85785525.401 5  20633088.875                    20633089.500
                        34.500
                  80376344.638 6  19352454.289                    19352455.039
                        40.200
 125480412.646 6  97776999.64144  23878136.516                    23878142.621
        40.200          26.500
                  84880302.907 7  20379601.078                    20379600.711
                        42.000
 127017432.138 7  98974656.81744  24170619.180                    24170623.320
        46.400          27.400
                  86318121.094 6  20819648.859                    20819651.273
                        41.400
                  88758887.054 7  21325783.469                    21325788.031
                        42.100
                                  22732397.133

                  85682648.266 7  20637318.531                    20637320.504
                        42.200
 113763586.567 7  88646959.26745  21648491.141                    21648493.691
        46.200          34.700
 119431338.807 7  93063392.32344  22727029.195                    22727031.449
        45.700          27.700
 124777007.738 6  97228854.15044  23744274.711                    23744281.184
        41.200          25.500
 116926717.481 7  91111745.60045  22250414.305                    22250421.219
        44.500          33.600
 116808445.091 7  91019589.14945  22227908.508                    22227914.465
        45.700          35.800
 115128229.430 7  89710318.79246  21908173.500                    21908177.297
        47.800          36.000
 120178088.173 7  93645282.66244  22869131.227                    22869133.211
        45.000          29.500
 18  3 11 12  7 55.0000000  0 16R05R13G08R04G17R14R21R12R22G28G11G01
                                G10G24G15G13
                  85784280.998 5  20632789.227                    20632790.730
                        34.900
                  80377131.093 6  19352643.383                    19352643.910
                        39.800
 125483825.647 6  97779659.12744  23878785.211                    23878792.016
        39.700          24.800
                  84882383.192 7  20380100.305                    20380099.633
                        42.100
 127014412.556 7  98972303.89644  24170044.469                    24170049.215
        46.400          27.000
                  86315792.385 6  20819087.617                    20819090.145
                        41.500
                  88761265.396 6  21326354.602                    21326358.922
                        41.900
                                  22733278.656

                  85681524.838 7  20637047.977                    20637049.609
                        42.200
 113765184.139 7  88648204.12845  21648795.180                    21648797.797
        46.400          34.600
 119430187.221 7  93062494.98144  22726809.945                    22726812.242
        45.600          28.100
 124774348.558 6  97226782.07544  23743769.336                    23743775.422
        41.300          26.400
 116926298.580 7  91111419.18345  22250334.711                    22250341.563
        43.400          34.200
 116805940.633 7  91017637.62845  22227431.383                    22227437.598
        45.700          35.900
 115130747.572 8  89712280.98046  21908653.773                    21908656.242
        48.600          36.200
 120181826.208 7  93648195.42344  22869842.453                    22869844.859
        45.600          29.600
 18  3 11 12  7 56.0000000  0 16R05R13G08R04G17R14R21R12R22G28G11G01
                                G10G24G15G13
                  85783037.198 5  20632489.211                    20632490.945
                        34.800
                  80377918.213 6  19352832.836                    19352833.070
                        39.900
 125487239.114 6  97782318.97944  23879434.938                    23879441.832
        40.200          25.400
                  84884464.140 7  20380599.852                    20380599.660
                        42.300
 127011393.262 7  98969951.20144  24169469.922                    24169474.141
        46.300          27.600
                  86313464.093 6  20818525.602                    20818528.031
                        41.700
                  88763644.365 6  21326926.617                    21326929.477
                        41.900
                                  22734151.625

                  85680402.110 7  20636777.719                    20636779.500
                        42.300
 113766782.264 7  88649449.42345  21649099.375                    21649101.988
        46.800          34.600
 119429036.333 7  93061598.18144  22726589.727                    22726593.430
        45.500          28.100
 124771689.872 6  97224710.37744  23743263.109                    23743269.352
        41.700          24.900
 116925880.375 7  91111093.31445  22250254.117                    22250262.055
        42.800          34.200
 116803436.646 7  91015686.46745  22226954.516                    22226961.598
        46.000          35.900
 115133266.266 8  89714243.60746  21909132.469                    21909135.711
        48.800          36.400
 120185564.610 7  93651108.47244  22870553.859                    22870556.148
        46.600          29.600
 18  3 11 12  7 57.0000000  0 16R05R13G08R04G17R14R21R12R22G28G11G01
                                G10G24G15G13
                  85781794.068 5  20632189.664                    20632191.836
                        34.900
                  80378706.024 6  19353022.922                    19353023.055
                        39.800
 125490652.998 6  97784979.12944  23880084.320                    23880091.051
        39.000          25.000
                  84886545.788 7  20381099.594                    20381099.563
                        42.100
 127008374.255 7  98967598.73544  24168894.906                    24168899.742
        45.800          27.600
                  86311136.233 6  20817964.586                    20817966.254
                        41.700
                  88766023.961 7  21327499.555                    21327500.707
                        42.100
                                  22735030.789

                  85679280.127 6  20636506.992                    20636508.734
                        41.900
 113768380.984 7  88650695.18145  21649403.617                    21649405.930
        46.800          34.900
 119427886.167 7  93060701.94144  22726370.875                    22726375.035
        45.000          28.600
 124769031.692 6  97222639.07244  23742757.836                    23742763.953
        41.900          26.200
 116925462.908 6  91110768.02045  22250175.008                    22250182.527
        40.900          33.100
 116800933.172 7  91013735.71046  22226478.945                    22226485.176
        46.300          36.000
 115135785.616 8  89716206.74546  21909611.508                    21909615.191
        48.500          36.000
 120189303.423 7  93654021.83845  22871265.523                    22871268.000
        46.700          30.700
 18  3 11 12  7 58.0000000  0 16R05R13G08R04G17R14R21R12R22G28G11G01
                                G10G24G15G13
                  85780551.625 5  20631890.305                    20631892.773
                        35.200
                  80379494.531 6  19353212.539                    19353212.449
                        39.300
 125494067.295 6  97787639.61344  23880734.117                    23880740.789
        39.100          24.800
                  84888628.106 6  20381599.656                    20381599.508
                        41.900
 127005355.529 7  98965246.48744  24168320.578                    24168325.293
        45.200          27.100
                  86308808.799 6  20817402.953                    20817405.273
                        41.400
                  88768404.122 6  21328071.203                    21328072.230
                        41.900
                                  22735907.805

                  85678158.853 6  20636237.578                    20636239.289
                        41.900
 113769980.262 7  88651941.36845  21649708.234                    21649710.492
        47.000          34.200
 119426736.732 7  93059806.26644  22726152.023                    22726156.023
        44.500          27.800
 124766373.986 6  97220568.14244  23742252.250                    23742258.207
        41.900          25.900
 116925046.179 6  91110443.30545  22250095.922                    22250103.164
        40.600          32.700
 116798430.123 7  91011785.28445  22226002.883                    22226008.238
        46.600          35.900
 115138305.518 8  89718170.30446  21910091.672                    21910094.773
        49.100          36.000
 120193042.617 7  93656935.49845  22871977.094                    22871979.273
        47.000          30.500
 18  3 11 12  7 59.0000000  0 16R05R13G08R04G17R14R21R12R22G28G11G01
                                G10G24G15G13
                  85779309.859 5  20631592.688                    20631594.598
                        34.900
                  80380283.729 6  19353402.703                    19353402.910
                        39.400
 125497482.039 6  97790300.45744  23881383.938                    23881390.809
        39.200          25.900
                  84890711.036 6  20382099.758                    20382100.098
                        41.900
 127002337.097 7  98962894.47944  24167746.211                    24167750.551
        44.900          26.900
                  86306481.840 6  20816842.461                    20816843.906
                        41.500
                  88770784.894 7  21328643.781                    21328644.594
                        42.100
                                  22736784.219

                  85677038.308 7  20635967.703                    20635969.164
                        42.100
 113771580.143 7  88653188.02545  21650012.313                    21650014.543
        46.300          34.600
 119425587.992 7  93058911.13944  22725933.172                    22725937.316
        44.100          28.300
 124763716.762 7  97218497.57944  23741746.461                    23741752.586
        42.100          25.600
 116924630.152 6  91110119.15945  22250018.031                    22250023.977
        41.100          33.100
 116795927.598 7  91009835.26745  22225525.914                    22225531.828
        46.500          35.800
 115140826.046 7  89720134.36146  21910570.117                    21910574.102
        47.400          36.000
 120196782.205 7  93659849.46545  22872688.703                    22872691.191
        47.300          31.000
 18  3 11 12  8  0.0000000  0 16R05R13G08R04G17R14R21R12R22G28G11G01
                                G10G24G15G13
                  85778068.749 5  20631294.617                    20631295.707
                        34.900
                  80381073.590 6  19353592.258                    19353592.809
                        39.600
 125500897.167 6  97792961.59044  23882033.867                    23882040.500
        39.600          25.100
                  84892794.525 6  20382599.938                    20382600.348
                        41.700
 126999318.912 7  98960542.64244  24167171.898                    24167176.277
        45.000          26.600
                  86304155.307 6  20816280.742                    20816283.012
                        41.900
                  88773166.262 7  21329216.219                    21329216.637
                        42.000
                                  22737663.633

                  85675918.448 6  20635698.133                    20635699.855
                        41.900
 113773180.553 7  88654435.10145  21650316.813                    21650319.316
        46.200          34.900
 119424439.958 7  93058016.57844  22725715.258                    22725718.828
        44.800          27.900
 124761059.990 7  97216427.37444  23741240.781                    23741247.449
        42.900          27.300
 116924214.831 7  91109795.55545  22249939.695                    22249945.230
        42.900          33.800
 116793425.501 7  91007885.57846  22225049.664                    22225056.004
        46.600          36.200
 115143347.176 7  89722098.87545  21911049.844                    21911053.961
        46.600          35.800
 120200522.159 7  93662763.71944  22873400.078                    22873402.570
        47.200          29.600
 18  3 11 12  8  1.0000000  0 16R05R13G08R04G17R14R21R12R22G28G11G01
                                G10G24G15G13
                  85776828.294 5  20630997.094                    20630997.684
                        35.100
                  80381864.159 6  19353783.250                    19353783.297
                        39.600
 125504312.735 6  97795623.06644  23882684.234                    23882690.926
        40.300          25.800
                  84894878.653 6  20383100.516                    20383100.059
                        41.900
 126996301.030 7  98958191.04744  24166597.828                    24166601.703
        45.000          26.400
                  86301829.243 6  20815719.656                    20815721.508
                        41.800
                  88775548.293 7  21329787.992                    21329788.805
                        42.200
                                  22738536.219

                  85674799.304 7  20635428.289                    20635430.285
                        42.100
 113774781.555 7  88655682.63245  21650621.492                    21650623.754
        46.200          34.400
 119423292.671 7  93057122.59944  22725497.164                    22725500.555
        45.500          28.500
 124758403.696 7  97214357.54144  23740734.695                    23740742.004
        42.600          25.800
 116923800.253 7  91109472.52445  22249861.211                    22249865.848
        42.900          33.300
 116790923.907 7  91005936.28345  22224573.977                    22224580.383
        46.300          35.500
 115145868.873 8  89724063.81546  21911531.430                    21911533.637
        48.000          36.500
 120204262.505 7  93665678.28444  22874111.570                    22874114.164
        47.000          29.600
 18  3 11 12  8  2.0000000  0 16R05R13G08R04G17R14R21R12R22G28G11G01
                                G10G24G15G13
                  85775588.511 5  20630698.141                    20630699.555
                        34.700
                  80382655.391 6  19353973.516                    19353973.734
                        39.800
 125507728.709 6  97798284.86744  23883334.227                    23883340.484
        39.900          25.800
                  84896963.424 6  20383600.977                    20383600.691
                        41.900
 126993283.401 7  98955839.66044  24166023.313                    24166027.797
        45.100          25.400
                  86299503.611 6  20815159.266                    20815161.082
                        41.700
                  88777930.921 7  21330361.727                    21330361.102
                        42.000
                                  22739417.391

                  85673680.860 6  20635159.070                    20635160.070
                        41.800
 113776383.082 7  88656930.57245  21650926.422                    21650928.434
        46.500          34.400
 119422146.057 7  93056229.13644  22725279.578                    22725282.414
        46.300          28.600
 124755747.879 7  97212288.07744  23740230.297                    23740236.473
        43.000          26.900
 116923386.351 7  91109150.01345  22249782.305                    22249786.973
        43.600          32.700
 116788422.732 7  91003987.32345  22224098.461                    22224104.227
        46.200          35.500
 115148391.144 7  89726029.22246  21912010.508                    21912014.227
        47.800          36.800
 120208003.226 7  93668593.14144  22874823.297                    22874825.520
        46.700          28.800
 18  3 11 12  8  3.0000000  0 16R05R13G08R04G17R14R21R12R22G28G11G01
                                G10G24G15G13
                  85774349.397 5  20630399.922                    20630401.457
                        34.900
                  80383447.317 6  19354164.188                    19354164.711
                        39.800
 125511145.040 6  97800946.93144  23883984.016                    23883990.625
        40.800          26.900
                  84899048.880 7  20384101.313                    20384101.824
                        42.200
 126990266.022 7  98953488.44944  24165449.188                    24165453.758
        45.000          25.100
                  86297178.382 6  20814598.219                    20814600.016
                        41.800
                  88780314.106 6  21330934.227                    21330933.559
                        41.900
                                  22740293.234

                  85672563.124 6  20634889.984                    20634891.152
                        41.900
 113777985.161 7  88658178.95045  21651231.117                    21651233.637
        46.800          34.600
 119421000.170 7  93055336.23444  22725061.555                    22725064.371
        46.200          28.500
 124753092.502 7  97210218.94544  23739724.391                    23739731.453
        43.800          27.200
 116922973.188 7  91108828.06845  22249703.766                    22249708.406
        44.600          34.000
 116785922.036 7  91002038.72545  22223621.773                    22223628.047
        45.800          35.200
 115150914.010 7  89727995.09046  21912489.672                    21912493.953
        47.500          36.100
 120211744.324 7  93671508.29144  22875533.992                    22875537.371
        46.000          27.100
 18  3 11 12  8  4.0000000  0 16R05R13G08R04G17R14R21R12R22G28G11G01
                                G10G24G15G13
                  85773110.865 5  20630100.875                    20630103.348
                        35.100
                  80384239.884 6  19354355.039                    19354356.133
                        39.900
 125514561.785 6  97803609.32044  23884634.922                    23884641.152
        41.400          26.300
                  84901134.953 7  20384602.023                    20384602.703
                        42.300
 126987248.885 7  98951137.42844  24164874.961                    24164879.355
        45.300          25.600
                  86294853.547 6  20814037.305                    20814039.086
                        41.800
                  88782697.860 7  21331506.961                    21331506.516
                        42.100
                                  22741170.867

                  85671446.073 7  20634621.063                    20634621.891
                        42.200
 113779587.786 7  88659427.74745  21651536.289                    21651538.574
        47.100          34.700
 119419854.944 7  93054443.84544  22724843.445                    22724846.418
        45.700          29.900
 124750437.549 7  97208150.14844  23739219.313                    23739226.242
        44.300          27.400
 116922560.701 7  91108506.63845  22249624.891                    22249630.098
        45.100          34.000
 116783421.737 7  91000090.43945  22223146.141                    22223152.777
        46.100          35.500
 115153437.407 8  89729961.36545  21912971.727                    21912974.238
        48.800          35.600
 120215485.766 7  93674423.71744  22876245.844                    22876249.281
        45.400          26.600
 18  3 11 12  8  5.0000000  0 16R05R13G08R04G17R14R21R12R22G28G11G01
                                G10G24G15G13
                  85771873.093 5  20629804.117                    20629805.973
                        35.300
                  80385033.187 6  19354546.211                    19354546.414
                        39.900
 125517978.973 6  97806272.04844  23885285.414                    23885291.574
        41.100          26.000
                  84903221.705 7  20385102.977                    20385103.387
                        42.000
 126984232.091 7  98948786.68644  24164301.320                    24164304.809
        45.500          27.200
                  86292529.233 6  20813476.727                    20813479.059
                        41.800
                  88785082.273 7  21332078.602                    21332080.031
                        42.300
                                  22742048.328

                  85670329.775 7  20634350.961                    20634353.082
                        42.000
 113781191.027 7  88660677.02645  21651841.023                    21651843.594
        47.100          34.600
 119418710.477 7  93053552.04344  22724625.164                    22724628.426
        45.300          29.000
 124747783.132 7  97206081.77244  23738713.844                    23738721.496
        44.000          26.600
 116922148.971 7  91108185.79145  22249546.320                    22249551.875
        45.300          34.400
 116780921.946 7  90998142.55645  22222671.047                    22222677.164
        46.200          35.900
 115155961.466 8  89731928.15846  21913451.039                    21913454.617
        48.900          36.100
 120219227.651 7  93677339.48944  22876957.328                    22876961.246
        44.500          25.000
 18  3 11 12  8  6.0000000  0 16R05R13G08R04G17R14R21R12R22G28G11G01
                                G10G24G15G13
                  85770635.991 5  20629506.945                    20629508.438
                        34.700
                  80385827.140 6  19354737.258                    19354737.563
                        39.600
 125521396.537 6  97808935.07744  23885935.141                    23885941.871
        41.400          26.900
                  84905309.038 6  20385604.617                    20385604.883
                        41.800
 126981215.546 7  98946436.12344  24163727.211                    24163730.832
        45.900          25.200
                  86290205.330 7  20812916.102                    20812918.094
                        42.000
                  88787467.293 7  21332650.320                    21332653.082
                        42.200
                                  22742926.125

                  85669214.163 6  20634083.156                    20634084.105
                        41.700
 113782794.792 7  88661926.71145  21652146.461                    21652148.867
        46.100          34.500
 119417566.709 7  93052660.79144  22724407.930                    22724411.137
        45.700          28.500
 124745129.155 7  97204013.73544  23738208.875                    23738216.637
        43.600          26.800
 116921737.932 7  91107865.48345  22249468.047                    22249473.539
        45.800          34.400
 116778422.651 7  90996195.04645  22222195.117                    22222201.215
        46.000          35.300
 115158486.083 8  89733895.39845  21913931.602                    21913935.035
        48.800          35.700
 120222969.932 7  93680255.57043  22877668.750                    22877673.078
        43.400          23.300
 18  3 11 12  8  7.0000000  0 16R05R13G08R04G17R14R21R12R22G28G11G01
                                G10G24G15G13
                  85769399.508 5  20629210.977                    20629210.621
                        35.100
                  80386621.761 6  19354928.031                    19354928.875
                        40.200
 125524814.526 7  97811598.43844  23886586.344                    23886592.703
        42.300          26.300
                  84907396.975 6  20386105.461                    20386105.816
                        41.900
 126978199.234 7  98944085.74544  24163153.211                    24163156.922
        45.400          26.400
                  86287881.837 6  20812355.648                    20812357.699
                        41.900
                  88789852.894 6  21333222.836                    21333226.527
                        41.900
                                  22743806.688

                  85668099.251 7  20633815.094                    20633815.906
                        42.200
 113784399.091 7  88663176.81745  21652451.586                    21652454.254
        46.300          34.500
 119416423.604 7  93051770.05344  22724190.570                    22724193.535
        45.800          28.800
 124742475.618 7  97201946.05344  23737703.602                    23737711.293
        43.400          26.400
 116921327.583 7  91107545.71645  22249389.336                    22249395.488
        46.000          33.900
 116775923.812 7  90994247.89945  22221719.398                    22221725.746
        45.900          35.200
 115161011.259 8  89735863.07045  21914412.398                    21914415.723
        48.800          35.500
 120226712.551 7  93683171.91844  22878380.039                    22878384.691
        42.000          24.100
 18  3 11 12  8  8.0000000  0 16R05R13G08R04G17R14R21R12R22G28G11G01
                                G10G24G15G13
                  85768163.731 5  20628913.180                    20628913.770
                        34.900
                  80387417.113 6  19355120.328                    19355120.625
                        39.500
 125528232.966 7  97814262.14944  23887236.375                    23887242.719
        42.100          26.800
                  84909485.589 6  20386607.453                    20386607.313
                        41.900
 126975183.282 7  98941735.65144  24162579.516                    24162582.742
        45.700          27.500
                  86285558.813 6  20811795.250                    20811797.402
                        41.700
                  88792239.157 7  21333795.742                    21333799.961
                        42.000
                                  22744680.422

                  85666985.076 7  20633546.414                    20633548.168
                        42.000
 113786004.040 7  88664427.43245  21652756.977                    21652759.594
        46.300          33.700
 119415281.270 7  93050879.92344  22723972.953                    22723975.992
        46.200          28.500
 124739822.632 7  97199878.78744  23737199.438                    23737206.781
        43.300          26.200
 116920918.023 7  91107226.57645  22249311.234                    22249317.652
        45.800          33.300
 116773425.515 7  90992301.17945  22221243.313                    22221250.277
        45.800          35.100
 115163537.084 7  89737831.26545  21914891.852                    21914896.426
        47.300          35.300
 120230455.612 6  93686088.59443  22879091.797                    22879096.977
        40.200          22.900
 18  3 11 12  8  9.0000000  0 16R05R13G08R04G17R14R21R12R22G28G11G01
                                G10G24G15G13
                  85766928.582 5  20628613.766                    20628616.754
                        34.800
                  80388213.114 6  19355311.953                    19355312.000
                        39.400
 125531651.797 7  97816926.18244  23887887.328                    23887893.441
        42.400          26.000
                  84911574.837 7  20387109.180                    20387108.723
                        42.300
 126972167.569 7  98939385.73744  24162005.922                    24162008.895
        46.100          27.900
                  86283236.206 6  20811234.719                    20811237.199
                        41.700
                  88794625.965 6  21334371.891                    21334373.328
                        41.600
                                  22745559.789

                  85665871.587 7  20633278.555                    20633279.758
                        42.000
 113787609.502 7  88665678.43445  21653062.820                    21653065.273
        46.600          34.000
 119414139.625 7  93049990.32744  22723756.055                    22723758.480
        46.300          28.300
 124737170.060 7  97197811.85043  23736694.227                    23736701.648
        42.500          23.300
 116920509.143 7  91106907.96845  22249233.227                    22249239.957
        45.300          34.000
 116770927.676 7  90990354.81545  22220769.086                    22220775.027
        45.600          35.300
 115166063.496 7  89739799.89245  21915373.352                    21915376.730
        47.700          34.900
 120234199.075 6  93689005.57443  22879804.031                    22879808.848
        39.700          22.600
 18  3 11 12  8 10.0000000  0 16R05R13G08R04G17R14R21R12R22G28G11G01
                                G10G24G15G13
                  85765694.081 5  20628316.906                    20628319.250
                        34.600
                  80389009.786 6  19355503.484                    19355503.309
                        39.600
 125535071.004 7  97819590.50344  23888538.141                    23888544.367
        42.200          24.000
                  84913664.763 6  20387610.594                    20387610.617
                        41.800
 126969152.142 7  98937036.04944  24161431.641                    24161435.238
        46.400          27.700
                  86280914.046 6  20810675.266                    20810677.074
                        41.900
                  88797013.360 6  21334947.000                    21334947.406
                        41.300
                                  22746437.445

                  85664758.813 6  20633009.438                    20633011.195
                        41.900
 113789215.523 7  88666929.88345  21653368.000                    21653370.242
        46.600          34.200
 119412998.726 7  93049101.31044  22723538.313                    22723541.559
        45.700          28.400
 124734517.972 6  97195745.28444  23736188.789                    23736197.039
        41.700          25.200
 116920100.935 7  91106589.88245  22249155.367                    22249162.203
        44.800          33.500
 116768430.298 7  90988408.80545  22220293.898                    22220299.488
        45.500          35.200
 115168590.447 8  89741768.94145  21915854.969                    21915857.934
        48.100          35.500
 120237942.881 6  93691922.81743  22880516.297                    22880521.020
        39.100          22.800
 18  3 11 12  8 11.0000000  0 16R05R13G08R04G17R14R21R12R22G28G11G01
                                G10G24G15G13
                  85764460.295 5  20628020.344                    20628022.660
                        34.000
                  80389807.128 6  19355695.797                    19355696.176
                        39.900
 125538490.640 7  97822255.16544  23889188.906                    23889194.934
        42.700          25.600
                  84915755.359 6  20388112.234                    20388112.977
                        41.900
 126966136.971 7  98934686.56344  24160858.125                    24160861.352
        46.100          26.600
                  86278592.311 6  20810115.063                    20810117.262
                        41.500
                  88799401.366 6  21335521.094                    21335521.379
                        41.200
                                  22747314.117

                  85663646.739 7  20632742.133                    20632743.168
                        42.100
 113790822.141 7  88668181.78645  21653673.523                    21653676.301
        47.400          34.400
 119411858.494 7  93048212.81244  22723321.195                    22723324.977
        45.800          28.700
 124731866.330 6  97193679.07243  23735684.281                    23735692.492
        40.900          22.600
 116919693.454 7  91106272.36245  22249077.766                    22249084.949
        44.500          33.600
 116765933.408 7  90986463.17945  22219818.641                    22219824.402
        46.000          35.200
 115171118.021 7  89743738.49146  21916334.117                    21916339.305
        46.600          36.000
 120241687.126 6  93694840.38744  22881230.500                    22881233.719
        39.200          24.900
 18  3 11 12  8 12.0000000  0 16R05R13G08R04G17R14R21R12R22G28G11G01
                                G10G24G15G13
                  85763227.142 5  20627724.203                    20627725.922
                        34.700
                  80390605.146 6  19355888.031                    19355888.598
                        39.500
 125541910.682 6  97824920.14344  23889839.633                    23889845.816
        41.800          24.800
                  84917846.544 6  20388615.117                    20388615.043
                        41.800
 126963122.059 7  98932337.28144  24160284.297                    24160287.613
        46.300          26.800
                  86276271.030 6  20809554.844                    20809557.113
                        41.600
                  88801789.963 6  21336094.711                    21336094.375
                        41.300
                                  22748194.070

                  85662535.374 6  20632474.609                    20632475.723
                        41.900
 113792429.280 7  88669434.10545  21653979.781                    21653982.051
        47.700          34.900
 119410718.980 7  93047324.86944  22723104.258                    22723108.203
        45.100          28.900
 124729215.133 6  97191613.20743  23735179.727                    23735187.824
        41.000          22.500
 116919286.660 7  91105955.38645  22249000.320                    22249007.203
        44.300          34.000
 116763436.969 7  90984517.90345  22219343.617                    22219349.668
        46.300          34.800
 115173646.194 7  89745708.48945  21916816.594                    21916819.465
        47.100          35.900
 120245431.693 6  93697758.20343  22881944.281                    22881946.270
        40.200          23.800
 18  3 11 12  8 13.0000000  0 16R05R13G08R04G17R14R21R12R22G28G11G01
                                G10G24G15G13
                  85761994.651 5  20627428.141                    20627429.598
                        35.000
                  80391403.830 6  19356079.477                    19356080.348
                        39.600
 125545331.130 6  97827585.44444  23890490.117                    23890496.387
        41.300          26.100
                  84919938.354 6  20389117.313                    20389117.355
                        41.500
 126960107.424 7  98929988.21544  24159711.055                    24159714.043
        46.200          27.700
                  86273950.159 6  20808994.391                    20808997.414
                        41.400
                  88804179.168 6  21336667.523                    21336668.090
                        41.500
                                  22749067.977

                  85661424.716 6  20632207.422                    20632208.367
                        41.800
 113794036.970 7  88670686.85245  21654285.359                    21654287.871
        47.000          33.900
 119409580.133 7  93046437.45244  22722886.758                    22722891.184
        44.300          28.100
 124726564.393 6  97189547.71543  23734675.352                    23734682.727
        40.000          22.800
 116918880.604 7  91105638.98345  22248923.070                    22248930.012
        43.800          33.600
 116760940.983 7  90982572.97845  22218867.992                    22218874.633
        46.800          35.400
 115176174.888 7  89747678.88246  21917298.617                    21917300.797
        47.900          36.000
 120249176.622 6  93700676.30144  22882657.438                    22882659.020
        40.900          25.800
 18  3 11 12  8 14.0000000  0 16R05R13G08R04G17R14R21R12R22G28G11G01
                                G10G24G15G13
                  85760762.840 5  20627131.773                    20627133.902
                        35.000
                  80392203.214 6  19356272.242                    19356272.973
                        39.400
 125548751.979 6  97830251.04444  23891141.047                    23891147.691
        40.500          25.400
                  84922030.799 6  20389618.672                    20389619.969
                        41.700
 126957093.096 7  98927639.39344  24159137.039                    24159140.453
        45.900          27.000
                  86271629.750 6  20808435.570                    20808437.891
                        41.200
                  88806569.007 6  21337241.078                    21337242.691
                        41.600
                                  22749950.344

                  85660314.796 7  20631939.695                    20631940.930
                        42.300
 113795645.247 7  88671940.05845  21654591.438                    21654593.922
        47.200          34.600
 119408442.040 7  93045550.63844  22722670.195                    22722674.379
        44.600          27.600
 124723914.145 6  97187482.58843  23734171.461                    23734178.469
        40.500          22.500
 116918475.264 7  91105323.14845  22248846.156                    22248852.461
        44.100          34.400
 116758445.518 7  90980628.46145  22218394.117                    22218400.082
        46.700          35.200
 115178704.205 7  89749649.77346  21917778.875                    21917782.492
        47.600          36.100
 120252921.959 6  93703594.72744  22883370.570                    22883371.816
        41.700          26.700
 18  3 11 12  8 15.0000000  0 16R05R13G08R04G17R14R21R12R22G28G11G01
                                G10G24G15G13
                  85759531.699 5  20626835.406                    20626837.242
                        35.400
                  80393003.290 6  19356465.313                    19356466.180
                        39.600
 125552173.265 6  97832916.97244  23891792.063                    23891798.449
        41.100          25.900
                  84924123.891 6  20390121.211                    20390122.152
                        41.900
 126954079.024 7  98925290.77044  24158563.750                    24158566.828
        45.800          26.800
                  86269309.773 6  20807875.750                    20807877.898
                        41.500
                  88808959.479 6  21337814.336                    21337816.242
                        41.900
                                  22750827.109

                  85659205.575 7  20631671.977                    20631674.020
                        42.200
 113797254.115 7  88673193.72145  21654897.758                    21654900.043
        47.700          35.100
 119407304.659 7  93044664.38744  22722453.852                    22722457.875
        44.700          28.400
 124721264.399 6  97185417.86244  23733667.133                    23733673.789
        40.900          25.600
 116918070.640 7  91105007.85845  22248769.758                    22248775.742
        43.900          34.400
 116755950.514 7  90978684.30145  22217918.625                    22217924.773
        46.800          35.500
 115181234.134 8  89751621.14645  21918260.656                    21918263.629
        48.500          35.900
 120256667.672 7  93706513.45344  22884084.102                    22884084.629
        42.900          27.200
 18  3 11 12  8 16.0000000  0 16R05R13G08R04G17R14R21R12R22G28G11G01
                                G10G24G15G13
                  85758301.235 5  20626539.219                    20626541.668
                        34.600
                  80393804.022 6  19356657.961                    19356658.398
                        39.600
 125555594.957 6  97835583.22844  23892442.445                    23892449.703
        40.800          24.800
                  84926217.608 6  20390623.695                    20390625.254
                        41.800
 126951065.236 7  98922942.36344  24157989.914                    24157993.434
        46.000          27.900
                  86266990.221 6  20807316.219                    20807318.590
                        41.500
                  88811350.525 7  21338389.125                    21338390.727
                        42.000
                                  22751702.336

                  85658097.056 7  20631405.508                    20631407.063
                        42.300
 113798863.497 7  88674447.78445  21655204.227                    21655206.691
        47.900          34.800
 119406167.978 7  93043778.66544  22722237.766                    22722241.387
        44.900          28.100
 124718615.083 6  97183353.46244  23733163.422                    23733169.789
        40.800          24.500
 116917666.708 7  91104693.11145  22248693.211                    22248698.832
        44.500          34.700
 116753455.951 7  90976740.48745  22217443.734                    22217450.422
        46.600          35.900
 115183764.616 8  89753592.95545  21918742.430                    21918745.648
        49.200          35.900
 120260413.742 7  93709432.47244  22884796.922                    22884797.973
        43.800          28.300
 18  3 11 12  8 17.0000000  0 16R05R13G08R04G17R14R21R12R22G28G11G01
                                G10G24G15G13
                  85757071.450 5  20626244.164                    20626245.727
                        35.300
                  80394605.447 6  19356851.117                    19356851.129
                        39.600
 125559017.070 6  97838249.80044  23893094.297                    23893101.051
        40.400          25.400
                  84928311.982 6  20391127.055                    20391127.840
                        41.800
 126948051.735 7  98920594.17744  24157416.297                    24157419.996
        45.400          27.000
                  86264671.160 6  20806757.367                    20806758.980
                        41.500
                  88813742.146 6  21338964.969                    21338965.641
                        41.900
                                  22752582.664

                  85656989.259 7  20631139.719                    20631139.934
                        42.300
 113800473.503 7  88675702.33845  21655510.227                    21655513.133
        47.900          35.700
 119405032.025 7  93042893.51544  22722022.164                    22722025.254
        45.100          28.500
 124715966.262 6  97181289.44844  23732659.211                    23732665.246
        41.500          24.900
 116917263.515 7  91104378.93845  22248616.445                    22248621.961
        44.700          34.000
 116750961.897 7  90974797.06945  22216969.086                    22216975.969
        46.500          35.200
 115186295.724 8  89755565.25545  21919222.969                    21919226.891
        48.800          35.400
 120264160.228 7  93712351.81644  22885510.547                    22885511.254
        44.800          29.300
 18  3 11 12  8 18.0000000  0 16R05R13G08R04G17R14R21R12R22G28G11G01
                                G10G24G15G13
                  85755842.365 5  20625949.242                    20625949.875
                        34.900
                  80395407.609 6  19357043.336                    19357044.723
                        39.600
 125562439.634 6  97840916.72944  23893745.508                    23893752.332
        40.300          25.400
                  84930407.034 6  20391629.883                    20391631.039
                        41.400
 126945038.558 7  98918246.25244  24156843.016                    24156846.590
        45.000          27.900
                  86262352.547 6  20806198.141                    20806200.012
                        41.800
                  88816134.438 6  21339540.500                    21339540.824
                        41.900
                                  22753459.813

                  85655882.200 7  20630871.781                    20630873.730
                        42.100
 113802084.108 7  88676957.35145  21655816.891                    21655819.191
        47.500          35.300
 119403896.855 7  93042008.96844  22721807.211                    22721809.461
        45.900          28.600
 124713317.970 6  97179225.83744  23732155.961                    23732161.406
        41.800          25.600
 116916861.101 7  91104065.36645  22248539.148                    22248545.660
        44.000          33.900
 116748468.408 7  90972854.08945  22216494.867                    22216501.230
        46.500          35.000
 115188827.471 8  89757538.04545  21919706.211                    21919708.359
        49.900          35.800
 120267907.120 7  93715271.47445  22886223.305                    22886224.230
        45.800          30.500
 18  3 11 12  8 19.0000000  0 16R05R13G08R04G17R14R21R12R22G28G11G01
                                G10G24G15G13
                  85754613.832 5  20625652.430                    20625654.941
                        35.100
                  80396210.343 6  19357236.891                    19357237.824
                        39.600
 125565862.537 6  97843583.92144  23894396.594                    23894403.309
        40.000          24.000
                  84932502.630 6  20392133.477                    20392133.809
                        41.600
 126942025.549 7  98915898.46844  24156269.000                    24156273.328
        45.000          26.900
                  86260034.307 7  20805638.336                    20805640.824
                        42.100
                  88818527.272 7  21340115.117                    21340116.004
                        42.100
                                  22754338.422

                  85654775.773 7  20630605.008                    20630606.211
                        42.100
 113803695.180 7  88678212.73245  21656123.508                    21656125.887
        47.600          35.000
 119402762.276 7  93041124.88044  22721591.844                    22721593.508
        46.000          27.900
 124710670.058 7  97177162.53544  23731651.680                    23731657.469
        42.800          24.800
 116916459.289 7  91103752.27045  22248462.758                    22248469.113
        44.600          33.900
 116745975.224 7  90970911.35445  22216020.320                    22216026.688
        46.700          35.200
 115191359.667 8  89759511.18845  21920187.422                    21920190.934
        49.900          35.800
 120271654.309 7  93718191.36445  22886936.539                    22886937.902
        46.100          31.400
 18  3 11 12  8 20.0000000  0 16R05R13G08R04G17R14R21R12R22G28G11G01
                                G10G24G15G13
                  85753385.983 5  20625356.156                    20625359.176
                        35.500
                  80397013.787 6  19357430.453                    19357431.203
                        39.600
 125569285.872 6  97846251.45844  23895047.930                    23895055.066
        40.200          24.400
                  84934598.926 6  20392636.953                    20392636.848
                        41.800
 126939012.855 7  98913550.92244  24155696.336                    24155700.469
        44.900          27.200
                  86257716.497 6  20805079.500                    20805081.590
                        41.900
                  88820920.696 7  21340689.180                    21340691.094
                        42.100
                                  22755217.813

                  85653670.093 7  20630339.391                    20630340.047
                        42.300
 113805306.842 7  88679468.57145  21656430.141                    21656432.703
        47.800          34.700
 119401628.465 7  93040241.37144  22721376.039                    22721378.023
        46.500          28.300
 124708022.648 7  97175099.61244  23731147.938                    23731154.023
        43.300          26.900
 116916058.233 7  91103439.75145  22248386.781                    22248392.520
        44.800          33.500
 116743482.580 7  90968969.03445  22215545.711                    22215552.324
        46.300          35.000
 115193892.547 7  89761484.88045  21920667.133                    21920673.035
        47.500          35.700
 120275401.908 7  93721111.57045  22887649.492                    22887651.023
        46.500          32.000
 18  3 11 12  8 21.0000000  0 16R05R13G08R04G17R14R21R12R22G28G11G01
                                G10G24G15G13
                  85752158.813 5  20625061.086                    20625063.543
                        34.800
                  80397817.894 6  19357623.766                    19357624.441
                        39.300
 125572709.590 6  97848919.27844  23895699.430                    23895706.512
        40.500          25.300
                  84936695.832 6  20393140.594                    20393140.457
                        41.800
 126936000.401 7  98911203.55544  24155122.914                    24155126.953
        45.100          25.400
                  86255399.144 6  20804520.703                    20804522.645
                        41.700
                  88823314.714 6  21341262.953                    21341266.813
                        41.900
                                  22756094.828

                  85652565.090 7  20630072.656                    20630074.273
                        42.300
 113806919.040 7  88680724.83345  21656736.789                    21656739.500
        47.300          34.400
 119400495.316 7  93039358.38744  22721159.938                    22721162.156
        46.400          28.700
 124705375.690 7  97173037.04544  23730643.742                    23730650.242
        43.300          26.700
 116915657.840 7  91103127.75945  22248310.547                    22248316.547
        45.100          34.200
 116740990.354 7  90967027.03745  22215071.781                    22215078.582
        46.300          35.100
 115196425.972 8  89763458.96845  21921151.172                    21921154.215
        49.100          35.900
 120279149.844 7  93724032.04545  22888362.391                    22888364.602
        46.600          31.600
 18  3 11 12  8 22.0000000  0 16R05R13G08R04G17R14R21R12R22G28G11G01
                                G10G24G15G13
                  85750932.344 5  20624768.031                    20624768.797
                        34.700
                  80398622.688 6  19357818.289                    19357818.313
                        39.600
 125576133.737 6  97851587.42644  23896351.031                    23896358.336
        40.200          24.600
                  84938793.366 6  20393644.211                    20393644.156
                        41.800
 126932988.248 7  98908856.42644  24154549.695                    24154553.699
        45.200          26.700
                  86253082.259 6  20803962.477                    20803964.277
                        41.400
                  88825709.382 6  21341838.789                    21341841.844
                        41.400
                                  22756972.656

                  85651460.824 7  20629808.047                    20629808.691
                        42.100
 113808531.848 7  88681981.56945  21657043.969                    21657046.246
        47.100          34.200
 119399362.911 7  93038475.98544  22720943.992                    22720946.523
        46.300          28.500
 124702729.209 7  97170974.84544  23730140.453                    23730146.520
        43.700          26.700
 116915258.187 7  91102816.34345  22248235.203                    22248240.223
        44.900          33.700
 116738498.626 7  90965085.43545  22214597.844                    22214603.934
        46.300          35.700
 115198959.961 8  89765433.49545  21921633.570                    21921636.910
        49.100          35.600
 120282898.199 7  93726952.85045  22889075.438                    22889078.223
        46.800          31.800
 18  3 11 12  8 23.0000000  0 16R05R13G08R04G17R14R21R12R22G28G11G01
                                G10G24G15G13
                  85749706.529 5  20624473.969                    20624474.039
                        34.500
                  80399428.193 6  19358012.117                    19358012.195
                        39.400
 125579558.286 6  97854255.90244  23897003.344                    23897009.555
        40.500          25.800
                  84940891.524 6  20394147.961                    20394148.336
                        41.700
 126929976.366 7  98906509.51744  24153976.094                    24153980.676
        44.500          25.700
                  86250765.775 6  20803402.813                    20803405.285
                        41.700
                  88828104.674 6  21342415.961                    21342416.281
                        41.200
                                  22757850.195

                  85650357.274 7  20629541.000                    20629542.238
                        42.300
 113810145.200 7  88683238.72645  21657351.070                    21657353.238
        47.200          34.500
 119398231.221 7  93037594.15044  22720728.094                    22720730.953
        46.500          28.300
 124700083.192 7  97168913.01944  23729636.727                    23729643.438
        44.800          27.900
 116914859.249 7  91102505.48045  22248158.711                    22248164.750
        45.000          33.500
 116736007.379 7  90963144.20545  22214124.102                    22214130.297
        46.300          35.700
 115201494.600 7  89767408.55145  21922114.188                    21922119.316
        46.900          35.500
 120286646.933 7  93729873.94245  22889788.766                    22889791.703
        47.000          31.500
 18  3 11 12  8 24.0000000  0 16R05R13G08R04G17R14R21R12R22G28G11G01
                                G10G24G15G13
                  85748481.379 5  20624178.180                    20624179.754
                        35.200
                  80400234.402 6  19358206.047                    19358206.578
                        39.500
 125582983.264 6  97856924.72144  23897654.523                    23897661.074
        40.800          25.700
                  84942990.376 6  20394651.555                    20394652.063
                        41.700
 126926964.833 7  98904162.88144  24153402.688                    24153407.516
        44.800          26.800
                  86248449.771 6  20802844.688                    20802846.438
                        41.700
                  88830500.535 6  21342993.094                    21342991.703
                        41.600
                                  22758732.055

                  85649254.478 6  20629275.469                    20629277.211
                        41.900
 113811759.172 7  88684496.36645  21657657.984                    21657660.594
        47.500          35.000
 119397100.293 7  93036712.90944  22720513.133                    22720516.176
        46.100          28.900
 124697437.713 7  97166851.59844  23729133.313                    23729140.410
        44.800          28.300
 116914461.096 7  91102195.23145  22248082.719                    22248088.949
        45.500          33.500
 116733516.682 7  90961203.39945  22213649.414                    22213655.723
        46.200          35.500
 115204029.895 7  89769384.09345  21922598.320                    21922601.203
        47.800          35.800
 120290396.075 7  93732795.35145  22890501.563                    22890505.418
        46.900          30.000
 18  3 11 12  8 25.0000000  0 16R05R13G08R04G17R14R21R12R22G28G11G01
                                G10G24G15G13
                  85747256.913 5  20623882.820                    20623884.754
                        34.700
                  80401041.283 6  19358400.156                    19358401.059
                        39.500
 125586408.699 6  97859593.88244  23898306.539                    23898312.918
        40.900          26.200
                  84945089.860 6  20395155.164                    20395155.758
                        41.700
 126923953.548 7  98901816.43144  24152830.125                    24152834.512
        44.700          25.400
                  86246134.219 6  20802286.258                    20802288.598
                        41.600
                  88832896.990 6  21343568.977                    21343568.066
                        41.800
                                  22759610.539

                  85648152.395 7  20629010.328                    20629011.867
                        42.000
 113813373.685 7  88685754.42345  21657965.695                    21657967.809
        47.200          34.300
 119395970.063 7  93035832.20244  22720297.727                    22720301.359
        45.200          29.100
 124694792.699 7  97164790.55044  23728629.828                    23728637.055
        44.700          29.000
 116914063.661 7  91101885.54345  22248007.031                    22248013.180
        45.600          33.500
 116731026.433 7  90959262.94445  22213175.672                    22213181.887
        46.300          35.300
 115206565.710 8  89771360.04246  21923081.313                    21923083.953
        48.400          36.100
 120294145.617 7  93735717.07444  22891215.023                    22891219.230
        46.600          29.900
 18  3 11 12  8 26.0000000  0 16R05R13G08R04G17R14R21R12R22G28G11G01
                                G10G24G15G13
                  85746033.073 5  20623588.711                    20623590.566
                        34.600
                  80401848.814 6  19358594.227                    19358595.461
                        39.400
 125589834.463 6  97862263.30444  23898958.539                    23898964.930
        41.400          26.500
                  84947189.971 6  20395659.469                    20395659.707
                        41.700
 126920942.495 7  98899470.15944  24152257.406                    24152261.410
        45.000          26.800
                  86243819.056 6  20801727.734                    20801730.027
                        41.500
                  88835294.027 7  21344144.352                    21344144.652
                        42.000
                                  22760485.641

                  85647050.990 6  20628745.625                    20628746.344
                        41.700
 113814988.730 7  88687012.89845  21658272.531                    21658275.348
        47.500          34.000
 119394840.506 7  93034952.01444  22720081.773                    22720086.340
        44.500          28.600
 124692148.114 7  97162729.82144  23728126.586                    23728134.531
        44.300          28.300
 116913666.863 7  91101576.34245  22247931.719                    22247937.426
        46.100          33.500
 116728536.618 7  90957322.82745  22212702.039                    22212708.473
        46.400          35.100
 115209102.083 8  89773336.43945  21923563.156                    21923566.395
        48.000          35.500
 120297895.478 7  93738639.04144  22891928.000                    22891932.297
        46.100          29.700
 18  3 11 12  8 27.0000000  0 16R05R13G08R04G17R14R21R12R22G28G11G01
                                G10G24G15G13
                  85744809.956 5  20623294.898                    20623296.758
                        34.600
                  80402657.057 6  19358789.234                    19358789.984
                        39.500
 125593260.704 6  97864933.10544  23899610.836                    23899616.980
        41.300          25.300
                  84949290.745 6  20396164.578                    20396164.840
                        41.900
 126917931.779 7  98897124.15144  24151684.453                    24151688.141
        45.300          25.800
                  86241504.383 6  20801169.133                    20801171.980
                        41.900
                  88837691.741 7  21344718.695                    21344721.488
                        42.400
                                  22761365.961

                  85645950.294 6  20628479.211                    20628481.488
                        41.700
 113816604.362 7  88688271.83545  21658580.289                    21658582.672
        47.300          34.600
 119393711.696 7  93034072.41444  22719866.766                    22719871.609
        43.800          28.200
 124689504.031 7  97160669.48544  23727623.648                    23727631.348
        43.900          28.400
 116913270.843 7  91101267.74745  22247855.820                    22247862.273
        46.000          33.500
 116726047.305 7  90955383.10745  22212228.594                    22212234.609
        46.500          35.100
 115211639.092 8  89775313.32746  21924047.164                    21924049.684
        49.000          36.200
 120301645.787 7  93741561.34944  22892640.477                    22892646.258
        45.100          27.400
 18  3 11 12  8 28.0000000  0 16R05R13G08R04G17R14R21R12R22G28G11G01
                                G10G24G15G13
                  85743587.458 5  20623000.445                    20623002.652
                        34.600
                  80403465.938 6  19358984.039                    19358984.988
                        39.300
 125596687.316 6  97867603.20244  23900262.820                    23900269.047
        41.300          26.500
                  84951392.122 6  20396669.008                    20396669.172
                        41.700
 126914921.259 7  98894778.29344  24151111.852                    24151115.250
        45.800          25.800
                  86239190.091 6  20800610.867                    20800613.387
                        41.600
                  88840089.986 7  21345294.305                    21345297.500
                        42.300
                                  22762244.594

                  85644850.283 6  20628214.438                    20628216.461
                        41.800
 113818220.519 7  88689531.18245  21658887.563                    21658889.820
        47.000          34.200
 119392583.510 7  93033193.31844  22719651.852                    22719656.777
        43.700          29.000
 124686860.333 7  97158609.45444  23727120.125                    23727128.395
        42.900          27.100
 116912875.449 7  91100959.64045  22247780.875                    22247787.371
        44.800          33.500
 116723558.430 7  90953443.72045  22211754.688                    22211761.008
        46.500          35.000
 115214176.601 8  89777290.60545  21924529.430                    21924532.422
        48.300          35.800
 120305396.396 7  93744483.89644  22893353.992                    22893359.977
        44.300          27.700
 18  3 11 12  8 29.0000000  0 16R05R13G08R04G17R14R21R12R22G28G11G01
                                G10G24G15G13
                  85742365.623 5  20622706.492                    20622708.441
                        34.200
                  80404275.470 6  19359178.500                    19359179.730
                        39.600
 125600114.292 6  97870273.57444  23900914.750                    23900921.063
        41.300          26.000
                  84953494.073 6  20397174.008                    20397174.020
                        41.900
 126911911.032 7  98892432.65544  24150538.617                    24150542.316
        46.200          26.800
                  86236876.231 6  20800052.938                    20800055.711
                        41.200
                  88842488.833 6  21345870.055                    21345874.141
                        41.500
                                  22763119.922

                  85643750.957 6  20627949.789                    20627951.406
                        41.800
 113819837.201 7  88690790.93145  21659195.500                    21659197.973
        47.200          34.600
 119391456.036 7  93032314.78444  22719438.352                    22719441.996
        43.800          28.900
 124684217.106 6  97156549.80744  23726616.602                    23726625.367
        41.800          25.600
 116912480.771 7  91100652.08945  22247705.070                    22247711.953
        44.600          33.400
 116721070.002 7  90951504.68745  22211280.977                    22211287.434
        45.900          35.200
 115216714.718 8  89779268.37246  21925011.547                    21925015.273
        48.000          36.400
 120309147.375 7  93747406.73244  22894067.297                    22894073.156
        43.200          25.600
 18  3 11 12  8 30.0000000  0 16R05R13G08R04G17R14R21R12R22G28G11G01
                                G10G24G15G13
                  85741144.480 5  20622412.945                    20622415.113
                        34.600
                  80405085.710 6  19359374.328                    19359374.867
                        39.600
 125603541.731 6  97872944.30444  23901567.344                    23901573.289
        41.000          25.600
                  84955596.628 6  20397678.609                    20397678.668
                        41.900
 126908901.091 7  98890087.24444  24149966.148                    24149969.586
        46.300          27.700
                  86234562.848 6  20799495.266                    20799497.801
                        41.500
                  88844888.269 6  21346448.227                    21346449.695
                        41.500
                                  22764002.109

                  85642652.369 7  20627685.688                    20627686.645
                        42.100
 113821454.479 7  88692051.15545  21659503.039                    21659505.508
        47.400          34.500
 119390329.313 7  93031436.83144  22719224.383                    22719227.574
        44.400          27.800
 124681574.354 6  97154490.53544  23726114.063                    23726122.832
        41.700          25.600
 116912086.831 7  91100345.12145  22247630.102                    22247636.930
        43.500          33.200
 116718582.096 7  90949566.05745  22210807.680                    22210813.961
        45.600          35.000
 115219253.440 8  89781246.58946  21925495.813                    21925498.281
        49.300          36.300
 120312898.766 7  93750329.89044  22894780.883                    22894787.473
        42.200          24.700
 18  3 11 12  8 31.0000000  0 16R05R13G08R04G17R14R21R12R22G28G11G01
                                G10G24G15G13
                  85739924.008 5  20622120.508                    20622120.652
                        34.300
                  80405896.642 6  19359568.289                    19359569.543
                        39.600
 125606969.584 6  97875615.34344  23902219.430                    23902225.660
        41.200          24.800
                  84957699.853 6  20398183.461                    20398183.824
                        41.600
 126905891.442 7  98887742.05744  24149393.586                    24149396.590
        46.100          26.100
                  86232249.890 6  20798937.258                    20798939.387
                        41.200
                  88847288.285 6  21347024.859                    21347025.121
                        41.100
                                  22764880.164

                  85641554.481 6  20627420.727                    20627422.316
                        41.900
 113823072.346 7  88693311.82845  21659810.906                    21659813.355
        47.600          34.600
 119389203.303 7  93030559.42444  22719010.836                    22719013.629
        45.100          27.900
 124678932.119 6  97152431.67444  23725611.188                    23725619.258
        41.600          25.800
 116911693.599 7  91100038.71145  22247555.125                    22247562.449
        43.000          33.600
 116716094.646 7  90947627.78545  22210334.289                    22210340.609
        46.000          34.800
 115221792.697 8  89783225.23545  21925978.938                    21925981.914
        49.200          35.700
 120316650.550 6  93753253.35644  22895494.523                    22895500.863
        41.700          24.700
 18  3 11 12  8 32.0000000  0 16R05R13G08R04G17R14R21R12R22G28G11G01
                                G10G24G15G13
                  85738704.154 5  20621826.398                    20621827.855
                        34.900
                  80406708.221 6  19359764.898                    19359765.320
                        39.700
 125610397.814 6  97878286.68444  23902872.125                    23902878.008
        41.100          25.600
                  84959803.756 6  20398687.828                    20398689.211
                        41.800
 126902882.028 7  98885397.05344  24148820.617                    24148824.063
        46.000          27.000
                  86229937.355 6  20798379.453                    20798381.633
                        41.200
                  88849688.906 6  21347601.578                    21347601.691
                        41.100
                                  22765759.484

                  85640457.310 7  20627157.094                    20627158.348
                        42.100
 113824690.714 7  88694572.89645  21660118.820                    21660121.438
        47.800          34.500
 119388077.978 7  93029682.55444  22718797.234                    22718799.152
        46.300          27.900
 124676290.298 6  97150373.12544  23725108.594                    23725116.828
        40.800          25.800
 116911301.039 7  91099732.82445  22247480.508                    22247487.453
        42.800          33.700
 116713607.632 7  90945689.85545  22209861.047                    22209867.113
        46.500          34.800
 115224332.582 7  89785204.37646  21926460.281                    21926465.574
        47.800          36.000
 120320402.686 6  93756177.09743  22896208.734                    22896215.270
        41.600          23.800
 18  3 11 12  8 33.0000000  0 16R05R13G08R04G17R14R21R12R22G28G11G01
                                G10G24G15G13
                  85737484.979 5  20621533.656                    20621534.738
                        35.000
                  80407520.509 6  19359960.844                    19359960.957
                        39.300
 125613826.443 6  97880958.34143  23903524.320                    23903530.770
        41.100          23.900
                  84961908.313 6  20399193.164                    20399194.512
                        41.700
 126899872.923 7  98883052.29344  24148248.367                    24148251.582
        46.400          26.200
                  86227625.270 6  20797821.875                    20797823.965
                        41.300
                  88852090.203 6  21348177.016                    21348178.422
                        41.800
                                  22766636.523

                  85639360.859 6  20626893.313                    20626893.961
                        41.900
 113826309.675 7  88695834.42445  21660427.195                    21660429.414
        47.000          34.700
 119386953.399 7  93028806.24744  22718584.109                    22718585.301
        47.000          28.400
 124673648.983 6  97148314.97544  23724606.344                    23724613.816
        41.100          26.100
 116910909.221 7  91099427.52345  22247406.391                    22247412.969
        43.200          33.700
 116711121.115 7  90943752.30945  22209387.742                    22209393.867
        46.700          34.800
 115226873.076 8  89787183.97745  21926945.703                    21926948.371
        48.100          35.900
 120324155.240 6  93759101.15744  22896922.969                    22896928.613
        41.000          24.400
 18  3 11 12  8 34.0000000  0 16R05R13G08R04G17R14R21R12R22G28G11G01
                                G10G24G15G13
                  85736266.504 5  20621239.930                    20621241.563
                        34.700
                  80408333.476 6  19360155.414                    19360156.426
                        39.600
 125617255.534 6  97883630.36744  23904176.906                    23904182.727
        41.300          25.600
                  84964013.514 6  20399699.383                    20399700.285
                        41.600
 126896864.137 7  98880707.77844  24147675.695                    24147679.164
        46.300          26.700
                  86225313.645 6  20797263.938                    20797266.594
                        41.000
                  88854492.105 7  21348753.984                    21348756.164
                        42.100
                                  22767514.719

                  85638265.141 6  20626628.820                    20626629.652
                        41.900
 113827929.226 7  88697096.40845  21660735.523                    21660737.680
        46.300          34.300
 119385829.555 7  93027930.51544  22718369.758                    22718371.648
        46.900          28.500
 124671008.127 6  97146257.16444  23724104.055                    23724111.242
        40.100          25.700
 116910518.136 7  91099122.79945  22247332.297                    22247338.383
        42.600          33.700
 116708635.098 7  90941815.15245  22208914.398                    22208921.078
        47.000          34.900
 115229414.114 8  89789163.99346  21927429.352                    21927432.129
        48.300          36.000
 120327908.178 6  93762025.51143  22897638.031                    22897642.414
        40.500          22.600
 18  3 11 12  8 35.0000000  0 16R05R13G08R04G17R14R21R12R22G28G11G01
                                G10G24G15G13
                  85735048.684 5  20620947.672                    20620949.250
                        35.600
                  80409147.118 6  19360351.805                    19360352.523
                        39.700
 125620684.971 6  97886302.65844  23904829.406                    23904835.539
        41.400          24.200
                  84966119.302 6  20400204.586                    20400205.410
                        41.900
 126893855.563 7  98878363.43344  24147102.867                    24147106.676
        46.700          27.200
                  86223002.444 6  20796706.398                    20796709.109
                        41.000
                  88856894.604 7  21349332.922                    21349334.145
                        42.800
                                  22768396.672

                  85637170.121 7  20626365.547                    20626366.320
                        42.100
 113829549.331 7  88698358.83345  21661043.492                    21661046.074
        46.300          34.500
 119384706.410 7  93027055.30644  22718155.141                    22718157.566
        46.600          28.500
 124668367.714 6  97144199.69244  23723601.867                    23723608.445
        40.800          24.700
 116910127.742 7  91098818.61845  22247258.680                    22247264.457
        43.000          34.000
 116706149.522 7  90939878.34245  22208442.070                    22208448.324
        46.700          35.300
 115231955.766 7  89791144.51345  21927911.758                    21927916.090
        47.300          35.700
 120331661.487 6  93764950.17343  22898352.586                    22898356.266
        40.700          21.700
 18  3 11 12  8 36.0000000  0 16R05R13G08R04G17R14R21R12R22G28G11G01
                                G10G24G15G13
                  85733831.505 5  20620653.852                    20620655.809
                        35.100
                  80409961.418 6  19360547.836                    19360549.109
                        39.600
 125624114.844 6  97888975.28044  23905482.063                    23905488.023
        41.700          25.400
                  84968225.701 6  20400710.031                    20400711.406
                        41.900
 126890847.278 7  98876019.30844  24146530.820                    24146534.547
        46.300          26.700
                  86220691.669 6  20796149.078                    20796151.371
                        41.200
                  88859297.617 7  21349913.656                    21349911.992
                        42.600
                                  22769274.109

                  85636075.787 6  20626101.133                    20626102.691
                        41.900
 113831169.947 7  88699621.64545  21661351.609                    21661354.383
        46.900          33.900
 119383583.958 7  93026180.66044  22717941.914                    22717944.379
        46.400          28.700
 124665727.793 7  97142142.62344  23723099.461                    23723106.031
        42.100          24.200
 116909738.049 7  91098514.97445  22247184.492                    22247189.629
        44.100          33.900
 116703664.397 7  90937941.88145  22207969.164                    22207975.102
        46.700          35.600
 115234498.001 7  89793125.47545  21928395.391                    21928399.227
        47.300          35.000
 120335415.140 6  93767875.09543  22899067.641                    22899070.184
        41.300          22.300
 18  3 11 12  8 37.0000000  0 16R05R13G08R04G17R14R21R12R22G28G11G01
                                G10G24G15G13
                  85732614.989 5  20620361.750                    20620364.098
                        34.800
                  80410776.371 6  19360744.266                    19360745.223
                        39.700
 125627545.032 6  97891648.15544  23906135.250                    23906140.828
        41.600          24.200
                  84970332.718 6  20401216.195                    20401216.578
                        41.800
 126887839.235 7  98873675.38044  24145958.555                    24145962.316
        46.000          26.000
                  86218381.311 6  20795591.297                    20795594.469
                        41.000
                  88861701.180 7  21350490.547                    21350489.160
                        42.300
                                  22770153.563

                  85634982.132 7  20625837.773                    20625838.699
                        42.100
 113832791.102 7  88700884.88045  21661660.320                    21661662.766
        46.700          34.000
 119382462.147 7  93025306.50244  22717727.352                    22717730.684
        45.400          28.700
 124663088.318 7  97140085.89344  23722597.859                    23722603.355
        42.500          25.300
 116909349.037 7  91098211.85345  22247110.289                    22247115.914
        44.900          33.800
 116701179.725 7  90936005.77145  22207496.172                    22207502.277
        46.400          35.200
 115237040.771 8  89795106.84545  21928880.180                    21928882.988
        48.000          35.500
 120339169.155 7  93770800.29944  22899782.047                    22899783.926
        42.000          24.400
 18  3 11 12  8 38.0000000  0 16R05R13G08R04G17R14R21R12R22G28G11G01
                                G10G24G15G13
                  85731399.137 5  20620068.445                    20620070.852
                        35.200
                  80411592.050 6  19360940.930                    19360941.418
                        39.300
 125630975.658 6  97894321.36244  23906788.008                    23906793.820
        40.300          25.800
                  84972440.376 6  20401722.266                    20401722.309
                        41.000
 126884831.493 7  98871331.67844  24145386.063                    24145389.559
        46.000          26.700
                  86216071.415 6  20795034.539                    20795037.059
                        41.000
                  88864105.376 6  21351067.141                    21351067.527
                        41.500
                                  22771033.852

                  85633889.214 6  20625575.211                    20625576.383
                        41.700
 113834412.851 7  88702148.58445  21661968.781                    21661971.211
        46.100          33.900
 119381341.104 7  93024432.96044  22717512.930                    22717517.340
        44.600          28.900
 124660449.313 7  97138029.53844  23722095.625                    23722101.238
        43.400          26.100
 116908960.793 7  91097909.32045  22247036.578                    22247041.891
        45.600          33.300
 116698695.529 7  90934070.03645  22207023.125                    22207029.629
        46.500          35.100
 115239584.125 8  89797088.68045  21929364.492                    21929367.477
        48.200          35.400
 120342923.556 7  93773725.81444  22900497.617                    22900498.148
        42.700          25.100
 18  3 11 12  8 39.0000000  0 16R05R13G08R04G17R14R21R12R22G28G11G01
                                G10G24G15G13
                  85730183.992 5  20619776.805                    20619778.676
                        34.600
                  80412408.399 6  19361137.594                    19361138.395
                        39.200
 125634406.737 6  97896994.92344  23907440.672                    23907447.090
        40.600          25.300
                  84974548.749 6  20402228.719                    20402228.918
                        41.400
 126881824.039 7  98868988.20544  24144813.625                    24144817.035
        45.500          27.400
                  86213761.958 6  20794477.781                    20794479.949
                        41.300
                  88866510.258 6  21351644.039                    21351645.496
                        41.500
                                  22771910.297

                  85632797.025 6  20625311.594                    20625313.188
                        41.700
 113836035.188 7  88703412.74445  21662277.656                    21662280.109
        46.200          34.600
 119380220.756 7  93023559.97244  22717299.023                    22717304.273
        43.700          28.500
 124657810.849 7  97135973.57444  23721593.484                    23721598.789
        43.600          26.200
 116908573.268 7  91097607.34345  22246962.953                    22246968.047
        46.300          34.600
 116696211.851 7  90932134.69845  22206550.617                    22206556.883
        45.600          34.700
 115242128.099 7  89799070.99945  21929847.828                    21929851.578
        47.800          35.700
 120346678.351 7  93776651.64844  22901212.438                    22901213.035
        43.200          26.300
 18  3 11 12  8 40.0000000  0 16R05R13G08R04G17R14R21R12R22G28G11G01
                                G10G24G15G13
                  85728969.480 5  20619485.367                    20619486.383
                        34.900
                  80413225.403 6  19361334.320                    19361334.539
                        39.500
 125637838.192 6  97899668.78944  23908093.570                    23908100.125
        41.400          24.700
                  84976657.741 6  20402734.695                    20402735.227
                        41.500
 126878816.825 7  98866644.92544  24144241.508                    24144244.965
        45.200          27.100
                  86211452.934 6  20793921.102                    20793923.598
                        41.300
                  88868915.715 6  21352220.141                    21352222.930
                        41.600
                                  22772791.203

                  85631705.531 6  20625048.367                    20625049.785
                        41.900
 113837658.055 7  88704677.31345  21662586.414                    21662589.188
        46.200          34.600
 119379101.093 7  93022687.52144  22717086.039                    22717091.410
        43.700          27.600
 124655172.790 7  97133917.93244  23721091.219                    23721096.516
        44.500          26.000
 116908186.428 7  91097305.89645  22246889.938                    22246894.668
        46.300          34.100
 116693728.605 7  90930199.70445  22206078.281                    22206084.500
        45.300          35.100
 115244672.655 7  89801053.78145  21930331.789                    21930335.895
        47.000          35.800
 120350433.498 7  93779577.75244  22901926.594                    22901927.570
        44.500          26.900
 18  3 11 12  8 41.0000000  0 16R05R13G08R04G17R14R21R12R22G28G11G01
                                G10G24G15G13
                  85727755.624 5  20619194.273                    20619194.688
                        34.400
                  80414043.098 6  19361530.797                    19361531.375
                        40.000
 125641270.056 6  97902342.97944  23908746.383                    23908752.645
        40.900          25.100
                  84978767.374 6  20403241.313                    20403241.809
                        41.700
 126875809.914 7  98864301.89044  24143668.977                    24143673.035
        45.500          25.800
                  86209144.349 6  20793364.547                    20793366.184
                        41.200
                  88871321.781 6  21352796.078                    21352800.668
                        41.500
                                  22773669.641

                  85630614.751 6  20624786.438                    20624787.039
                        41.600
 113839281.479 7  88705942.32745  21662895.547                    21662897.852
        46.300          34.800
 119377982.150 7  93021815.63344  22716874.164                    22716878.109
        44.700          28.300
 124652535.237 7  97131862.67344  23720589.289                    23720594.816
        44.500          26.000
 116907800.319 7  91097005.00945  22246815.539                    22246821.023
        46.200          34.300
 116691245.859 7  90928265.10145  22205605.805                    22205611.855
        45.200          35.600
 115247217.804 8  89803037.00245  21930816.734                    21930819.746
        48.000          35.000
 120354189.021 7  93782504.14644  22902641.898                    22902642.402
        45.000          28.900
 18  3 11 12  8 42.0000000  0 16R05R13G08R04G17R14R21R12R22G28G11G01
                                G10G24G15G13
                  85726542.401 5  20618900.305                    20618903.359
                        34.500
                  80414861.444 6  19361727.914                    19361728.352
                        39.900
 125644702.305 6  97905017.46144  23909400.266                    23909405.836
        41.600          25.800
                  84980877.572 6  20403748.352                    20403748.680
                        41.200
 126872803.256 7  98861959.04244  24143096.461                    24143100.973
        45.400          27.400
                  86206836.181 6  20792807.539                    20792809.520
                        40.700
                  88873728.399 6  21353374.602                    21353379.070
                        41.800
                                  22774549.648

                  85629524.656 6  20624523.805                    20624524.832
                        41.200
 113840905.428 7  88707207.74145  21663204.695                    21663206.848
        46.000          34.300
 119376863.921 7  93020944.29444  22716662.422                    22716665.176
        45.600          28.600
 124649898.073 7  97129807.71244  23720087.430                    23720092.977
        44.200          26.000
 116907414.856 7  91096704.63945  22246742.242                    22246747.969
        45.800          33.900
 116688763.533 7  90926330.82145  22205133.539                    22205139.496
        45.600          34.800
 115249763.442 8  89805020.61245  21931301.648                    21931304.461
        48.100          35.900
 120357944.887 7  93785430.79144  22903356.211                    22903357.105
        45.800          28.800
 18  3 11 12  8 43.0000000  0 16R05R13G08R04G17R14R21R12R22G28G11G01
                                G10G24G15G13
                  85725329.827 5  20618608.617                    20618611.547
                        34.700
                  80415680.474 6  19361924.445                    19361925.430
                        39.300
 125648134.976 6  97907692.27344  23910053.070                    23910059.168
        41.200          25.000
                  84982988.396 6  20404255.055                    20404255.574
                        41.300
 126869796.878 7  98859616.41044  24142524.617                    24142528.672
        45.700          27.200
                  86204528.468 6  20792250.961                    20792252.504
                        41.200
                  88876135.637 6  21353954.367                    21353956.910
                        41.900
                                  22775429.180

                  85628435.263 6  20624261.586                    20624262.660
                        41.300
 113842529.979 7  88708473.62045  21663513.516                    21663516.152
        46.100          34.800
 119375746.416 7  93020073.51144  22716450.766                    22716452.980
        46.100          28.700
 124647261.441 7  97127753.18744  23719585.086                    23719591.297
        44.600          27.600
 116907030.144 7  91096404.85045  22246668.516                    22246674.691
        45.400          33.500
 116686281.733 7  90924396.94745  22204661.063                    22204667.527
        46.100          35.300
 115252309.718 7  89807004.72945  21931785.086                    21931789.594
        46.900          35.000
 120361701.164 7  93788357.75544  22904071.086                    22904072.293
        45.800          29.600
 18  3 11 12  8 44.0000000  0 16R05R13G08R04G17R14R21R12R22G28G11G01
                                G10G24G15G13
                  85724117.983 5  20618318.406                    20618319.703
                        35.300
                  80416500.161 6  19362122.438                    19362122.449
                        39.800
 125651568.007 6  97910367.36944  23910705.891                    23910712.672
        41.400          24.600
                  84985099.833 6  20404761.914                    20404762.059
                        41.200
 126866790.767 7  98857273.99044  24141952.758                    24141956.637
        45.700          27.200
                  86202221.172 6  20791695.172                    20791696.910
                        41.200
                  88878543.432 6  21354535.352                    21354536.102
                        41.700
                                  22776307.125

                  85627346.592 6  20623999.336                    20624000.391
                        41.200
 113844155.050 7  88709739.91145  21663822.594                    21663825.324
        46.200          34.900
 119374629.587 7  93019203.24644  22716238.117                    22716240.367
        46.300          28.800
 124644625.249 7  97125699.00044  23719083.258                    23719089.684
        44.300          28.700
 116906646.120 7  91096105.60945  22246594.805                    22246602.137
        44.300          33.100
 116683800.387 7  90922463.42945  22204189.242                    22204195.152
        46.200          35.200
 115254856.591 7  89808989.30745  21932270.070                    21932273.547
        47.200          35.300
 120365457.776 7  93791284.98145  22904785.531                    22904787.289
        46.200          30.000
 18  3 11 12  8 45.0000000  0 16R05R13G08R04G17R14R21R12R22G28G11G01
                                G10G24G15G13
                  85722906.795 5  20618027.031                    20618028.711
                        35.300
                  80417320.562 6  19362320.242                    19362320.398
                        39.800
 125655001.512 6  97913042.81444  23911359.711                    23911366.113
        41.300          25.300
                  84987211.961 6  20405268.727                    20405269.406
                        41.600
 126863784.970 7  98854931.81944  24141380.750                    24141384.801
        45.700          26.700
                  86199914.338 6  20791138.500                    20791140.191
                        41.000
                  88880951.808 6  21355115.250                    21355114.801
                        41.400
                                  22777187.164

                  85626258.636 6  20623737.477                    20623738.414
                        41.400
 113845780.735 7  88711006.68045  21664132.164                    21664134.684
        46.700          34.700
 119373513.519 7  93018333.56644  22716025.383                    22716028.031
        45.900          28.600
 124641989.563 7  97123645.21344  23718581.922                    23718588.531
        43.400          27.800
 116906262.850 7  91095806.96245  22246521.617                    22246528.852
        43.400          33.100
 116681319.533 7  90920530.30445  22203716.930                    22203722.711
        45.800          35.200
 115257404.037 8  89810974.31746  21932755.859                    21932758.336
        48.400          36.000
 120369214.800 7  93794212.53245  22905500.516                    22905502.699
        46.400          30.700
 18  3 11 12  8 46.0000000  0 16R05R13G08R04G17R14R21R12R22G28G11G01
                                G10G24G15G13
                  85721696.270 5  20617736.070                    20617737.266
                        35.300
                  80418141.611 6  19362517.000                    19362518.195
                        40.000
 125658435.403 6  97915718.58144  23912013.070                    23912019.313
        41.400          25.000
                  84989324.708 6  20405776.664                    20405776.926
                        41.700
 126860779.422 7  98852589.84044  24140808.563                    24140813.039
        45.000          27.900
                  86197607.943 6  20790582.391                    20790583.762
                        40.900
                  88883360.796 6  21355692.602                    21355693.789
                        41.100
                                  22778066.563

                  85625171.380 6  20623474.984                    20623476.223
                        41.400
 113847406.953 7  88712273.86145  21664441.695                    21664444.094
        46.900          35.000
 119372398.127 7  93017464.42744  22715812.672                    22715815.234
        45.400          29.000
 124639354.336 7  97121591.78644  23718080.070                    23718087.227
        43.100          27.900
 116905880.251 7  91095508.83945  22246449.383                    22246455.676
        42.900          33.300
 116678839.119 7  90918597.51845  22203245.055                    22203250.977
        46.300          34.700
 115259952.063 7  89812959.79746  21933239.492                    21933243.270
        47.700          36.000
 120372972.183 7  93797140.35545  22906215.117                    22906218.250
        46.200          30.700
 18  3 11 12  8 47.0000000  0 16R05R13G08R04G17R14R21R12R22G28G11G01
                                G10G24G15G13
                  85720486.481 5  20617445.039                    20617446.004
                        34.500
                  80418963.400 6  19362714.711                    19362715.344
                        40.000
 125661869.747 6  97918394.69044  23912666.492                    23912673.160
        41.300          26.600
                  84991438.140 6  20406283.203                    20406283.570
                        41.900
 126857774.194 7  98850248.10944  24140237.359                    24140240.941
        45.100          28.100
                  86195302.048 6  20790025.680                    20790028.027
                        41.200
                  88885770.469 6  21356270.766                    21356271.855
                        41.000
                                  22778944.148

                  85624084.892 6  20623214.406                    20623214.766
                        41.400
 113849033.785 7  88713541.52445  21664751.023                    21664753.684
        47.300          34.600
 119371283.509 7  93016595.89444  22715600.320                    22715603.715
        45.800          28.000
 124636719.611 7  97119538.75544  23717578.273                    23717586.152
        42.400          26.700
 116905498.420 7  91095211.32045  22246376.297                    22246383.215
        42.400          33.100
 116676359.257 7  90916665.15345  22202772.992                    22202779.281
        46.700          35.000
 115262500.740 7  89814945.78346  21933724.852                    21933728.445
        47.900          36.200
 120376730.032 7  93800068.55445  22906930.078                    22906933.559
        46.000          30.900
 18  3 11 12  8 48.0000000  0 16R05R13G08R04G17R14R21R12R22G28G11G01
                                G10G24G15G13
                  85719277.319 5  20617154.336                    20617155.523
                        35.300
                  80419785.817 6  19362913.445                    19362913.586
                        39.900
 125665304.463 6  97921071.08644  23913320.367                    23913326.770
        41.300          26.000
                  84993552.161 6  20406791.508                    20406791.887
                        41.500
 126854769.212 7  98847906.57644  24139664.797                    24139669.207
        45.200          27.700
                  86192996.540 6  20789469.430                    20789471.727
                        41.200
                  88888180.715 6  21356849.148                    21356849.770
                        41.300
                                  22779827.086

                  85622999.081 6  20622952.516                    20622953.250
                        41.400
 113850661.144 7  88714809.60145  21665060.938                    21665063.063
        46.900          34.400
 119370169.563 7  93015727.88744  22715388.563                    22715391.426
        45.900          29.200
 124634085.300 7  97117486.05244  23717076.875                    23717085.059
        42.600          27.500
 116905117.244 7  91094914.30745  22246304.125                    22246310.586
        42.500          33.000
 116673879.817 7  90914733.11845  22202301.258                    22202307.527
        46.700          34.900
 115265049.943 8  89816932.17146  21934210.336                    21934213.648
        48.000          36.000
 120380488.192 7  93802996.99544  22907644.891                    22907648.922
        46.300          29.800
 18  3 11 12  8 49.0000000  0 16R05R13G08R04G17R14R21R12R22G28G11G01
                                G10G24G15G13
                  85718068.828 5  20616863.023                    20616865.086
                        35.000
                  80420608.911 6  19363111.563                    19363112.453
                        39.800
 125668739.600 6  97923747.81344  23913973.961                    23913980.566
        41.100          25.400
                  84995666.845 6  20407298.453                    20407299.262
                        41.700
 126851764.525 7  98845565.27144  24139093.297                    24139097.844
        45.500          27.900
                  86190691.479 6  20788913.398                    20788915.828
                        41.100
                  88890591.564 6  21357428.539                    21357428.590
                        41.600
                                  22780706.547

                  85621913.972 6  20622690.141                    20622691.570
                        41.400
 113852289.041 7  88716078.09245  21665370.688                    21665372.887
        46.700          34.400
 119369056.328 7  93014860.43544  22715176.984                    22715179.703
        46.300          28.400
 124631451.507 7  97115433.75444  23716575.555                    23716583.770
        42.300          27.600
 116904736.797 7  91094617.86745  22246231.945                    22246237.859
        42.600          33.400
 116671400.870 7  90912801.47545  22201829.656                    22201835.270
        46.500          35.400
 115267599.745 7  89818919.03645  21934694.711                    21934698.969
        47.600          35.500
 120384246.732 7  93805925.72245  22908360.055                    22908364.289
        46.100          30.600
 18  3 11 12  8 50.0000000  0 16R05R13G08R04G17R14R21R12R22G28G11G01
                                G10G24G15G13
                  85716860.962 5  20616571.672                    20616574.352
                        35.200
                  80421432.669 6  19363310.180                    19363310.426
                        39.900
 125672175.127 6  97926424.85044  23914627.906                    23914634.594
        41.100          24.000
                  84997782.154 6  20407806.719                    20407807.391
                        41.300
 126848760.092 7  98843224.15244  24138521.844                    24138525.785
        46.000          27.500
                  86188386.844 6  20788357.156                    20788359.699
                        41.200
                  88893003.004 7  21358009.258                    21358008.469
                        42.300
                                  22781584.094

                  85620829.569 6  20622430.016                    20622431.027
                        41.600
 113853917.533 7  88717347.04845  21665680.820                    21665682.980
        47.000          34.600
 119367943.803 7  93013993.52344  22714965.875                    22714967.734
        47.000          29.400
 124628818.157 6  97113381.79644  23716074.461                    23716083.145
        41.700          27.500
 116904357.052 7  91094321.97245  22246160.477                    22246165.500
        43.100          33.200
 116668922.365 7  90910870.17145  22201357.133                    22201363.719
        46.300          35.100
 115270150.126 8  89820906.34945  21935180.633                    21935184.113
        48.000          35.500
 120388005.638 7  93808854.72944  22909075.023                    22909080.063
        45.800          29.900
 18  3 11 12  8 51.0000000  0 16R05R13G08R04G17R14R21R12R22G28G11G01
                                G10G24G15G13
                  85715653.805 5  20616281.547                    20616283.938
                        34.900
                  80422257.127 6  19363508.820                    19363509.344
                        39.500
 125675611.098 6  97929102.22544  23915281.398                    23915287.855
        40.100          25.500
                  84999898.105 6  20408314.953                    20408315.336
                        41.900
 126845755.989 7  98840883.30144  24137950.367                    24137953.961
        45.900          27.100
                  86186082.707 6  20787801.789                    20787803.844
                        41.400
                  88895415.053 7  21358589.297                    21358588.777
                        42.400
                                  22782463.625

                  85619745.912 6  20622168.672                    20622169.422
                        41.600
 113855546.591 7  88718616.43845  21665990.461                    21665992.930
        47.100          34.200
 119366832.048 7  93013127.21544  22714754.211                    22714756.309
        46.900          28.600
 124626185.306 6  97111330.24344  23715573.617                    23715582.059
        41.100          26.800
 116903978.070 7  91094026.66845  22246087.867                    22246093.746
        44.000          33.100
 116666444.394 7  90908939.28345  22200886.344                    22200892.512
        46.400          35.100
 115272701.110 8  89822894.12245  21935666.500                    21935669.371
        49.100          35.300
 120391764.980 7  93811784.07045  22909790.328                    22909795.816
        45.500          30.200
 18  3 11 12  8 52.0000000  0 16R05R13G08R04G17R14R21R12R22G28G11G01
                                G10G24G15G13
                  85714447.287 5  20615991.781                    20615993.750
                        35.300
                  80423082.266 6  19363707.266                    19363707.410
                        39.500
 125679047.438 6  97931779.89643  23915935.781                    23915941.855
        40.200          23.600
                  85002014.659 6  20408822.844                    20408823.254
                        41.600
 126842752.125 7  98838542.62844  24137378.508                    24137382.582
        46.400          28.200
                  86183778.994 6  20787246.188                    20787248.504
                        41.400
                  88897827.646 7  21359167.500                    21359169.582
                        42.300
                                  22783343.664

                  85618662.956 6  20621907.539                    20621908.852
                        41.800
 113857176.193 7  88719886.25945  21666300.578                    21666302.922
        47.300          34.500
 119365720.973 7  93012261.43244  22714542.453                    22714544.566
        46.600          28.600
 124623552.910 6  97109279.05244  23715072.813                    23715081.277
        41.100          28.000
 116903599.762 7  91093731.88245  22246016.188                    22246021.563
        44.900          33.100
 116663966.833 7  90907008.71545  22200414.500                    22200420.988
        46.600          34.700
 115275252.676 8  89824882.35845  21936150.445                    21936155.203
        48.000          35.600
 120395524.668 7  93814713.68944  22910505.266                    22910511.332
        45.200          28.900
 18  3 11 12  8 53.0000000  0 16R05R13G08R04G17R14R21R12R22G28G11G01
                                G10G24G15G13
                  85713241.418 5  20615701.648                    20615703.664
                        34.300
                  80423908.067 6  19363906.320                    19363907.055
                        39.300
 125682484.202 6  97934457.88644  23916589.227                    23916595.754
        40.100          24.400
                  85004131.824 6  20409331.133                    20409331.473
                        41.700
 126839748.537 7  98836202.17944  24136807.258                    24136810.938
        46.400          28.100
                  86181475.685 6  20786690.344                    20786692.629
                        41.400
                  88900240.845 7  21359746.336                    21359750.453
                        42.000
                                  22784225.055

                  85617580.699 6  20621647.125                    20621647.941
                        41.400
 113858806.347 7  88721156.50745  21666610.898                    21666612.910
        47.700          34.600
 119364610.581 7  93011396.17944  22714330.492                    22714333.621
        46.100          28.900
 124620920.953 6  97107228.18844  23714572.203                    23714580.551
        41.400          27.100
 116903222.205 7  91093437.67845  22245944.234                    22245950.051
        45.400          33.600
 116661489.781 7  90905078.55145  22199943.641                    22199949.168
        46.800          35.300
 115277804.839 8  89826871.05645  21936637.172                    21936640.316
        49.100          35.900
 120399284.735 7  93817643.59944  22911220.930                    22911226.906
        44.700          29.400
 18  3 11 12  8 54.0000000  0 16R05R13G08R04G17R14R21R12R22G28G11G01
                                G10G24G15G13
                  85712036.228 5  20615411.828                    20615413.418
                        35.000
                  80424734.535 6  19364105.313                    19364106.102
                        39.100
 125685921.316 6  97937136.15544  23917242.813                    23917249.887
        40.300          24.800
                  85006249.646 6  20409839.609                    20409840.234
                        41.600
 126836745.205 7  98833861.91544  24136235.766                    24136239.406
        46.700          27.600
                  86179172.799 6  20786135.234                    20786137.070
                        41.200
                  88902654.658 6  21360325.078                    21360330.258
                        41.900
                                  22785103.453

                  85616499.137 6  20621386.906                    20621387.688
                        41.400
 113860437.065 7  88722427.19945  21666920.992                    21666923.367
        47.200          34.600
 119363500.909 7  93010531.50044  22714118.836                    22714122.688
        45.700          27.800
 124618289.492 7  97105177.71344  23714072.680                    23714079.664
        42.100          26.900
 116902845.327 7  91093143.99245  22245873.164                    22245878.414
        45.700          34.000
 116659013.195 7  90903148.74145  22199472.344                    22199478.031
        46.300          35.100
 115280357.517 8  89828860.14345  21937123.594                    21937126.227
        49.900          35.500
 120403045.165 7  93820573.79144  22911936.695                    22911942.184
        44.600          27.900
 18  3 11 12  8 55.0000000  0 16R05R13G08R04G17R14R21R12R22G28G11G01
                                G10G24G15G13
                  85710831.737 5  20615122.219                    20615123.652
                        35.000
                  80425561.700 6  19364304.250                    19364305.188
                        38.900
 125689358.901 6  97939814.78644  23917897.953                    23917904.098
        40.300          25.100
                  85008368.129 6  20410347.758                    20410348.988
                        41.900
 126833742.191 7  98831521.91044  24135664.109                    24135667.957
        46.300          28.200
                  86176870.376 6  20785580.016                    20785582.355
                        41.500
                  88905069.101 7  21360905.211                    21360909.758
                        42.000
                                  22785984.336

                  85615418.325 6  20621125.789                    20621126.910
                        41.700
 113862068.360 7  88723698.34145  21667231.484                    21667233.641
        46.500          34.900
 119362391.961 7  93009667.38644  22713908.133                    22713911.367
        45.800          29.300
 124615658.529 7  97103127.62144  23713571.523                    23713578.805
        42.800          26.700
 116902469.188 7  91092850.89145  22245801.461                    22245806.684
        46.200          33.900
 116656537.124 7  90901219.33545  22199000.672                    22199006.707
        46.200          35.600
 115282910.842 8  89830849.75045  21937608.172                    21937612.383
        48.500          35.600
 120406805.976 7  93823504.28644  22912652.031                    22912658.027
        44.000          28.700
 18  3 11 12  8 56.0000000  0 16R05R13G08R04G17R14R21R12R22G28G11G01
                                G10G24G15G13
                  85709627.909 5  20614833.156                    20614834.434
                        35.300
                  80426389.538 6  19364503.664                    19364504.156
                        39.500
 125692796.843 6  97942493.69744  23918552.211                    23918558.609
        40.800          24.700
                  85010487.238 6  20410857.094                    20410857.723
                        41.800
 126830739.423 7  98829182.09144  24135093.109                    24135096.547
        46.200          27.600
                  86174568.393 6  20785025.094                    20785026.695
                        41.400
                  88907484.115 6  21361487.102                    21361489.258
                        41.600
                                  22786864.836

                  85614338.200 6  20620865.422                    20620867.547
                        41.700
 113863700.175 7  88724969.88245  21667542.016                    21667544.254
        46.300          34.800
 119361283.718 7  93008803.82744  22713697.898                    22713700.492
        46.000          29.000
 124613028.004 7  97101077.87144  23713070.672                    23713078.094
        43.000          27.100
 116902093.732 7  91092558.31645  22245729.430                    22245735.195
        45.500          33.800
 116654061.499 7  90899290.27845  22198529.813                    22198535.793
        45.800          35.200
 115285464.738 8  89832839.80345  21938094.805                    21938098.215
        48.500          35.400
 120410567.168 7  93826435.07444  22913367.086                    22913373.594
        44.100          28.400
 18  3 11 12  8 57.0000000  0 16R05R13G08R04G17R14R21R12R22G28G11G01
                                G10G24G15G13
                  85708424.753 5  20614544.086                    20614545.281
                        35.500
                  80427218.061 6  19364702.688                    19364703.270
                        39.900
 125696235.197 6  97945172.92444  23919205.773                    23919212.316
        40.700          24.000
                  85012607.019 6  20411366.648                    20411366.477
                        41.800
 126827736.967 7  98826842.50644  24134521.758                    24134524.824
        45.700          27.400
                  86172266.863 6  20784469.289                    20784471.902
                        41.400
                  88909899.675 6  21362070.445                    21362068.781
                        41.300
                                  22787743.211

                  85613258.790 6  20620606.016                    20620607.355
                        41.500
 113865332.580 7  88726241.88345  21667852.984                    21667854.828
        46.300          34.600
 119360176.177 7  93007940.81444  22713486.813                    22713489.344
        46.000          28.500
 124610397.980 7  97099028.50244  23712570.633                    23712577.695
        43.500          25.600
 116901719.000 7  91092266.31045  22245658.195                    22245663.617
        45.000          33.500
 116651586.340 7  90897361.57445  22198058.813                    22198064.613
        46.300          35.200
 115288019.183 8  89834830.27545  21938581.492                    21938584.277
        49.100          35.500
 120414328.746 7  93829366.16644  22914083.117                    22914089.559
        43.600          27.700
 18  3 11 12  8 58.0000000  0 16R05R13G08R04G17R14R21R12R22G28G11G01
                                G10G24G15G13
                  85707222.267 5  20614254.281                    20614255.961
                        35.300
                  80428047.276 6  19364902.328                    19364903.438
                        39.600
 125699673.940 6  97947852.45644  23919860.602                    23919867.016
        40.900          24.800
                  85014727.380 6  20411875.625                    20411875.926
                        41.500
 126824734.789 7  98824503.14144  24133950.383                    24133953.578
        45.900          26.600
                  86169965.773 6  20783913.781                    20783916.004
                        41.300
                  88912315.858 6  21362651.320                    21362649.215
                        41.200
                                  22788623.523

                  85612180.103 6  20620346.547                    20620347.367
                        41.500
 113866965.557 7  88727514.33345  21668163.313                    21668166.016
        46.400          34.800
 119359069.376 7  93007078.37344  22713276.922                    22713279.047
        45.900          29.600
 124607768.441 7  97096979.51344  23712070.086                    23712077.551
        43.800          26.600
 116901344.982 7  91091974.86145  22245586.664                    22245592.773
        44.100          33.400
 116649111.641 7  90895433.24145  22197588.180                    22197593.590
        46.300          35.200
 115290574.234 8  89836821.22945  21939066.953                    21939070.855
        48.400          35.700
 120418090.700 7  93832297.54844  22914799.398                    22914805.449
        43.900          27.300
 18  3 11 12  8 59.0000000  0 16R05R13G08R04G17R14R21R12R22G28G11G01
                                G10G24G15G13
                  85706020.429 5  20613964.367                    20613967.008
                        35.500
                  80428877.162 6  19365102.383                    19365103.379
                        39.600
 125703113.133 6  97950532.34643  23920514.867                    23920521.461
        40.700          22.900
                  85016848.359 6  20412385.156                    20412384.684
                        41.600
 126821732.886 7  98822163.99644  24133378.727                    24133382.559
        45.700          26.200
                  86167665.116 6  20783359.695                    20783361.898
                        41.600
                  88914732.669 6  21363230.992                    21363229.793
                        41.300
                                  22789503.688

                  85611102.115 6  20620086.211                    20620088.102
                        41.800
 113868599.085 7  88728787.21745  21668474.211                    21668476.695
        46.800          34.900
 119357963.286 7  93006216.48344  22713066.289                    22713068.449
        46.300          28.400
 124605139.360 7  97094930.86244  23711570.008                    23711576.555
        43.900          25.500
 116900971.690 7  91091683.98545  22245515.328                    22245521.824
        44.100          33.100
 116646637.432 7  90893505.28945  22197116.711                    22197122.734
        46.400          35.300
 115293129.892 8  89838812.65645  21939552.820                    21939557.105
        48.200          35.800
 120421853.033 7  93835229.21644  22915515.586                    22915521.637
        44.000          26.400
 18  3 11 12  9  0.0000000  0 16R05R13G08R04G17R14R21R12R22G28G11G01
                                G10G24G15G13
                  85704819.261 5  20613675.367                    20613678.402
                        35.100
                  80429707.712 6  19365302.336                    19365302.797
                        39.400
 125706552.691 6  97953212.51643  23921169.391                    23921175.535
        40.400          22.800
                  85018969.950 6  20412894.281                    20412894.227
                        41.700
 126818731.228 7  98819825.03744  24132807.242                    24132810.961
        45.500          26.000
                  86165364.898 6  20782804.711                    20782806.645
                        41.500
                  88917150.091 6  21363809.938                    21363810.563
                        41.900
                                  22790384.195

                  85610024.828 6  20619827.172                    20619827.996
                        41.800
 113870233.150 7  88730060.51845  21668785.594                    21668787.746
        47.100          34.200
 119356857.896 7  93005355.14144  22712856.445                    22712858.125
        46.700          29.100
 124602510.761 7  97092882.59644  23711069.961                    23711076.922
        44.000          26.400
 116900599.094 7  91091393.65545  22245444.508                    22245450.547
        44.500          32.900
 116644163.664 7  90891577.67945  22196646.297                    22196651.992
        46.400          35.700
 115295686.076 8  89840804.48446  21940040.164                    21940043.480
        48.600          36.000
 120425615.738 7  93838161.18944  22916231.313                    22916236.973
        43.400          26.600
 18  3 11 12  9  1.0000000  0 16R05R13G08R04G17R14R21R12R22G28G11G01
                                G10G24G15G13
                  85703618.704 5  20613387.445                    20613389.191
                        35.300
                  80430538.907 6  19365502.609                    19365503.031
                        39.600
 125709992.611 6  97955892.97744  23921824.773                    23921830.160
        40.800          24.300
                  85021092.167 6  20413403.633                    20413404.293
                        41.900
 126815729.818 7  98817486.27644  24132236.219                    24132239.473
        45.000          26.200
                  86163065.061 6  20782250.453                    20782251.938
                        41.600
                  88919568.071 6  21364390.063                    21364392.313
                        41.900
                                  22791263.141

                  85608948.212 7  20619567.508                    20619568.672
                        42.100
 113871867.731 7  88731334.21645  21669096.703                    21669098.723
        46.600          34.300
 119355753.177 7  93004494.31644  22712646.117                    22712648.152
        46.500          28.500
 124599882.552 7  97090834.61944  23710569.023                    23710575.949
        44.300          26.400
 116900227.163 7  91091103.84545  22245373.688                    22245380.313
        44.500          33.100
 116641690.334 7  90889650.40945  22196175.977                    22196182.109
        46.400          35.800
 115298242.814 7  89842796.75145  21940526.313                    21940529.746
        47.700          35.900
 120429378.751 7  93841093.40543  22916947.672                    22916952.531
        43.200          22.900
 18  3 11 12  9  2.0000000  0 16R05R13G08R04G17R14R21R12R22G28G11G01
                                G10G24G15G13
                  85702418.811 5  20613099.680                    20613101.047
                        34.900
                  80431370.753 6  19365702.695                    19365703.738
                        39.300
 125713432.907 6  97958573.73043  23922478.781                    23922484.754
        41.300          23.600
                  85023215.023 6  20413913.344                    20413914.023
                        41.800
 126812728.663 7  98815147.70544  24131665.305                    24131668.543
        45.000          26.500
                  86160765.677 6  20781695.734                    20781697.711
                        41.500
                  88921986.633 7  21364969.508                    21364974.074
                        42.300
                                  22792145.742

                  85607872.274 7  20619307.984                    20619309.461
                        42.000
 113873502.854 7  88732608.33545  21669407.156                    21669409.473
        46.400          34.300
 119354649.128 7  93003634.00944  22712435.875                    22712437.945
        46.000          27.900
 124597254.812 7  97088787.02044  23710069.242                    23710075.988
        44.300          25.600
 116899855.909 7  91090814.56345  22245302.945                    22245309.188
        43.900          33.200
 116639217.445 7  90887723.47945  22195705.281                    22195711.004
        46.600          34.800
 115300800.118 7  89844789.45745  21941012.492                    21941016.605
        47.300          35.900
 120433142.132 7  93844025.91343  22917664.063                    22917668.520
        43.000          22.500
 18  3 11 12  9  3.0000000  0 16R05R13G08R04G17R14R21R12R22G28G11G01
                                G10G24G15G13
                  85701219.521 5  20612811.563                    20612812.477
                        34.700
                  80432203.210 6  19365902.898                    19365903.898
                        39.600
 125716873.486 6  97961254.71644  23923134.383                    23923139.711
        41.700          25.500
                  85025338.426 6  20414423.055                    20414423.500
                        41.600
 126809727.660 7  98812809.26444  24131093.672                    24131097.266
        44.500          24.600
                  86158466.621 6  20781141.711                    20781143.293
                        41.600
                  88924405.693 7  21365552.367                    21365555.340
                        42.800
                                  22793024.750

                  85606796.984 6  20619049.898                    20619050.398
                        41.900
 113875138.430 7  88733882.80745  21669718.703                    21669721.102
        46.800          34.500
 119353545.693 7  93002774.18144  22712224.617                    22712228.164
        45.400          29.200
 124594627.434 7  97086739.69144  23709569.328                    23709575.797
        44.300          26.400
 116899485.254 7  91090525.75345  22245232.641                    22245239.059
        42.900          33.300
 116636744.929 7  90885796.84545  22195234.594                    22195240.488
        46.500          34.800
 115303357.897 8  89846782.52846  21941500.258                    21941503.188
        48.600          36.200
 120436905.775 7  93846958.62843  22918380.578                    22918384.719
        43.000          22.600
 18  3 11 12  9  4.0000000  0 16R05R13G08R04G17R14R21R12R22G28G11G01
                                G10G24G15G13
                  85700020.901 5  20612523.977                    20612523.559
                        34.500
                  80433036.373 6  19366103.391                    19366104.305
                        39.600
 125720314.494 6  97963936.04044  23923788.750                    23923793.902
        41.900          25.300
                  85027462.497 6  20414932.500                    20414933.434
                        41.600
 126806727.000 7  98810471.08444  24130523.125                    24130526.414
        44.400          25.500
                  86156168.050 6  20780586.992                    20780589.336
                        41.500
                  88926825.313 7  21366136.859                    21366136.652
                        42.400
                                  22793902.930

                  85605722.432 6  20618790.000                    20618791.758
                        41.800
 113876774.611 7  88735157.75545  21670030.227                    21670032.270
        47.500          34.700
 119352442.971 7  93001914.91844  22712013.523                    22712017.957
        44.700          28.600
 124592000.573 7  97084692.77044  23709069.250                    23709075.871
        44.300          26.200
 116899115.344 7  91090237.51945  22245161.844                    22245168.176
        43.100          33.600
 116634272.949 7  90883870.63645  22194764.250                    22194770.098
        46.400          35.700
 115305916.305 8  89848776.08545  21941986.547                    21941990.246
        48.900          35.900
 120440669.819 7  93849891.66443  22919096.789                    22919100.082
        43.300          21.800
 18  3 11 12  9  5.0000000  0 16R05R13G08R04G17R14R21R12R22G28G11G01
                                G10G24G15G13
                  85698822.952 5  20612235.141                    20612235.543
                        34.600
                  80433870.223 6  19366304.813                    19366305.645
                        39.900
 125723755.979 7  97966617.73344  23924443.516                    23924449.324
        42.000          25.500
                  85029587.180 6  20415443.438                    20415443.516
                        41.900
 126803726.633 7  98808133.14144  24129951.773                    24129955.137
        44.500          27.100
                  86153869.963 6  20780032.242                    20780034.410
                        41.700
                  88929245.544 7  21366718.141                    21366718.492
                        42.300
                                  22794786.453

                  85604648.617 6  20618531.641                    20618533.594
                        41.900
 113878411.404 7  88736433.18045  21670341.773                    21670343.934
        47.700          34.500
 119351341.040 7  93001056.28244  22711804.758                    22711808.211
        45.300          29.300
 124589374.204 7  97082646.23144  23708569.313                    23708575.641
        43.500          25.600
 116898746.190 7  91089949.87645  22245092.117                    22245098.207
        43.500          33.200
 116631801.469 7  90881944.80745  22194294.258                    22194299.926
        46.300          35.700
 115308475.336 8  89850770.13945  21942473.516                    21942477.301
        49.000          35.400
 120444434.303 7  93852825.06843  22919813.320                    22919815.918
        43.900          22.500
 18  3 11 12  9  6.0000000  0 16R05R13G08R04G17R14R21R12R22G28G11G01
                                G10G24G15G13
                  85697625.696 5  20611945.086                    20611948.094
                        34.200
                  80434704.771 6  19366505.234                    19366506.039
                        39.800
 125727197.873 6  97969299.72944  23925098.508                    23925104.195
        41.900          25.800
                  85031712.503 6  20415953.859                    20415953.418
                        41.900
 126800726.563 7  98805795.43544  24129380.859                    24129384.668
        44.300          26.300
                  86151572.323 6  20779478.016                    20779480.336
                        41.800
                  88931666.437 6  21367298.477                    21367299.668
                        41.400
                                  22795665.008

                  85603575.547 7  20618273.156                    20618274.484
                        42.000
 113880048.740 7  88737709.02145  21670653.484                    21670655.594
        47.300          34.800
 119350239.838 7  93000198.21544  22711596.547                    22711598.777
        45.900          28.900
 124586748.357 7  97080600.10644  23708069.273                    23708075.766
        43.000          26.200
 116898377.783 7  91089662.81445  22245022.617                    22245027.992
        44.300          33.600
 116629330.465 7  90880019.35045  22193824.047                    22193829.793
        46.000          35.300
 115311034.957 8  89852764.64346  21942960.938                    21942964.461
        49.800          36.100
 120448199.171 7  93855758.75044  22920529.828                    22920531.949
        43.800          24.100
 18  3 11 12  9  7.0000000  0 16R05R13G08R04G17R14R21R12R22G28G11G01
                                G10G24G15G13
                  85696429.171 5  20611658.109                    20611660.426
                        34.200
                  80435540.033 6  19366705.805                    19366707.203
                        39.600
 125730640.195 6  97971982.05544  23925754.039                    23925759.031
        41.400          26.100
                  85033838.482 6  20416464.359                    20416464.309
                        41.900
 126797726.834 7  98803457.98044  24128810.109                    24128813.770
        44.700          24.400
                  86149275.160 6  20778923.539                    20778926.457
                        41.900
                  88934087.971 6  21367878.563                    21367881.207
                        41.000
                                  22796547.500

                  85602503.223 7  20618016.352                    20618016.879
                        42.100
 113881686.687 7  88738985.34745  21670965.203                    21670967.516
        47.000          34.700
 119349139.385 7  92999340.72144  22711388.125                    22711389.617
        45.800          29.900
 124584122.998 7  97078554.37344  23707569.820                    23707576.344
        42.500          26.000
 116898010.134 7  91089376.34045  22244953.453                    22244957.793
        45.800          33.900
 116626859.968 7  90878094.28745  22193353.461                    22193358.918
        46.100          35.400
 115313595.188 8  89854759.63045  21943447.969                    21943451.242
        49.700          35.500
 120451964.419 7  93858692.72944  22921246.664                    22921248.129
        44.300          24.100
 18  3 11 12  9  8.0000000  0 16R05R13G08R04G17R14R21R12R22G28G11G01
                                G10G24G15G13
                  85695233.308 5  20611370.570                    20611372.461
                        35.100
                  80436375.967 6  19366908.305                    19366908.797
                        39.300
 125734082.954 6  97974664.72844  23926408.492                    23926414.668
        41.100          25.300
                  85035965.139 6  20416974.820                    20416974.852
                        41.900
 126794727.365 7  98801120.72844  24128238.773                    24128242.766
        44.800          25.300
                  86146978.437 6  20778369.789                    20778372.121
                        41.800
                  88936510.139 6  21368458.555                    21368462.609
                        41.300
                                  22797426.328

                  85601431.591 7  20617757.711                    20617758.746
                        42.200
 113883325.207 7  88740262.10645  21671276.578                    21671279.215
        47.300          34.800
 119348039.657 7  92998483.78044  22711178.586                    22711179.906
        46.000          28.700
 124581498.104 6  97076509.00944  23707069.727                    23707076.840
        41.800          25.600
 116897643.204 7  91089090.42245  22244883.992                    22244887.938
        46.700          33.800
 116624389.946 7  90876169.59145  22192883.211                    22192888.945
        46.200          35.600
 115316156.015 8  89856755.08346  21943934.727                    21943938.578
        49.000          36.200
 120455730.074 7  93861627.02944  22921963.109                    22921964.273
        44.300          25.900
 18  3 11 12  9  9.0000000  0 16R05R13G08R04G17R14R21R12R22G28G11G01
                                G10G24G15G13
                  85694038.123 5  20611083.461                    20611084.848
                        34.600
                  80437212.593 6  19367109.586                    19367109.605
                        39.300
 125737526.107 6  97977347.71044  23927064.281                    23927069.645
        41.200          26.500
                  85038092.452 6  20417484.820                    20417485.848
                        41.900
 126791728.190 7  98798783.71344  24127668.273                    24127671.918
        45.200          26.200
                  86144682.167 6  20777816.117                    20777818.504
                        41.900
                  88938932.962 6  21369041.266                    21369043.688
                        41.500
                                  22798305.742

                  85600360.682 7  20617499.109                    20617500.258
                        42.300
 113884964.286 7  88741539.31245  21671588.180                    21671590.953
        47.300          34.900
 119346940.655 7  92997627.40444  22710969.172                    22710971.191
        46.000          29.200
 124578873.673 6  97074464.01344  23706570.656                    23706577.324
        41.400          27.000
 116897276.995 7  91088805.06045  22244813.961                    22244818.457
        47.200          33.800
 116621920.412 7  90874245.27545  22192413.867                    22192419.574
        46.300          35.700
 115318717.432 8  89858750.99546  21944422.672                    21944425.676
        49.300          36.000
 120459496.114 7  93864561.60844  22922680.078                    22922680.938
        44.700          27.000
 18  3 11 12  9 10.0000000  0 16R05R13G08R04G17R14R21R12R22G28G11G01
                                G10G24G15G13
                  85692843.579 5  20610796.852                    20610797.176
                        35.300
                  80438049.844 6  19367311.109                    19367311.629
                        39.600
 125740969.655 6  97980031.00144  23927718.742                    23927724.953
        41.400          26.000
                  85040220.367 6  20417995.883                    20417996.773
                        41.800
 126788729.260 7  98796446.88644  24127097.484                    24127101.375
        45.200          26.500
                  86142386.315 6  20777262.250                    20777264.656
                        41.600
                  88941356.269 6  21369627.531                    21369626.438
                        41.800
                                  22799191.258

                  85599290.473 7  20617241.422                    20617243.039
                        42.300
 113886603.880 7  88742816.91845  21671900.563                    21671902.699
        46.800          35.500
 119345842.326 7  92996771.55244  22710759.727                    22710762.363
        46.000          28.700
 124576249.732 6  97072419.40044  23706071.602                    23706078.102
        41.500          26.900
 116896911.471 7  91088520.23545  22244744.703                    22244749.289
        47.500          33.600
 116619451.336 7  90872321.32345  22191944.109                    22191949.840
        46.400          35.600
 115321279.397 8  89860747.32845  21944909.953                    21944913.563
        48.700          35.700
 120463262.485 7  93867496.44244  22923396.430                    22923397.984
        45.000          27.000
 18  3 11 12  9 11.0000000  0 16R05R13G08R04G17R14R21R12R22G28G11G01
                                G10G24G15G13
                  85691649.684 5  20610509.828                    20610510.461
                        34.900
                  80438887.771 6  19367512.438                    19367513.512
                        39.700
 125744413.603 6  97982714.59144  23928374.016                    23928380.590
        41.600          26.600
                  85042348.880 6  20418507.125                    20418507.621
                        41.500
 126785730.600 7  98794110.27744  24126527.219                    24126530.922
        44.900          27.400
                  86140090.910 6  20776708.742                    20776711.023
                        41.500
                  88943780.098 6  21370212.016                    21370210.063
                        41.800
                                  22800065.742

                  85598220.950 7  20616983.313                    20616984.996
                        42.100
 113888244.033 7  88744094.95945  21672212.672                    21672215.621
        47.200          35.400
 119344744.707 7  92995916.26144  22710550.469                    22710553.469
        45.400          27.900
 124573626.229 6  97070375.12744  23705572.227                    23705579.477
        40.700          27.800
 116896546.678 7  91088235.96845  22244675.141                    22244679.207
        47.800          33.500
 116616982.723 7  90870397.72845  22191474.250                    22191479.633
        46.100          35.300
 115323841.953 7  89862744.12646  21945397.117                    21945401.293
        47.800          36.200
 120467029.246 7  93870431.57244  22924113.242                    22924114.609
        45.500          28.900
 18  3 11 12  9 12.0000000  0 16R05R13G08R04G17R14R21R12R22G28G11G01
                                G10G24G15G13
                  85690456.413 5  20610221.844                    20610223.656
                        34.800
                  80439726.324 6  19367714.320                    19367714.613
                        39.800
 125747857.902 6  97985398.46744  23929029.758                    23929036.180
        40.800          25.000
                  85044477.974 6  20419018.359                    20419018.914
                        41.900
 126782732.197 7  98791773.87444  24125956.508                    24125960.445
        44.700          25.700
                  86137795.900 6  20776154.852                    20776157.355
                        41.400
                  88946204.486 7  21370793.906                    21370793.043
                        42.100
                                  22800948.703

                  85597152.127 7  20616726.641                    20616727.672
                        42.300
 113889884.722 7  88745373.42345  21672524.625                    21672527.652
        47.200          35.000
 119343647.759 7  92995061.48944  22710341.141                    22710344.711
        44.900          28.500
 124571003.180 6  97068331.21244  23705073.922                    23705080.203
        41.200          26.900
 116896182.520 7  91087952.19445  22244605.289                    22244610.281
        47.600          34.000
 116614514.563 7  90868474.48845  22191004.117                    22191009.773
        45.900          35.200
 115326405.046 7  89864741.34046  21945885.500                    21945888.801
        47.600          36.100
 120470796.347 7  93873366.97044  22924830.141                    22924832.059
        45.000          28.500
 18  3 11 12  9 13.0000000  0 16R05R13G08R04G17R14R21R12R22G28G11G01
                                G10G24G15G13
                  85689263.821 5  20609934.680                    20609936.555
                        34.900
                  80440565.557 6  19367916.938                    19367917.445
                        39.700
 125751302.613 6  97988082.65644  23929685.234                    23929691.484
        40.300          24.500
                  85046607.700 6  20419529.938                    20419530.473
                        41.900
 126779734.066 7  98789437.67644  24125385.688                    24125389.887
        45.100          27.100
                  86135501.345 6  20775601.797                    20775603.320
                        41.600
                  88948629.528 7  21371374.563                    21371375.816
                        42.500
                                  22801832.391

                  85596084.005 6  20616469.461                    20616470.578
                        41.900
 113891525.940 7  88746652.29145  21672837.195                    21672839.805
        46.800          34.500
 119342551.506 7  92994207.27144  22710132.117                    22710136.250
        44.200          28.600
 124568380.596 7  97066287.65744  23704574.953                    23704581.418
        42.000          28.000
 116895819.097 8  91087668.99445  22244536.188                    22244541.055
        48.000          34.000
 116612046.892 7  90866551.62845  22190534.445                    22190540.664
        46.000          35.000
 115328968.698 8  89866738.97946  21946373.969                    21946376.406
        48.000          36.900
 120474563.793 7  93876302.63644  22925546.859                    22925549.617
        44.600          29.700
 18  3 11 12  9 14.0000000  0 16R05R13G08R04G17R14R21R12R22G28G11G01
                                G10G24G15G13
                  85688071.938 5  20609648.383                    20609650.379
                        35.000
                  80441405.498 6  19368118.031                    19368119.691
                        39.900
 125754747.733 6  97990767.16144  23930340.539                    23930346.949
        39.700          26.100
                  85048738.090 6  20420042.023                    20420041.977
                        41.800
 126776736.200 7  98787101.68244  24124816.008                    24124819.559
        45.400          26.800
                  86133207.222 6  20775048.430                    20775050.504
                        41.600
                  88951055.176 7  21371955.563                    21371959.410
                        42.300
                                  22802707.852

                  85595016.575 6  20616211.305                    20616213.605
                        41.800
 113893167.723 7  88747931.60445  21673149.617                    21673152.320
        47.300          34.800
 119341455.966 7  92993353.61244  22709923.117                    22709927.434
        43.100          27.500
 124565758.470 7  97064244.44644  23704075.992                    23704082.699
        42.600          28.000
 116895456.388 7  91087386.35045  22244467.234                    22244472.113
        47.900          33.600
 116609579.691 7  90864629.13545  22190065.023                    22190070.504
        46.100          35.000
 115331532.952 8  89868737.09646  21946861.219                    21946864.363
        48.200          36.400
 120478331.621 7  93879238.60044  22926263.797                    22926266.676
        45.100          29.800
 18  3 11 12  9 15.0000000  0 16R05R13G08R04G17R14R21R12R22G28G11G01
                                G10G24G15G13
                  85686880.694 5  20609361.414                    20609362.906
                        35.400
                  80442246.068 6  19368320.516                    19368322.137
                        40.000
 125758193.205 6  97993451.93744  23930995.953                    23931002.980
        39.500          26.400
                  85050869.099 6  20420552.859                    20420553.203
                        41.900
 126773738.591 7  98784765.89044  24124245.727                    24124249.074
        45.200          26.400
                  86130913.516 6  20774495.094                    20774497.391
                        41.600
                  88953481.419 6  21372536.594                    21372541.520
                        41.900
                                  22803590.977

                  85593949.860 7  20615954.898                    20615956.188
                        42.100
 113894810.038 7  88749211.32945  21673461.945                    21673464.555
        47.500          34.700
 119340361.128 7  92992500.50444  22709715.000                    22709719.133
        43.600          28.500
 124563136.817 7  97062201.60444  23703577.711                    23703584.211
        43.600          28.100
 116895094.347 7  91087104.22445  22244397.820                    22244403.063
        47.300          33.300
 116607112.937 7  90862706.99345  22189596.031                    22189601.684
        45.800          35.300
 115334097.772 7  89870735.66446  21947348.766                    21947352.590
        47.900          36.300
 120482099.796 7  93882174.83545  22926980.500                    22926983.465
        45.200          30.500
 18  3 11 12  9 16.0000000  0 16R05R13G08R04G17R14R21R12R22G28G11G01
                                G10G24G15G13
                  85685690.092 5  20609075.570                    20609076.996
                        35.300
                  80443087.310 6  19368523.484                    19368524.664
                        40.000
 125761639.063 6  97996137.00844  23931651.438                    23931658.371
        40.100          25.100
                  85053000.747 6  20421064.766                    20421065.133
                        41.900
 126770741.284 7  98782430.32944  24123675.273                    24123679.035
        45.200          27.600
                  86128620.227 6  20773942.414                    20773944.363
                        41.500
                  88955908.257 6  21373120.570                    21373123.680
                        41.600
                                  22804471.742

                  85592883.847 7  20615699.188                    20615699.883
                        42.100
 113896452.900 7  88750491.48445  21673774.781                    21673777.125
        47.600          34.000
 119339266.961 7  92991647.92344  22709508.406                    22709510.551
        44.500          28.300
 124560515.574 7  97060159.07744  23703078.648                    23703085.320
        44.300          28.800
 116894732.997 7  91086822.64345  22244328.234                    22244334.668
        47.000          33.300
 116604646.619 7  90860785.18845  22189126.797                    22189132.230
        46.100          34.800
 115336663.145 8  89872734.65246  21947837.742                    21947840.863
        48.500          36.000
 120485868.329 7  93885111.34344  22927697.711                    22927701.355
        45.500          29.900
 18  3 11 12  9 17.0000000  0 16R05R13G08R04G17R14R21R12R22G28G11G01
                                G10G24G15G13
                  85684500.107 5  20608789.766                    20608790.719
                        34.900
                  80443929.212 6  19368726.234                    19368727.656
                        39.700
 125765085.308 6  97998822.37544  23932307.508                    23932314.219
        39.700          24.700
                  85055132.970 6  20421576.492                    20421577.441
                        41.600
 126767744.169 7  98780094.91244  24123105.391                    24123108.738
        45.200          28.100
                  86126327.370 6  20773389.453                    20773391.652
                        41.600
                  88958335.617 6  21373706.055                    21373706.816
                        41.800
                                  22805351.352

                  85591818.511 6  20615442.219                    20615443.055
                        41.900
 113898096.279 7  88751772.04245  21674087.375                    21674090.012
        47.800          34.800
 119338173.487 7  92990795.86544  22709301.094                    22709302.727
        45.300          29.400
 124557894.827 7  97058116.94244  23702579.211                    23702586.848
        44.900          28.800
 116894372.341 7  91086541.60445  22244259.813                    22244265.980
        46.000          33.600
 116602180.757 7  90858863.73945  22188657.141                    22188662.879
        46.100          34.700
 115339229.039 8  89874734.05045  21948326.391                    21948329.012
        49.200          35.900
 120489637.211 7  93888048.12744  22928414.672                    22928418.750
        45.400          29.600
 18  3 11 12  9 18.0000000  0 16R05R13G08R04G17R14R21R12R22G28G11G01
                                G10G24G15G13
                  85683310.809 5  20608502.141                    20608504.301
                        35.500
                  80444771.838 6  19368929.414                    19368930.184
                        39.500
 125768531.992 6  98001508.08344  23932963.141                    23932969.918
        39.800          25.300
                  85057265.840 6  20422088.945                    20422089.297
                        41.600
 126764747.425 7  98777759.79044  24122534.664                    24122538.406
        45.300          26.900
                  86124035.013 6  20772836.414                    20772838.379
                        41.500
                  88960763.567 6  21374291.367                    21374289.609
                        41.600
                                  22806233.867

                  85590753.927 6  20615185.773                    20615186.410
                        41.800
 113899740.284 7  88753053.08545  21674400.438                    21674402.934
        47.600          34.300
 119337080.811 7  92989944.43244  22709093.422                    22709094.945
        45.300          29.100
 124555274.605 7  97056075.20644  23702081.203                    23702088.230
        44.800          28.300
 116894012.414 7  91086261.13845  22244190.945                    22244197.641
        45.200          33.400
 116599715.414 7  90856942.68645  22188188.266                    22188194.074
        46.300          34.400
 115341795.595 8  89876733.97545  21948813.797                    21948818.008
        48.200          35.700
 120493406.512 7  93890985.23845  22929132.281                    22929136.375
        44.900          30.900
 18  3 11 12  9 19.0000000  0 16R05R13G08R04G17R14R21R12R22G28G11G01
                                G10G24G15G13
                  85682122.225 5  20608216.984                    20608218.734
                        35.200
                  80445615.120 6  19369131.992                    19369132.785
                        39.600
 125771979.098 6  98004194.12744  23933619.531                    23933626.691
        39.900          25.300
                  85059399.314 6  20422600.773                    20422601.750
                        41.500
 126761750.940 7  98775424.87044  24121964.563                    24121968.297
        45.200          28.100
                  86121743.117 6  20772283.070                    20772285.426
                        41.500
                  88963192.113 6  21374874.594                    21374874.410
                        41.900
                                  22807113.258

                  85589690.073 6  20614929.383                    20614929.961
                        41.900
 113901384.838 7  88754334.55145  21674713.594                    21674715.828
        47.700          35.300
 119335988.824 7  92989093.51744  22708885.156                    22708887.332
        44.900          29.200
 124552654.834 7  97054033.82444  23701582.594                    23701590.027
        45.200          28.500
 116893653.231 7  91085981.25345  22244122.070                    22244129.160
        44.100          33.500
 116597250.572 7  90855022.02845  22187719.531                    22187724.984
        45.800          34.600
 115344362.741 7  89878734.35545  21949302.047                    21949305.902
        47.900          35.800
 120497176.176 7  93893922.63645  22929849.320                    22929854.047
        45.200          30.500
 18  3 11 12  9 20.0000000  0 16R05R13G08R04G17R14R21R12R22G28G11G01
                                G10G24G15G13
                  85680934.290 5  20607931.531                    20607932.883
                        35.000
                  80446459.072 6  19369335.164                    19369336.582
                        39.700
 125775426.550 6  98006880.44344  23934275.344                    23934282.273
        39.900          24.000
                  85061533.407 6  20423113.094                    20423113.617
                        41.800
 126758754.706 7  98773090.14344  24121393.898                    24121397.777
        45.500          27.200
                  86119451.602 6  20771730.547                    20771732.938
                        41.800
                  88965621.269 6  21375457.242                    21375457.754
                        41.800
                                  22807996.258

                  85588626.884 6  20614672.500                    20614674.586
                        41.900
 113903029.917 7  88755616.43745  21675026.711                    21675028.563
        47.800          35.100
 119334897.486 7  92988243.11044  22708676.359                    22708679.996
        44.300          29.200
 124550035.536 7  97051992.80744  23701084.305                    23701091.352
        45.700          29.100
 116893294.703 7  91085701.88345  22244053.539                    22244060.906
        43.000          33.500
 116594786.130 7  90853101.68745  22187250.367                    22187255.934
        45.700          34.900
 115346930.407 8  89880735.12446  21949792.000                    21949794.488
        48.900          36.000
 120500946.195 7  93896860.30644  22930566.758                    22930571.531
        44.900          29.000
 18  3 11 12  9 21.0000000  0 16R05R13G08R04G17R14R21R12R22G28G11G01
                                G10G24G15G13
                  85679747.077 5  20607646.898                    20607647.555
                        34.800
                  80447303.727 6  19369538.586                    19369539.723
                        39.900
 125778874.473 6  98009567.12944  23934931.852                    23934938.289
        40.200          24.500
                  85063668.178 6  20423626.094                    20423626.602
                        41.600
 126755758.807 7  98770755.68844  24120824.195                    24120827.754
        45.500          27.600
                  86117160.540 6  20771178.164                    20771180.531
                        41.900
                  88968051.102 6  21376039.172                    21376040.891
                        41.800
                                  22808876.227

                  85587564.445 7  20614417.703                    20614418.242
                        42.100
 113904675.604 7  88756898.78345  21675339.563                    21675342.406
        47.000          35.200
 119333806.916 7  92987393.30944  22708468.250                    22708472.246
        44.300          29.100
 124547416.719 7  97049952.16944  23700585.844                    23700592.688
        46.000          28.100
 116892936.929 7  91085423.11445  22243985.453                    22243992.453
        42.300          33.800
 116592322.222 7  90851181.76245  22186781.219                    22186787.168
        45.800          35.300
 115349498.701 8  89882736.39246  21950279.992                    21950283.516
        48.000          36.400
 120504716.621 7  93899798.28944  22931283.844                    22931289.195
        44.200          29.700
 18  3 11 12  9 22.0000000  0 16R05R13G08R04G17R14R21R12R22G28G11G01
                                G10G24G15G13
                  85678560.513 5  20607361.297                    20607362.074
                        34.600
                  80448149.035 6  19369742.141                    19369742.512
                        40.000
 125782322.747 6  98012254.08944  23935588.359                    23935594.469
        40.400          25.200
                  85065803.604 6  20424138.148                    20424139.402
                        41.400
 126752763.165 7  98768421.43144  24120254.031                    24120257.977
        45.600          26.000
                  86114869.911 6  20770625.773                    20770627.832
                        41.800
                  88970481.488 6  21376622.258                    21376624.875
                        41.500
                                  22809754.727

                  85586502.708 6  20614161.766                    20614162.387
                        41.800
 113906321.813 7  88758181.54545  21675652.773                    21675655.066
        47.100          35.200
 119332717.065 7  92986544.08244  22708261.305                    22708264.809
        44.400          29.300
 124544798.400 7  97047911.91644  23700087.289                    23700094.742
        45.400          27.300
 116892579.841 6  91085144.87845  22243918.023                    22243924.434
        41.900          33.000
 116589858.762 7  90849262.18245  22186312.344                    22186318.625
        45.800          34.700
 115352067.590 7  89884738.12846  21950767.992                    21950772.258
        47.400          36.100
 120508487.400 7  93902736.55544  22932001.242                    22932006.852
        44.200          28.600
 18  3 11 12  9 23.0000000  0 16R05R13G08R04G17R14R21R12R22G28G11G01
                                G10G24G15G13
                  85677374.574 5  20607076.727                    20607076.863
                        34.600
                  80448995.014 6  19369946.398                    19369947.090
                        39.800
 125785771.399 6  98014941.35544  23936244.500                    23936251.105
        40.800          26.000
                  85067939.627 6  20424651.219                    20424652.238
                        41.600
 126749767.769 7  98766087.35544  24119683.711                    24119687.605
        45.200          26.700
                  86112579.729 6  20770073.156                    20770075.566
                        41.700
                  88972912.448 6  21377205.797                    21377208.242
                        41.900
                                  22810641.375

                  85585441.649 7  20613906.023                    20613907.184
                        42.000
 113907968.553 7  88759464.72045  21675965.977                    21675968.488
        47.200          35.200
 119331627.883 7  92985695.38544  22708054.672                    22708057.301
        44.600          29.000
 124542180.499 7  97045871.99044  23699589.305                    23699596.184
        44.400          27.000
 116892223.444 7  91084867.19545  22243851.000                    22243856.930
        42.200          32.700
 116587395.771 7  90847342.97045  22185843.656                    22185849.613
        45.900          34.600
 115354637.016 8  89886740.26846  21951258.445                    21951261.102
        48.800          36.300
 120512258.544 7  93905675.10444  22932719.039                    22932724.777
        43.700          28.500
 18  3 11 12  9 24.0000000  0 16R05R13G08R04G17R14R21R12R22G28G11G01
                                G10G24G15G13
                  85676189.299 5  20606790.797                    20606792.309
                        35.100
                  80449841.674 6  19370150.070                    19370150.395
                        40.300
 125789220.498 6  98017628.97644  23936901.320                    23936907.375
        41.000          25.800
                  85070076.282 6  20425164.609                    20425165.156
                        41.900
 126746772.685 7  98763753.52644  24119114.148                    24119117.652
        45.400          26.900
                  86110290.017 6  20769520.938                    20769523.715
                        41.900
                  88975344.017 7  21377792.125                    21377792.344
                        42.100
                                  22811520.805

                  85584381.335 7  20613650.602                    20613651.559
                        42.100
 113909615.887 7  88760748.35445  21676279.484                    21676282.191
        47.100          35.200
 119330539.466 7  92984847.27144  22707847.953                    22707850.160
        44.900          28.200
 124539563.101 7  97043832.44044  23699090.359                    23699098.277
        43.900          27.600
 116891867.783 7  91084590.07245  22243784.039                    22243789.227
        43.400          33.600
 116584933.324 7  90845424.18545  22185375.367                    22185381.242
        45.700          35.000
 115357207.029 8  89888742.87546  21951747.273                    21951750.480
        48.700          36.600
 120516030.091 7  93908613.95244  22933436.430                    22933442.297
        43.300          27.500
 18  3 11 12  9 25.0000000  0 16R05R13G08R04G17R14R21R12R22G28G11G01
                                G10G24G15G13
                  85675004.679 5  20606503.680                    20606507.141
                        34.700
                  80450689.038 6  19370354.070                    19370354.758
                        40.200
 125792670.003 6  98020316.91244  23937557.250                    23937563.664
        40.800          25.500
                  85072213.534 6  20425677.594                    20425678.109
                        41.900
 126743777.858 7  98761419.89444  24118544.094                    24118547.648
        44.900          26.700
                  86108000.751 6  20768969.078                    20768971.434
                        41.500
                  88977776.155 7  21378378.203                    21378377.641
                        42.400
                                  22812398.328

                  85583321.729 7  20613395.953                    20613396.527
                        42.000
 113911263.735 7  88762032.39345  21676593.172                    21676595.449
        47.000          35.200
 119329451.746 7  92983999.69444  22707640.797                    22707643.238
        45.200          28.900
 124536946.157 7  97041793.26444  23698592.063                    23698599.738
        43.400          26.700
 116891512.871 7  91084313.53345  22243717.000                    22243721.641
        43.900          33.500
 116582471.305 7  90843505.72645  22184906.703                    22184912.516
        45.800          35.400
 115359777.647 8  89890745.95445  21952235.563                    21952239.871
        48.100          35.900
 120519801.984 7  93911553.07544  22934153.820                    22934160.074
        42.900          25.900
 18  3 11 12  9 26.0000000  0 16R05R13G08R04G17R14R21R12R22G28G11G01
                                G10G24G15G13
                  85673820.774 5  20606219.508                    20606221.988
                        34.900
                  80451537.050 6  19370558.289                    19370559.211
                        40.200
 125796119.889 6  98023005.14744  23938213.648                    23938219.973
        40.500          25.700
                  85074351.427 6  20426191.125                    20426191.555
                        41.600
 126740783.312 7  98759086.47244  24117974.492                    24117978.219
        45.000          27.200
                  86105711.866 6  20768416.586                    20768418.785
                        41.600
                  88980208.850 7  21378962.789                    21378963.344
                        42.700
                                  22813285.383

                  85582262.822 6  20613140.773                    20613141.430
                        41.700
 113912912.165 7  88763316.88545  21676906.750                    21676909.453
        46.900          34.900
 119328364.717 7  92983152.64844  22707433.664                    22707436.566
        44.900          28.200
 124534329.697 7  97039754.44744  23698093.992                    23698101.816
        43.200          25.600
 116891158.627 7  91084037.50145  22243649.250                    22243653.957
        44.000          33.800
 116580009.758 7  90841587.63245  22184438.266                    22184444.301
        45.800          35.200
 115362348.808 8  89892749.45645  21952725.805                    21952728.594
        48.900          35.800
 120523574.244 7  93914492.48644  22934871.781                    22934877.793
        42.700          27.000
 18  3 11 12  9 27.0000000  0 16R05R13G08R04G17R14R21R12R22G28G11G01
                                G10G24G15G13
                  85672637.585 5  20605936.039                    20605937.770
                        34.600
                  80452385.770 6  19370762.523                    19370763.777
                        40.100
 125799570.153 7  98025693.67744  23938870.883                    23938876.836
        42.100          25.200
                  85076489.967 7  20426704.500                    20426705.313
                        42.000
 126737789.051 7  98756753.28244  24117404.484                    24117408.211
        45.000          26.800
                  86103423.450 6  20767865.156                    20767866.664
                        41.800
                  88982642.155 7  21379545.289                    21379548.008
                        43.100
                                  22814164.859

                  85581204.661 6  20612885.531                    20612886.582
                        41.800
 113914561.177 7  88764601.83045  21677220.430                    21677223.266
        47.400          35.300
 119327278.423 7  92982306.18244  22707226.367                    22707229.609
        44.400          28.900
 124531713.704 7  97037716.00944  23697596.328                    23697603.438
        42.400          25.500
 116890805.131 7  91083762.04445  22243582.172                    22243586.816
        44.600          34.700
 116577548.688 7  90839669.91145  22183969.695                    22183975.664
        45.600          35.100
 115364920.551 8  89894753.42046  21953215.078                    21953218.383
        49.300          36.000
 120527346.900 7  93917432.21444  22935590.125                    22935595.512
        42.800          26.200
 18  3 11 12  9 28.0000000  0 16R05R13G08R04G17R14R21R12R22G28G11G01
                                G10G24G15G13
                  85671455.007 5  20605652.672                    20605653.305
                        34.900
                  80453235.147 6  19370966.938                    19370967.457
                        40.200
 125803020.847 7  98028382.52544  23939527.789                    23939533.242
        42.200          25.000
                  85078629.127 6  20427217.789                    20427218.395
                        41.700
 126734795.071 7  98754420.31844  24116834.547                    24116838.586
        44.700          25.700
                  86101135.480 7  20767312.664                    20767315.531
                        42.100
                  88985076.072 7  21380128.875                    21380133.469
                        42.300
                                  22815041.469

                  85580147.208 7  20612631.055                    20612631.703
                        42.000
 113916210.708 7  88765887.18045  21677534.859                    21677537.043
        47.300          35.000
 119326192.822 7  92981460.26144  22707019.617                    22707022.926
        44.600          29.100
 124529098.164 7  97035677.92744  23697099.305                    23697105.941
        42.000          24.600
 116890452.353 7  91083487.14045  22243514.688                    22243519.605
        45.300          33.900
 116575088.068 7  90837752.54345  22183502.133                    22183507.660
        45.900          35.300
 115367492.904 7  89896757.86245  21953702.820                    21953707.809
        47.700          35.400
 120531119.915 7  93920372.20144  22936308.531                    22936313.508
        43.100          25.700
 18  3 11 12  9 29.0000000  0 16R05R13G08R04G17R14R21R12R22G28G11G01
                                G10G24G15G13
                  85670273.077 5  20605368.398                    20605368.602
                        35.100
                  80454085.187 6  19371172.234                    19371172.199
                        40.100
 125806471.949 7  98031071.70344  23940183.781                    23940189.707
        42.400          24.400
                  85080768.926 6  20427732.102                    20427732.473
                        41.600
 126731801.347 7  98752087.55544  24116265.164                    24116268.598
        44.900          25.300
                  86098847.951 7  20766761.094                    20766762.727
                        42.300
                  88987510.608 6  21380713.781                    21380718.387
                        41.800
                                  22815929.164

                  85579090.447 7  20612377.148                    20612377.629
                        42.100
 113917860.794 7  88767172.96245  21677848.742                    21677850.965
        47.000          34.600
 119325107.929 7  92980614.89244  22706813.789                    22706816.867
        44.700          28.900
 124526483.095 6  97033640.21044  23696601.219                    23696607.402
        41.600          25.600
 116890100.253 7  91083212.76545  22243447.234                    22243452.613
        45.900          33.300
 116572627.928 7  90835835.55845  22183033.508                    22183039.445
        46.000          35.400
 115370065.817 8  89898762.72746  21954193.688                    21954196.914
        48.400          36.200
 120534893.294 7  93923312.48144  22937026.750                    22937031.250
        43.400          25.000
 18  3 11 12  9 30.0000000  0 16R05R13G08R04G17R14R21R12R22G28G11G01
                                G10G24G15G13
                  85669091.772 5  20605082.992                    20605085.000
                        34.800
                  80454935.911 6  19371376.242                    19371377.676
                        39.900
 125809923.380 7  98033761.14544  23940840.875                    23940846.418
        42.400          25.800
                  85082909.330 6  20428245.836                    20428246.684
                        41.600
 126728807.884 7  98749754.98044  24115695.406                    24115698.734
        45.000          27.400
                  86096560.868 6  20766209.617                    20766211.727
                        41.900
                  88989945.708 6  21381299.914                    21381303.367
                        41.300
                                  22816808.188

                  85578034.365 7  20612121.680                    20612122.863
                        42.000
 113919511.434 7  88768459.17345  21678162.680                    21678165.180
        46.900          34.700
 119324023.735 7  92979770.06944  22706607.594                    22706610.117
        44.600          29.100
 124523868.476 6  97031602.85444  23696104.336                    23696110.031
        41.400          25.600
 116889748.843 7  91082938.93345  22243380.469                    22243385.473
        45.800          34.500
 116570168.254 7  90833918.93645  22182565.508                    22182571.559
        46.200          35.000
 115372639.248 8  89900767.98645  21954684.141                    21954686.813
        49.000          35.900
 120538667.021 7  93926253.04044  22937745.414                    22937749.445
        43.700          24.900
 18  3 11 12  9 31.0000000  0 16R05R13G08R04G17R14R21R12R22G28G11G01
                                G10G24G15G13
                  85667911.190 5  20604797.930                    20604800.996
                        35.300
                  80455787.315 6  19371581.547                    19371582.512
                        39.900
 125813375.285 7  98036450.94444  23941497.500                    23941503.414
        42.800          25.800
                  85085050.389 6  20428759.352                    20428760.098
                        41.700
 126725814.749 7  98747422.66844  24115125.656                    24115129.438
        45.300          24.900
                  86094274.248 7  20765657.930                    20765659.953
                        42.000
                  88992381.379 6  21381886.836                    21381886.945
                        40.800
                                  22817689.023

                  85576979.043 7  20611867.898                    20611869.363
                        42.300
 113921162.659 7  88769745.84245  21678477.344                    21678479.266
        47.300          34.400
 119322940.300 7  92978925.83044  22706401.258                    22706403.977
        44.600          28.200
 124521254.363 6  97029565.90144  23695607.258                    23695612.176
        41.500          26.800
 116889398.186 7  91082665.67945  22243313.352                    22243319.453
        45.200          34.200
 116567709.082 7  90832002.69645  22182097.445                    22182103.496
        45.900          35.100
 115375213.330 7  89902773.76945  21955172.570                    21955176.746
        47.600          35.500
 120542441.138 7  93929193.90644  22938463.820                    22938467.551
        43.900          24.500
 18  3 11 12  9 32.0000000  0 16R05R13G08R04G17R14R21R12R22G28G11G01
                                G10G24G15G13
                  85666731.242 5  20604514.617                    20604516.980
                        35.200
                  80456639.339 6  19371786.750                    19371787.199
                        39.900
 125816827.550 7  98039141.02344  23942154.961                    23942160.414
        42.600          25.600
                  85087192.044 6  20429274.391                    20429274.688
                        41.700
 126722821.829 7  98745090.52644  24114556.273                    24114560.082
        45.500          26.000
                  86091988.022 7  20765107.016                    20765108.672
                        42.400
                  88994817.612 6  21382472.969                    21382471.602
                        40.500
                                  22818572.703

                  85575924.383 7  20611613.617                    20611615.051
                        42.300
 113922814.390 7  88771032.90345  21678791.422                    21678793.898
        47.600          34.200
 119321857.493 7  92978082.07744  22706194.922                    22706198.020
        44.500          28.900
 124518640.716 6  97027529.29944  23695109.898                    23695115.117
        41.600          26.200
 116889048.181 7  91082392.94745  22243246.680                    22243252.727
        45.100          35.100
 116565250.348 7  90830086.80345  22181629.891                    22181635.449
        45.700          35.100
 115377787.958 7  89904779.97045  21955663.039                    21955666.313
        47.500          35.200
 120546215.600 7  93932135.06644  22939182.023                    22939185.090
        44.300          25.100
 18  3 11 12  9 33.0000000  0 16R05R13G08R04G17R14R21R12R22G28G11G01
                                G10G24G15G13
                  85665551.987 5  20604232.063                    20604233.805
                        35.400
                  80457492.064 6  19371992.109                    19371993.387
                        40.000
 125820280.232 7  98041831.43444  23942811.633                    23942817.180
        42.600          24.100
                  85089334.339 6  20429787.867                    20429788.320
                        41.700
 126719829.216 7  98742758.61944  24113986.797                    24113990.266
        45.900          26.700
                  86089702.236 7  20764555.234                    20764557.313
                        42.100
                  88997254.501 6  21383057.672                    21383056.387
                        41.300
                                  22819449.602

                  85574870.446 7  20611359.430                    20611360.852
                        42.200
 113924466.694 7  88772320.42145  21679105.250                    21679108.047
        47.400          34.800
 119320775.458 7  92977238.93144  22705989.000                    22705992.105
        44.500          29.100
 124516027.527 7  97025493.05444  23694612.586                    23694617.918
        42.400          27.900
 116888698.937 7  91082120.81045  22243180.586                    22243186.457
        45.200          34.300
 116562792.079 7  90828171.26745  22181162.047                    22181167.875
        45.200          35.200
 115380363.149 8  89906786.60145  21956154.414                    21956156.359
        49.000          35.900
 120549990.422 7  93935076.51944  22939900.672                    22939903.414
        44.900          26.000
 18  3 11 12  9 34.0000000  0 16R05R13G08R04G17R14R21R12R22G28G11G01
                                G10G24G15G13
                  85664373.417 5  20603948.422                    20603950.090
                        35.400
                  80458345.495 6  19372198.148                    19372198.453
                        39.700
 125823733.295 7  98044522.14844  23943468.336                    23943474.520
        42.300          26.100
                  85091477.291 6  20430302.766                    20430303.242
                        41.900
 126716836.889 7  98740426.93644  24113417.492                    24113421.301
        46.000          28.000
                  86087416.912 6  20764004.547                    20764005.902
                        41.600
                  88999691.966 6  21383641.883                    21383641.684
                        41.400
                                  22820336.289

                  85573817.226 7  20611105.578                    20611107.172
                        42.500
 113926119.579 7  88773608.37845  21679420.141                    21679422.570
        47.600          34.000
 119319694.124 7  92976396.33644  22705783.633                    22705786.098
        45.100          28.400
 124513414.853 7  97023457.20344  23694115.516                    23694120.859
        42.900          28.100
 116888350.411 7  91081849.23545  22243113.742                    22243119.723
        45.300          34.400
 116560334.326 7  90826256.14045  22180694.438                    22180699.785
        45.200          35.000
 115382938.946 8  89908793.71146  21956643.719                    21956646.973
        48.700          36.100
 120553765.653 7  93938018.27144  22940618.867                    22940621.043
        45.400          26.300
 18  3 11 12  9 35.0000000  0 16R05R13G08R04G17R14R21R12R22G28G11G01
                                G10G24G15G13
                  85663195.511 5  20603665.188                    20603667.094
                        35.400
                  80459199.590 6  19372403.164                    19372404.410
                        39.700
 125827186.789 7  98047213.19244  23944125.664                    23944131.625
        42.300          24.600
                  85093620.861 6  20430817.453                    20430818.254
                        41.900
 126713844.850 7  98738095.47344  24112848.172                    24112851.449
        46.400          27.300
                  86085132.042 6  20763453.523                    20763455.113
                        41.600
                  89002130.046 6  21384225.383                    21384227.973
                        41.900
                                  22821216.172

                  85572764.727 7  20610853.094                    20610853.570
                        42.100
 113927773.015 7  88774896.77245  21679734.750                    21679737.262
        47.400          34.400
 119318613.529 7  92975554.31644  22705578.063                    22705580.676
        45.500          28.900
 124510802.641 7  97021421.70744  23693618.828                    23693624.203
        43.600          28.700
 116888002.579 7  91081578.20445  22243047.813                    22243053.816
        44.700          34.200
 116557877.054 7  90824341.37645  22180226.891                    22180232.535
        45.700          35.400
 115385515.352 8  89910801.31045  21957133.406                    21957137.176
        48.200          35.400
 120557541.248 7  93940960.31544  22941337.133                    22941339.016
        45.800          26.400
 18  3 11 12  9 36.0000000  0 16R05R13G08R04G17R14R21R12R22G28G11G01
                                G10G24G15G13
                  85662018.281 5  20603382.734                    20603383.445
                        35.400
                  80460054.344 6  19372608.844                    19372609.477
                        39.800
 125830640.642 6  98049904.52344  23944782.883                    23944788.930
        41.800          25.500
                  85095765.034 7  20431332.547                    20431332.840
                        42.100
 126710853.088 7  98735764.22844  24112279.500                    24112282.176
        46.300          27.400
                  86082847.590 6  20762901.266                    20762903.535
                        41.700
                  89004568.717 7  21384810.094                    21384814.945
                        42.100
                                  22822096.305

                  85571712.913 7  20610599.469                    20610599.844
                        42.400
 113929426.981 7  88776185.57245  21680049.133                    21680052.242
        47.600          34.900
 119317533.621 7  92974712.82144  22705372.875                    22705375.191
        45.400          29.100
 124508190.882 7  97019386.57544  23693121.422                    23693127.461
        44.100          28.700
 116887655.427 7  91081307.70445  22242982.031                    22242987.691
        45.200          33.900
 116555420.222 7  90822426.96145  22179758.695                    22179765.000
        45.700          35.100
 115388092.296 8  89912809.32045  21957624.266                    21957627.414
        49.300          35.400
 120561317.186 7  93943902.62644  22942055.578                    22942057.262
        45.600          26.200
 18  3 11 12  9 37.0000000  0 16R05R13G08R04G17R14R21R12R22G28G11G01
                                G10G24G15G13
                  85660841.701 5  20603099.047                    20603100.824
                        35.700
                  80460909.809 6  19372815.313                    19372815.730
                        40.100
 125834094.931 6  98052596.17843  23945439.656                    23945446.207
        41.600          23.800
                  85097909.855 7  20431846.586                    20431847.676
                        42.200
 126707861.612 7  98733433.20944  24111709.805                    24111713.004
        46.000          28.100
                  86080563.629 6  20762351.430                    20762353.090
                        41.600
                  89007008.021 7  21385399.289                    21385401.855
                        42.600
                                  22822982.836

                  85570661.860 7  20610346.258                    20610346.859
                        42.300
 113931081.559 7  88777474.85545  21680364.031                    21680366.770
        47.200          34.700
 119316454.417 7  92973871.87644  22705166.406                    22705169.805
        44.500          28.400
 124505579.649 7  97017351.84744  23692624.297                    23692631.223
        44.800          29.500
 116887309.030 7  91081037.78845  22242915.984                    22242921.266
        45.300          34.400
 116552963.888 7  90820512.93445  22179291.852                    22179297.770
        45.600          34.900
 115390669.856 8  89914817.81345  21958115.070                    21958118.168
        48.700          35.800
 120565093.534 7  93946845.25544  22942773.891                    22942775.641
        45.400          27.100
 18  3 11 12  9 38.0000000  0 16R05R13G08R04G17R14R21R12R22G28G11G01
                                G10G24G15G13
                  85659665.754 5  20602815.102                    20602817.773
                        35.100
                  80461765.854 6  19373021.117                    19373021.730
                        40.000
 125837549.543 6  98055288.08244  23946096.938                    23946103.484
        40.900          25.200
                  85100055.229 6  20432362.461                    20432362.617
                        41.900
 126704870.348 7  98731102.35644  24111140.945                    24111143.863
        46.000          28.100
                  86078280.019 6  20761799.648                    20761802.207
                        41.500
                  89009447.765 7  21385989.508                    21385988.262
                        42.400
                                  22823859.906

                  85569611.433 7  20610093.359                    20610094.402
                        42.100
 113932736.580 7  88778764.48645  21680679.211                    21680681.863
        46.900          34.700
 119315375.867 7  92973031.44644  22704960.266                    22704964.340
        43.600          28.100
 124502968.767 7  97015317.39444  23692127.086                    23692134.391
        45.200          29.600
 116886963.261 7  91080768.35845  22242849.930                    22242855.629
        45.800          33.500
 116550507.955 7  90818599.22645  22178823.969                    22178830.098
        45.600          35.200
 115393247.886 8  89916826.67345  21958605.227                    21958608.910
        48.700          35.600
 120568870.150 7  93949788.08444  22943493.063                    22943494.066
        45.300          27.700
 18  3 11 12  9 39.0000000  0 16R05R13G08R04G17R14R21R12R22G28G11G01
                                G10G24G15G13
                  85658490.492 5  20602531.977                    20602535.230
                        35.400
                  80462622.629 6  19373227.156                    19373228.000
                        40.400
 125841004.584 6  98057980.32544  23946754.594                    23946761.293
        40.900          24.000
                  85102201.279 7  20432876.625                    20432878.258
                        42.100
 126701879.402 7  98728771.74644  24110571.672                    24110574.766
        46.500          27.600
                  86075996.893 6  20761249.742                    20761251.793
                        41.900
                  89011888.090 7  21386577.594                    21386575.492
                        42.300
                                  22824743.320

                  85568561.780 7  20609840.656                    20609841.547
                        42.300
 113934392.245 7  88780054.61245  21680994.250                    21680996.789
        47.400          34.800
 119314298.064 7  92972191.60744  22704756.172                    22704759.129
        43.200          28.500
 124500358.436 7  97013283.36444  23691630.555                    23691637.672
        44.600          29.100
 116886618.248 7  91080499.50945  22242784.320                    22242790.332
        45.700          33.900
 116548052.550 7  90816685.92345  22178357.188                    22178362.688
        45.600          35.500
 115395826.561 8  89918836.03345  21959095.695                    21959099.738
        48.100          35.700
 120572647.180 7  93952731.22644  22944212.023                    22944213.031
        44.900          28.500
 18  3 11 12  9 40.0000000  0 16R05R13G08R04G17R14R21R12R22G28G11G01
                                G10G24G15G13
                  85657315.915 5  20602250.938                    20602252.891
                        35.200
                  80463480.058 6  19373433.719                    19373434.359
                        40.200
 125844460.041 6  98060672.88544  23947411.883                    23947418.145
        40.900          24.800
                  85104347.940 7  20433393.383                    20433394.145
                        42.000
 126698888.748 7  98726441.36244  24110002.672                    24110006.008
        46.600          27.800
                  86073714.198 6  20760699.359                    20760700.992
                        41.900
                  89014329.032 6  21387161.828                    21387162.039
                        41.800
                                  22825626.906

                  85567512.820 7  20609587.969                    20609588.578
                        42.500
 113936048.439 7  88781345.15445  21681309.539                    21681311.750
        47.800          35.100
 119313221.001 7  92971352.35344  22704551.305                    22704554.473
        43.700          28.600
 124497748.596 7  97011249.72444  23691133.523                    23691141.242
        44.100          29.000
 116886273.966 7  91080231.23045  22242718.922                    22242724.781
        45.200          34.200
 116545597.637 7  90814772.99845  22177889.984                    22177895.504
        45.500          35.900
 115398405.827 7  89920845.86045  21959586.086                    21959590.320
        47.500          35.500
 120576424.607 7  93955674.67844  22944930.531                    22944932.293
        45.100          29.100
 18  3 11 12  9 41.0000000  0 16R05R13G08R04G17R14R21R12R22G28G11G01
                                G10G24G15G13
                  85656141.995 5  20601968.438                    20601970.633
                        35.500
                  80464338.139 6  19373640.430                    19373641.141
                        40.000
 125847915.871 6  98063365.73544  23948069.453                    23948076.207
        40.700          24.200
                  85106495.191 7  20433908.633                    20433909.207
                        42.100
 126695898.339 7  98724111.18044  24109433.375                    24109436.887
        45.600          28.000
                  86071431.944 6  20760148.148                    20760150.156
                        41.900
                  89016770.593 6  21387746.938                    21387748.656
                        41.500
                                  22826503.680

                  85566464.569 7  20609335.078                    20609336.266
                        42.300
 113937705.176 7  88782636.12045  21681624.695                    21681627.199
        47.700          35.000
 119312144.624 7  92970513.62244  22704347.109                    22704349.750
        43.600          28.500
 124495139.195 7  97009216.42544  23690636.852                    23690645.262
        44.300          28.700
 116885930.362 7  91079963.47445  22242653.547                    22242659.207
        45.500          33.600
 116543143.187 7  90812860.44345  22177422.711                    22177428.793
        45.800          35.700
 115400985.640 8  89922856.09345  21960077.375                    21960081.277
        48.100          35.200
 120580202.377 7  93958618.39545  22945649.414                    22945651.477
        45.600          30.300
 18  3 11 12  9 42.0000000  0 16R05R13G08R04G17R14R21R12R22G28G11G01
                                G10G24G15G13
                  85654968.729 5  20601686.438                    20601688.078
                        35.400
                  80465196.917 6  19373847.313                    19373847.613
                        39.900
 125851372.108 6  98066058.90744  23948727.211                    23948733.773
        40.300          25.600
                  85108643.105 7  20434424.336                    20434424.898
                        42.100
 126692908.223 7  98721781.21444  24108864.578                    24108867.539
        45.800          28.000
                  86069150.129 6  20759598.414                    20759599.902
                        41.900
                  89019212.795 6  21388331.438                    21388334.383
                        41.400
                                  22827393.789

                  85565417.018 7  20609082.820                    20609083.832
                        42.200
 113939362.451 7  88783927.49845  21681940.172                    21681942.602
        47.500          34.800
 119311068.954 7  92969675.43644  22704141.836                    22704145.191
        43.600          28.900
 124492530.265 7  97007183.49544  23690140.758                    23690149.000
        44.000          27.900
 116885587.472 7  91079696.28345  22242588.664                    22242594.230
        45.400          34.600
 116540689.200 7  90810948.24945  22176955.883                    22176961.625
        46.300          35.800
 115403566.035 8  89924866.78845  21960568.672                    21960572.215
        48.400          35.400
 120583980.502 7  93961562.39144  22946368.281                    22946370.320
        45.400          28.300
 18  3 11 12  9 43.0000000  0 16R05R13G08R04G17R14R21R12R22G28G11G01
                                G10G24G15G13
                  85653796.105 5  20601403.266                    20601405.379
                        35.300
                  80466056.345 6  19374054.320                    19374054.891
                        39.800
 125854828.743 6  98068752.37944  23949385.273                    23949391.316
        40.500          25.000
                  85110791.652 7  20434940.117                    20434941.199
                        42.100
 126689918.377 7  98719451.47644  24108295.031                    24108298.641
        45.900          28.100
                  86066868.783 7  20759048.406                    20759050.234
                        42.100
                  89021655.601 6  21388916.594                    21388920.699
                        41.400
                                  22828272.352

                  85564370.182 7  20608831.094                    20608831.961
                        42.400
 113941020.283 7  88785219.31445  21682255.992                    21682258.262
        47.500          35.000
 119309994.000 7  92968837.81344  22703937.203                    22703940.383
        43.500          28.700
 124489921.808 7  97005150.93844  23689643.992                    23689652.438
        43.700          28.000
 116885245.309 7  91079429.66245  22242522.750                    22242528.953
        45.900          33.800
 116538235.688 7  90809036.42545  22176489.008                    22176494.363
        46.200          35.400
 115406146.989 8  89926877.90845  21961059.836                    21961063.000
        48.300          35.600
 120587758.995 7  93964506.66844  22947086.711                    22947089.914
        44.800          29.500
 18  3 11 12  9 44.0000000  0 16R05R13G08R04G17R14R21R12R22G28G11G01
                                G10G24G15G13
                  85652624.151 5  20601121.844                    20601124.340
                        35.400
                  80466916.447 6  19374261.016                    19374261.625
                        39.800
 125858285.732 6  98071446.13844  23950042.875                    23950049.266
        40.900          24.800
                  85112940.787 7  20435456.711                    20435456.527
                        42.100
 126686928.808 7  98717121.95344  24107726.047                    24107729.828
        46.100          26.500
                  86064587.848 6  20758498.008                    20758500.559
                        41.600
                  89024098.966 6  21389503.656                    21389507.191
                        41.800
                                  22829150.211

                  85563324.045 7  20608578.531                    20608579.496
                        42.200
 113942678.675 7  88786511.57045  21682571.484                    21682573.746
        47.300          34.700
 119308919.749 7  92968000.72844  22703732.820                    22703735.813
        43.800          28.100
 124487313.797 7  97003118.72444  23689147.813                    23689156.262
        43.300          27.700
 116884903.813 7  91079163.56645  22242457.852                    22242463.941
        45.400          34.200
 116535782.604 7  90807124.92645  22176021.891                    22176027.688
        46.000          34.800
 115408728.510 8  89928889.48145  21961550.773                    21961554.137
        48.100          35.700
 120591537.871 7  93967451.24744  22947806.055                    22947809.168
        44.000          29.500
 18  3 11 12  9 45.0000000  0 16R05R13G08R04G17R14R21R12R22G28G11G01
                                G10G24G15G13
                  85651452.905 5  20600839.844                    20600842.281
                        35.200
                  80467777.232 6  19374468.555                    19374469.242
                        40.100
 125861743.209 6  98074140.25944  23950701.117                    23950707.508
        40.200          24.300
                  85115090.586 7  20435972.203                    20435972.848
                        42.100
 126683939.520 7  98714792.64644  24107157.594                    24107160.801
        45.800          27.000
                  86062307.366 6  20757947.672                    20757949.996
                        41.600
                  89026542.918 6  21390092.203                    21390093.930
                        41.900
                                  22830037.641

                  85562278.625 7  20608326.195                    20608327.719
                        42.100
 113944337.623 7  88787804.25545  21682887.117                    21682889.309
        46.900          34.900
 119307846.205 7  92967164.19044  22703529.219                    22703531.883
        42.900          28.200
 124484706.289 7  97001086.90044  23688651.602                    23688659.758
        42.400          27.000
 116884563.061 7  91078898.05345  22242392.758                    22242399.480
        45.000          33.600
 116533330.019 7  90805213.82545  22175555.094                    22175561.055
        46.100          34.800
 115411310.642 7  89930901.53345  21962042.516                    21962045.641
        47.900          35.500
 120595317.105 7  93970396.09544  22948524.375                    22948528.094
        43.700          29.400
 18  3 11 12  9 46.0000000  0 16R05R13G08R04G17R14R21R12R22G28G11G01
                                G10G24G15G13
                  85650282.338 5  20600558.469                    20600560.879
                        35.600
                  80468638.707 6  19374675.734                    19374676.703
                        40.100
 125865201.021 6  98076834.65944  23951359.117                    23951365.277
        40.500          25.300
                  85117240.995 6  20436488.789                    20436488.879
                        41.800
 126680950.520 7  98712463.55644  24106588.953                    24106592.578
        45.500          26.700
                  86060027.332 6  20757398.484                    20757399.793
                        41.600
                  89028987.423 7  21390681.398                    21390681.762
                        42.300
                                  22830915.898

                  85561233.935 6  20608076.008                    20608076.051
                        41.900
 113945997.142 7  88789097.38645  21683202.555                    21683205.262
        46.800          35.200
 119306773.412 7  92966328.24344  22703324.156                    22703327.590
        42.600          28.500
 124482099.270 6  96999055.45744  23688155.367                    23688163.684
        41.300          27.100
 116884223.029 7  91078633.10345  22242328.609                    22242334.324
        44.500          33.800
 116530877.917 7  90803303.09845  22175088.930                    22175094.660
        46.300          35.400
 115413893.337 8  89932914.00846  21962535.484                    21962537.027
        49.100          36.000
 120599096.731 7  93973341.25544  22949243.492                    22949247.695
        43.300          28.700
 18  3 11 12  9 47.0000000  0 16R05R13G08R04G17R14R21R12R22G28G11G01
                                G10G24G15G13
                  85649112.485 5  20600277.484                    20600279.336
                        35.400
                  80469500.842 6  19374883.805                    19374884.340
                        40.100
 125868659.251 6  98079529.38444  23952017.875                    23952023.977
        41.000          26.500
                  85119392.045 7  20437005.500                    20437005.910
                        42.100
 126677961.791 7  98710134.67344  24106019.555                    24106023.777
        45.400          27.000
                  86057747.737 6  20756847.914                    20756850.227
                        41.600
                  89031432.529 7  21391268.992                    21391269.629
                        42.500
                                  22831801.367

                  85560189.944 7  20607823.477                    20607824.746
                        42.100
 113947657.224 7  88790390.95945  21683518.750                    21683521.008
        47.200          35.100
 119305701.304 7  92965492.83644  22703119.742                    22703123.664
        42.300          28.300
 124479492.693 6  96997024.37244  23687658.977                    23687667.004
        41.600          26.700
 116883883.690 7  91078368.68845  22242263.570                    22242269.551
        44.900          34.200
 116528426.320 7  90801392.75845  22174622.414                    22174628.219
        45.900          34.900
 115416476.569 8  89934926.92846  21963026.383                    21963029.117
        49.200          36.500
 120602876.741 7  93976286.71144  22949962.148                    22949967.340
        42.900          27.900
