     2.11           OBSERVATION DATA    M (MIXED)           RINEX VERSION / TYPE
teqc  2018Mar15                         20180319 14:17:33UTCPGM / RUN BY / DATE
Linux 2.6.32-573.12.1.x86_64|x86_64|gcc -static|Linux 64|=+ COMMENT
END OF STATIC MODE OBSERVATION                              COMMENT
BIT 2 OF LLI FLAGS DATA COLLECTED UNDER A/S CONDITION       COMMENT
-Unknown-                                                   MARKER NAME
4625                                                        MARKER NUMBER
-Unknown-           -Unknown-                               OBSERVER / AGENCY
5127468778          TRIMBLE             4.63                REC # / TYPE / VERS
47477114                            NONE                    ANT # / TYPE
  6378137.0000        0.0000        0.0000                  APPROX POSITION XYZ
        0.0000        0.0000        0.0000                  ANTENNA: DELTA H/E/N
     1     1                                                WAVELENGTH FACT L1/2
     7    L1    L2    C1    P1    P2    S1    S2            # / TYPES OF OBSERV
    18                                                      LEAP SECONDS
 SNR is mapped to RINEX snr flag value [0-9]                COMMENT
  L1 & L2: min(max(int(snr_dBHz/6), 0), 9)                  COMMENT
  2018     3    13    14    41    1.0000000     GPS         TIME OF FIRST OBS
                                                            END OF HEADER
 18  3 13 14 41  1.0000000  0 19R01G19G22G25R08R10R09R16R17R18R19G12
                                G06G03G32G24G17G01G14
                  86423484.467 6  20786534.055                    20786536.742
                        36.500
 111473231.197 7  86862464.72945  21212698.961                    21212700.262
        47.000          34.600
 121131808.819 7  94388412.17745  23050615.930                    23050616.152
        47.100          31.600
 121647959.165 7  94790681.25845  23148847.797                    23148854.105
        46.500          30.300
                  87321096.234 6  20965630.539                    20965631.461
                        40.900
                  90849640.095 6  21912635.602                    21912641.051
                        39.800
                  80212404.773 6  19312979.109                    19312979.559
                        41.700
                  88417959.517 6  21281180.102                    21281180.406
                        36.000
                  86782165.911 6  20850845.984                    20850846.258
                        40.500
                  82752587.950 6  19931591.563                    19931592.289
                        38.700
                  95231436.946 6  22888941.805                    22888942.734
                        36.200
 108649078.155 7  84661631.04345  20675232.313                    20675234.980
        46.600          31.400
 123367521.904 7  96130565.63544  23476060.102                    23476065.652
        43.700          29.000
 121029515.701 7  94308728.18545  23031152.781                    23031158.273
        47.600          34.700
 115331830.571 7  89868985.31346  21946916.984                    21946923.535
        47.200          38.900
 117314715.216 7  91414087.05445  22324249.656                    22324255.191
        44.700          30.900
 117052219.322 8  91209533.23646  22274296.602                    22274299.559
        48.700          37.900
 125568462.900 7  97845586.47344  23894885.836                    23894893.223
        43.800          29.600
 117613824.051 7  91647145.55445  22381165.547                    22381168.695
        45.200          31.900
 18  3 13 14 41  2.0000000  0 19R01G19G22G25R08R10R09R16R17R18R19G12
                                G06G03G32G24G17G01G14
                  86422636.068 6  20786329.539                    20786333.059
                        37.100
 111474342.604 7  86863330.76045  21212910.805                    21212911.758
        46.700          34.500
 121131808.559 7  94388411.96445  23050615.945                    23050616.012
        46.700          32.300
 121644785.007 7  94788207.86945  23148243.602                    23148249.961
        45.300          31.100
                  87323254.727 6  20966149.805                    20966149.609
                        41.900
                  90846800.857 6  21911950.625                    21911955.184
                        40.100
                  80212389.673 6  19312976.523                    19312976.008
                        41.500
                  88421222.215 6  21281966.125                    21281966.727
                        36.400
                  86784625.652 6  20851435.305                    20851437.172
                        40.800
                  82751769.992 6  19931394.742                    19931396.289
                        39.300
                  95228224.595 6  22888170.344                    22888170.383
                        36.500
 108648053.952 7  84660832.96545  20675037.656                    20675040.305
        46.100          31.800
 123364718.920 7  96128381.45144  23475525.875                    23475532.793
        43.200          29.300
 121028048.689 7  94307585.06045  23030873.695                    23030879.277
        47.200          34.900
 115332816.403 7  89869753.50046  21947104.680                    21947111.133
        47.500          39.000
 117318094.254 7  91416720.11045  22324892.023                    22324898.027
        45.000          30.500
 117054503.413 8  91211313.04446  22274730.578                    22274734.602
        48.700          37.700
 125572023.925 7  97848361.29544  23895564.172                    23895570.520
        44.100          29.900
 117612798.478 7  91646346.39945  22380970.375                    22380973.262
        44.800          31.700
 18  3 13 14 41  3.0000000  0 19R01G19G22G25R08R10R09R16R17R18R19G12
                                G06G03G32G24G17G01G14
                  86421788.394 6  20786125.438                    20786129.137
                        36.900
 111475454.802 7  86864197.40145  21213122.336                    21213123.492
        46.500          34.000
 121131808.941 7  94388412.25845  23050616.375                    23050616.352
        46.400          32.300
 121641611.174 7  94785734.75245  23147639.445                    23147645.949
        44.300          30.800
                  87325413.859 6  20966666.883                    20966668.500
                        41.800
                  90843961.932 6  21911266.617                    21911270.629
                        40.100
                  80212375.244 6  19312972.195                    19312972.426
                        41.600
                  88424485.294 6  21282751.359                    21282752.098
                        36.700
                  86787085.969 6  20852027.586                    20852028.445
                        41.000
                  82750952.784 6  19931197.719                    19931199.172
                        38.400
                  95225012.452 6  22887397.211                    22887398.809
                        36.400
 108647030.435 7  84660035.41645  20674842.813                    20674845.473
        46.100          31.700
 123361916.267 7  96126197.51844  23474991.375                    23474999.324
        42.200          28.200
 121026582.279 7  94306442.40745  23030594.555                    23030600.172
        47.200          35.800
 115333802.961 7  89870522.24846  21947292.852                    21947298.848
        47.800          38.900
 117321473.773 7  91419353.53145  22325534.438                    22325541.102
        44.500          31.300
 117056788.054 8  91213093.28046  22275165.898                    22275168.707
        49.000          37.700
 125575585.435 7  97851136.48544  23896241.320                    23896248.227
        44.200          29.600
 117611773.503 7  91645547.70645  22380774.383                    22380778.379
        43.600          31.900
 18  3 13 14 41  4.0000000  0 19R01G19G22G25R08R10R09R16R17R18R19G12
                                G06G03G32G24G17G01G14
                  86420941.411 6  20785921.563                    20785925.328
                        37.000
 111476567.744 7  86865064.63945  21213334.141                    21213335.508
        46.000          34.200
 121131809.969 7  94388413.05545  23050616.461                    23050616.551
        46.500          31.500
 121638437.654 7  94783261.89945  23147035.969                    23147042.203
        43.900          32.000
                  87327573.581 6  20967185.625                    20967187.094
                        41.500
                  90841123.253 6  21910582.445                    21910586.086
                        40.500
                  80212361.473 6  19312969.156                    19312969.480
                        41.300
                  88427748.691 6  21283536.781                    21283537.180
                        36.400
                  86789546.880 6  20852619.023                    20852620.145
                        41.000
                  82750136.271 6  19931001.211                    19931002.543
                        38.900
                  95221800.491 6  22886625.398                    22886626.516
                        36.600
 108646007.602 7  84659238.41845  20674648.289                    20674650.996
        46.800          31.400
 123359113.968 7  96124013.87444  23474458.797                    23474465.957
        43.100          29.100
 121025116.489 7  94305300.24145  23030315.602                    23030321.680
        47.200          35.600
 115334790.225 7  89871291.54046  21947481.430                    21947486.742
        47.900          38.600
 117324853.719 7  91421987.29345  22326177.469                    22326184.434
        44.000          31.300
 117059073.240 8  91214873.94546  22275600.258                    22275604.172
        49.100          36.900
 125579147.313 7  97853911.97045  23896919.242                    23896926.152
        43.600          30.200
 117610749.115 7  91644749.48645  22380579.086                    22380583.598
        42.800          31.600
 18  3 13 14 41  5.0000000  0 19R01G19G22G25R08R10R09R16R17R18R19G12
                                G06G03G32G24G17G01G14
                  86420095.145 6  20785718.375                    20785722.422
                        37.200
 111477681.468 7  86865932.47945  21213546.000                    21213547.191
        46.100          33.600
 121131811.657 7  94388414.36645  23050617.156                    23050616.703
        46.700          30.900
 121635264.470 7  94780789.31245  23146432.836                    23146438.707
        44.300          32.400
                  87329733.929 6  20967704.172                    20967705.375
                        41.400
                  90838284.842 6  21909897.445                    21909901.418
                        40.700
                  80212348.383 6  19312965.961                    19312965.734
                        41.600
                  88431012.432 6  21284321.086                    21284323.098
                        37.000
                  86792008.351 6  20853209.938                    20853211.543
                        41.000
                  82749320.509 6  19930804.688                    19930805.512
                        39.000
                  95218588.772 5  22885852.367                    22885854.797
                        35.100
 108644985.440 7  84658441.94245  20674453.688                    20674456.227
        47.300          31.800
 123356312.038 7  96121830.50644  23473927.430                    23473932.789
        43.900          29.100
 121023651.285 7  94304158.52145  23030036.609                    23030042.582
        47.300          35.700
 115335778.219 7  89872061.40446  21947669.461                    21947674.801
        47.600          38.300
 117328234.096 6  91424621.37545  22326820.563                    22326827.246
        41.900          30.900
 117061358.947 8  91216655.01946  22276035.992                    22276038.703
        49.600          37.300
 125582709.627 7  97856687.80145  23897597.391                    23897604.195
        43.500          30.200
 117609725.342 7  91643951.76745  22380385.313                    22380388.539
        43.700          31.800
 18  3 13 14 41  6.0000000  0 19R01G19G22G25R08R10R09R16R17R18R19G12
                                G06G03G32G24G17G01G14
                  86419249.570 6  20785514.773                    20785518.938
                        37.100
 111478795.953 7  86866800.91745  21213757.766                    21213759.395
        46.200          34.300
 121131813.976 7  94388416.17145  23050617.664                    23050616.875
        46.800          30.400
 121632091.595 7  94778316.96345  23145829.203                    23145835.156
        45.200          32.000
                  87331894.901 6  20968223.492                    20968224.023
                        41.600
                  90835446.707 6  21909211.859                    21909217.273
                        40.600
                  80212335.958 6  19312963.109                    19312963.188
                        41.800
                  88434276.547 6  21285106.148                    21285108.090
                        36.400
                  86794470.357 6  20853801.148                    20853802.930
                        41.100
                  82748505.475 6  19930607.953                    19930609.516
                        39.300
                  95215377.234 5  22885082.102                    22885082.363
                        34.600
 108643963.956 7  84657645.98845  20674260.188                    20674262.063
        47.700          31.200
 123353510.446 7  96119647.37344  23473393.898                    23473399.398
        43.600          29.100
 121022186.727 7  94303017.29746  23029758.570                    23029764.258
        47.500          36.000
 115336766.921 7  89872831.82646  21947857.258                    21947863.215
        47.000          38.800
 117331614.917 6  91427255.78345  22327463.922                    22327470.371
        40.700          31.100
 117063645.210 8  91218436.52646  22276470.500                    22276474.422
        49.300          37.200
 125586272.359 7  97859463.95745  23898275.313                    23898282.137
        43.300          30.000
 117608702.219 7  91643154.54645  22380191.617                    22380193.602
        44.900          30.800
 18  3 13 14 41  7.0000000  0 19R01G19G22G25R08R10R09R16R17R18R19G12
                                G06G03G32G24G17G01G14
                  86418404.712 6  20785312.422                    20785316.000
                        37.100
 111479911.190 7  86867669.92945  21213969.570                    21213971.613
        45.500          34.100
 121131816.965 7  94388418.48545  23050618.078                    23050617.297
        47.000          30.700
 121628919.076 7  94775844.88145  23145226.508                    23145231.676
        46.100          32.600
                  87334056.523 6  20968741.961                    20968743.199
                        41.500
                  90832608.883 6  21908527.406                    21908532.168
                        40.500
                  80212324.220 6  19312960.008                    19312960.344
                        41.700
                  88437541.068 6  21285892.609                    21285893.992
                        36.400
                  86796932.960 6  20854392.852                    20854394.852
                        41.000
                  82747691.174 6  19930411.609                    19930413.836
                        39.000
                  95212165.920 5  22884308.859                    22884310.172
                        34.300
 108642943.181 7  84656850.57745  20674066.164                    20674067.316
        47.100          31.100
 123350709.228 7  96117464.48544  23472861.781                    23472866.547
        43.700          28.700
 121020722.787 7  94301876.55745  23029479.789                    23029485.434
        47.600          35.500
 115337756.329 7  89873602.79346  21948044.453                    21948051.219
        46.700          38.100
 117334996.181 6  91429890.52345  22328107.922                    22328113.984
        41.800          31.900
 117065932.050 8  91220218.48846  22276905.758                    22276909.160
        48.400          37.000
 125589835.496 7  97862240.42944  23898953.078                    23898960.035
        43.800          29.900
 117607679.741 7  91642357.82245  22379997.727                    22379999.484
        46.000          31.300
 18  3 13 14 41  8.0000000  0 19R01G19G22G25R08R10R09R16R17R18R19G12
                                G06G03G32G24G17G01G14
                  86417560.538 6  20785108.789                    20785112.273
                        37.100
 111481027.210 7  86868539.55945  21214182.234                    21214184.148
        45.300          34.000
 121131820.581 7  94388421.30545  23050619.117                    23050618.195
        46.900          30.900
 121625746.900 7  94773373.04545  23144622.828                    23144628.223
        47.000          32.600
                  87336218.785 6  20969261.539                    20969262.645
                        41.600
                  90829771.313 6  21907842.820                    21907847.754
                        40.400
                  80212313.123 6  19312957.430                    19312957.738
                        41.500
                  88440805.854 6  21286679.508                    21286679.273
                        36.500
                  86799396.100 6  20854984.258                    20854986.590
                        40.600
                  82746877.579 6  19930216.141                    19930217.809
                        39.100
                  95208954.769 5  22883538.578                    22883538.590
                        34.900
 108641923.038 7  84656055.65145  20673871.438                    20673873.254
        47.500          31.400
 123347908.355 7  96115281.84844  23472328.500                    23472333.379
        43.900          29.600
 121019259.437 7  94300736.27846  23029200.742                    23029207.211
        47.600          36.000
 115338746.413 7  89874374.28446  21948232.727                    21948239.590
        46.800          38.300
 117338377.861 7  91432525.57345  22328752.008                    22328757.457
        42.500          31.200
 117068219.397 8  91222000.84246  22277340.695                    22277344.852
        48.400          37.200
 125593399.044 7  97865017.21844  23899631.234                    23899638.223
        43.900          29.900
 117606657.844 7  91641561.52845  22379802.813                    22379805.109
        46.000          31.500
 18  3 13 14 41  9.0000000  0 19R01G19G22G25R08R10R09R16R17R18R19G12
                                G06G03G32G24G17G01G14
                  86416717.021 6  20784906.859                    20784909.945
                        37.100
 111482143.959 7  86869409.75345  21214394.477                    21214396.309
        45.700          34.000
 121131824.798 7  94388424.59045  23050619.523                    23050619.047
        47.000          30.700
 121622575.004 7  94770901.42245  23144019.086                    23144024.824
        47.000          33.400
                  87338381.651 6  20969780.484                    20969781.852
                        41.600
                  90826933.979 6  21907158.758                    21907163.258
                        40.300
                  80212302.672 6  19312955.141                    19312955.605
                        41.400
                  88444071.017 6  21287464.344                    21287465.832
                        36.700
                  86801859.768 6  20855576.336                    20855578.902
                        40.500
                  82746064.685 6  19930020.828                    19930022.105
                        39.100
                  95205743.837 5  22882766.109                    22882766.148
                        35.000
 108640903.551 7  84655261.23145  20673677.250                    20673679.539
        46.600          30.900
 123345107.793 7  96113099.43445  23471794.375                    23471801.203
        42.600          30.000
 121017796.684 7  94299596.46945  23028922.984                    23028928.727
        47.900          35.800
 115339737.185 7  89875146.32246  21948421.445                    21948428.160
        47.000          38.400
 117341759.912 7  91435160.93645  22329395.539                    22329400.996
        43.600          31.000
 117070507.264 8  91223783.59946  22277776.930                    22277779.582
        48.800          37.100
 125596962.993 7  97867794.30845  23900309.992                    23900316.789
        43.700          30.400
 117605636.507 7  91640765.64845  22379608.008                    22379610.824
        45.600          31.400
 18  3 13 14 41 10.0000000  0 19R01G19G22G25R08R10R09R16R17R18R19G12
                                G06G03G32G24G17G01G14
                  86415874.226 6  20784703.508                    20784707.168
                        36.800
 111483261.498 7  86870280.56645  21214607.570                    21214608.734
        45.900          34.300
 121131829.715 7  94388428.41544  23050620.648                    23050619.625
        47.100          29.300
 121619403.471 7  94768430.08245  23143414.953                    23143421.590
        47.600          33.500
                  87340545.209 7  20970299.523                    20970301.000
                        42.200
                  90824096.962 6  21906475.141                    21906479.566
                        40.000
                  80212292.900 6  19312953.211                    19312952.359
                        41.600
                  88447336.488 5  21288250.047                    21288252.305
                        35.800
                  86804324.055 6  20856168.070                    20856170.891
                        41.200
                  82745252.523 6  19929825.500                    19929826.539
                        39.300
                  95202533.150 5  22881993.945                    22881994.859
                        35.200
 108639884.764 7  84654467.37045  20673482.398                    20673485.387
        46.600          31.300
 123342307.562 6  96110917.27244  23471259.875                    23471267.816
        40.900          29.200
 121016334.564 7  94298457.15445  23028644.695                    23028650.160
        47.700          35.700
 115340728.688 7  89875918.93046  21948610.680                    21948616.668
        47.500          38.600
 117345142.437 7  91437796.66845  22330039.164                    22330045.160
        44.500          31.400
 117072795.692 8  91225566.79546  22278211.609                    22278215.379
        48.700          37.200
 125600527.367 7  97870571.73345  23900987.859                    23900994.871
        43.900          30.000
 117604615.778 7  91639970.25145  22379412.297                    22379416.516
        43.700          31.300
 18  3 13 14 41 11.0000000  0 19R01G19G22G25R08R10R09R16R17R18R19G12
                                G06G03G32G24G17G01G14
                  86415032.108 6  20784500.492                    20784504.848
                        36.800
 111484379.745 7  86871151.93245  21214820.594                    21214821.641
        46.100          34.400
 121131835.204 7  94388432.69045  23050621.594                    23050620.594
        46.800          30.500
 121616232.211 7  94765958.95945  23142811.094                    23142818.195
        47.000          32.600
                  87342709.290 7  20970820.148                    20970820.895
                        42.000
                  90821260.207 6  21905790.555                    21905795.594
                        40.000
                  80212283.770 6  19312951.719                    19312951.020
                        41.400
                  88450602.315 6  21289036.000                    21289037.918
                        36.000
                  86806788.893 6  20856760.508                    20856763.086
                        40.600
                  82744441.066 6  19929629.438                    19929631.281
                        38.900
                  95199322.644 5  22881223.578                    22881223.355
                        35.100
 108638866.581 7  84653673.98645  20673288.617                    20673292.117
        46.300          31.500
 123339507.676 7  96108735.42144  23470728.766                    23470735.055
        42.000          29.300
 121014872.988 7  94297318.26445  23028366.313                    23028372.422
        47.600          35.300
 115341720.871 8  89876692.06546  21948799.789                    21948805.535
        48.100          38.700
 117348525.337 7  91440432.71545  22330682.828                    22330689.016
        44.500          31.300
 117075084.624 8  91227350.37846  22278647.391                    22278650.414
        48.700          36.800
 125604092.118 7  97873349.45745  23901665.914                    23901673.102
        43.700          31.500
 117603595.595 7  91639175.29645  22379217.398                    22379222.508
        42.700          31.400
 18  3 13 14 41 12.0000000  0 19R01G19G22G25R08R10R09R16R17R18R19G12
                                G06G03G32G24G17G01G14
                  86414190.699 6  20784298.359                    20784302.555
                        37.000
 111485498.737 7  86872023.88545  21215033.281                    21215034.617
        46.600          34.100
 121131841.336 7  94388437.46245  23050623.125                    23050621.313
        47.100          30.500
 121613061.276 7  94763488.09145  23142208.016                    23142214.297
        46.700          32.300
                  87344873.943 6  20971339.734                    20971340.352
                        41.900
                  90818423.695 6  21905105.148                    21905111.180
                        39.600
                  80212275.314 6  19312948.750                    19312948.645
                        41.400
                  88453868.491 6  21289823.000                    21289823.691
                        36.400
                  86809254.304 6  20857353.242                    20857355.898
                        40.900
                  82743630.318 6  19929434.242                    19929435.980
                        39.300
                  95196112.347 5  22880452.047                    22880451.711
                        35.600
 108637849.075 7  84652881.13245  20673095.273                    20673098.391
        46.400          30.900
 123336708.167 7  96106553.86344  23470196.602                    23470202.832
        42.500          29.100
 121013412.052 7  94296179.86245  23028088.453                    23028094.859
        47.600          35.100
 115342713.744 8  89877465.74446  21948988.820                    21948994.844
        48.400          38.700
 117351908.649 7  91443069.07745  22331326.133                    22331332.148
        44.700          30.500
 117077374.115 8  91229134.39246  22279082.977                    22279086.301
        48.800          37.300
 125607657.271 7  97876127.50145  23902344.297                    23902351.805
        43.700          31.500
 117602576.014 7  91638380.83745  22379023.938                    22379028.242
        43.600          31.100
 18  3 13 14 41 13.0000000  0 19R01G19G22G25R08R10R09R16R17R18R19G12
                                G06G03G32G24G17G01G14
                  86413350.005 6  20784095.875                    20784100.680
                        37.400
 111486618.527 7  86872896.45145  21215246.727                    21215247.684
        46.500          34.000
 121131848.146 7  94388442.76044  23050624.008                    23050622.641
        47.000          29.800
 121609890.688 7  94761017.50045  23141604.531                    23141610.586
        45.800          31.400
                  87347039.275 7  20971859.656                    20971860.340
                        42.100
                  90815587.504 6  21904421.367                    21904426.184
                        40.000
                  80212267.524 6  19312947.133                    19312946.645
                        41.400
                  88457135.027 6  21290609.719                    21290610.645
                        36.200
                  86811720.274 6  20857947.109                    20857947.855
                        40.500
                  82742820.256 6  19929238.594                    19929240.680
                        39.600
                  95192902.254 6  22879679.617                    22879680.402
                        36.100
 108636832.285 7  84652088.83545  20672902.414                    20672904.582
        46.600          31.600
 123333909.009 7  96104372.56344  23469663.922                    23469670.082
        42.800          29.700
 121011951.733 7  94295041.94145  23027810.297                    23027817.043
        47.500          35.100
 115343707.343 8  89878239.98346  21949178.258                    21949183.531
        48.100          38.300
 117355292.426 7  91445705.80745  22331970.297                    22331976.637
        43.900          31.900
 117079664.144 8  91230918.81746  22279519.578                    22279522.371
        49.400          37.600
 125611222.867 7  97878905.89345  23903022.953                    23903030.055
        43.900          30.900
 117601557.070 7  91637586.87945  22378831.094                    22378834.219
        44.600          31.700
 18  3 13 14 41 14.0000000  0 19R01G19G22G25R08R10R09R16R17R18R19G12
                                G06G03G32G24G17G01G14
                  86412510.012 6  20783893.383                    20783898.035
                        36.900
 111487739.076 7  86873769.61145  21215459.500                    21215461.145
        46.500          33.200
 121131855.610 7  94388448.56645  23050625.758                    23050624.191
        47.200          30.800
 121606720.442 7  94758547.17345  23141000.531                    23141007.211
        45.500          31.200
                  87349205.226 6  20972378.914                    20972380.363
                        41.600
                  90812751.617 6  21903739.789                    21903742.148
                        40.200
                  80212260.411 6  19312944.977                    19312945.043
                        41.500
                  88460401.926 6  21291395.367                    21291396.008
                        36.500
                  86814186.804 6  20858538.078                    20858539.723
                        40.500
                  82742010.870 6  19929044.313                    19929045.684
                        39.500
                  95189692.370 6  22878907.930                    22878908.848
                        36.400
 108635816.166 7  84651297.06145  20672709.531                    20672711.449
        47.300          31.200
 123331110.301 7  96102191.61744  23469132.328                    23469137.637
        43.600          29.300
 121010492.058 7  94293904.52545  23027532.805                    23027539.250
        47.000          34.900
 115344701.633 8  89879014.75146  21949367.016                    21949372.504
        48.300          38.800
 117358676.630 7  91448342.83945  22332614.148                    22332620.273
        42.800          31.300
 117081954.723 8  91232703.68846  22279954.609                    22279958.512
        49.000          37.300
 125614788.896 7  97881684.61845  23903701.750                    23903708.883
        44.100          30.900
 117600538.770 7  91636793.40145  22378638.625                    22378640.297
        45.500          32.000
 18  3 13 14 41 15.0000000  0 19R01G19G22G25R08R10R09R16R17R18R19G12
                                G06G03G32G24G17G01G14
                  86411670.719 6  20783692.211                    20783696.410
                        37.200
 111488860.378 7  86874643.34645  21215672.891                    21215674.504
        46.300          33.800
 121131863.689 7  94388454.85745  23050627.125                    23050625.559
        47.300          30.400
 121603550.479 7  94756077.07045  23140397.125                    23140403.367
        45.100          30.900
                  87351371.794 6  20972899.555                    20972900.133
                        41.500
                  90809915.968 6  21903055.227                    21903059.086
                        40.400
                  80212253.925 6  19312943.906                    19312943.738
                        41.400
                  88463669.162 6  21292182.023                    21292182.480
                        36.100
                  86816653.899 6  20859130.719                    20859132.637
                        40.900
                  82741202.179 6  19928848.867                    19928850.910
                        39.100
                  95186482.704 6  22878136.602                    22878138.020
                        36.800
 108634800.702 7  84650505.79345  20672515.961                    20672517.801
        47.500          31.200
 123328312.059 7  96100011.03944  23468600.875                    23468605.926
        43.900          29.800
 121009032.976 7  94292767.58045  23027254.938                    23027261.500
        46.900          34.700
 115345696.632 8  89879790.07646  21949556.398                    21949562.090
        48.500          38.900
 117362061.306 7  91450980.23745  22333257.984                    22333264.273
        43.100          32.400
 117084245.839 8  91234488.97946  22280391.055                    22280394.039
        49.100          37.400
 125618355.315 7  97884463.64945  23904380.320                    23904387.387
        44.200          31.200
 117599521.059 7  91636000.37845  22378444.398                    22378446.914
        45.500          31.900
 18  3 13 14 41 16.0000000  0 19R01G19G22G25R08R10R09R16R17R18R19G12
                                G06G03G32G24G17G01G14
                  86410832.133 6  20783491.305                    20783495.016
                        37.300
 111489982.478 7  86875517.71445  21215886.414                    21215887.605
        46.600          33.700
 121131872.446 7  94388461.68644  23050628.594                    23050626.688
        47.200          29.800
 121600380.846 7  94753607.22145  23139794.297                    23139800.242
        44.900          31.800
                  87353539.012 6  20973420.414                    20973421.027
                        41.800
                  90807080.598 6  21902369.328                    21902375.676
                        39.900
                  80212248.141 6  19312942.023                    19312942.426
                        41.400
                  88466936.762 6  21292968.750                    21292969.277
                        36.400
                  86819121.591 6  20859724.328                    20859724.910
                        40.900
                  82740394.218 6  19928654.313                    19928656.023
                        38.700
                  95183273.253 6  22877365.789                    22877366.672
                        36.800
 108633785.954 7  84649715.08345  20672322.680                    20672324.730
        47.700          31.200
 123325514.234 7  96097830.80944  23468066.594                    23468073.133
        43.100          28.900
 121007574.528 7  94291631.14145  23026977.445                    23026983.859
        46.700          34.800
 115346692.358 7  89880565.96846  21949745.328                    21949751.578
        47.900          38.600
 117365446.462 7  91453618.02545  22333902.766                    22333908.605
        43.400          31.500
 117086537.513 8  91236274.70746  22280826.852                    22280830.188
        49.400          37.300
 125621922.133 7  97887242.97945  23905059.094                    23905066.176
        43.900          31.300
 117598503.951 7  91635207.80245  22378250.422                    22378252.848
        45.400          31.100
 18  3 13 14 41 17.0000000  0 19R01G19G22G25R08R10R09R16R17R18R19G12
                                G06G03G32G24G17G01G14
                  86409994.240 6  20783289.391                    20783292.898
                        37.600
 111491105.336 7  86876392.67045  21216100.383                    21216101.719
        46.800          34.100
 121131881.862 7  94388469.02644  23050630.500                    23050628.703
        46.900          29.700
 121597211.565 7  94751137.65445  23139191.352                    23139196.977
        44.100          31.100
                  87355706.854 6  20973940.703                    20973941.691
                        41.600
                  90804245.531 6  21901686.219                    21901691.461
                        39.900
                  80212243.024 6  19312941.242                    19312941.203
                        41.300
                  88470204.750 6  21293754.867                    21293756.277
                        36.400
                  86821589.871 6  20860317.063                    20860318.633
                        41.300
                  82739586.971 6  19928460.539                    19928461.809
                        38.900
                  95180064.036 6  22876594.953                    22876595.367
                        36.600
 108632771.876 7  84648924.88945  20672129.570                    20672131.801
        47.300          31.400
 123322716.805 7  96095650.93644  23467534.148                    23467540.918
        42.700          28.800
 121006116.709 7  94290495.18745  23026700.180                    23026706.348
        46.800          35.100
 115347688.800 8  89881342.42446  21949935.320                    21949941.371
        48.100          38.500
 117368831.996 7  91456256.12745  22334546.805                    22334552.688
        43.200          31.300
 117088829.732 8  91238060.86346  22281263.063                    22281266.570
        49.100          37.300
 125625489.398 7  97890022.66645  23905737.719                    23905745.336
        43.900          31.100
 117597487.479 7  91634415.71545  22378056.961                    22378059.848
        45.400          31.400
 18  3 13 14 41 18.0000000  0 19R01G19G22G25R08R10R09R16R17R18R19G12
                                G06G03G32G24G17G01G14
                  86409157.063 6  20783087.461                    20783090.848
                        37.300
 111492228.984 7  86877268.23745  21216314.195                    21216315.207
        47.300          33.900
 121131891.961 7  94388476.89645  23050632.219                    23050630.438
        47.200          30.000
 121594042.633 7  94748668.36945  23138589.031                    23138594.281
        44.700          31.300
                  87357875.322 6  20974461.125                    20974462.539
                        41.800
                  90801410.778 6  21901004.109                    21901007.121
                        40.000
                  80212238.581 6  19312940.117                    19312939.895
                        41.200
                  88473473.052 5  21294542.055                    21294542.766
                        35.600
                  86824058.747 6  20860909.422                    20860911.574
                        41.000
                  82738780.433 6  19928265.695                    19928267.742
                        38.700
                  95176855.031 6  22875822.586                    22875823.543
                        36.600
 108631758.491 7  84648135.23745  20671936.820                    20671938.863
        47.300          31.200
 123319919.783 7  96093471.41144  23467001.477                    23467008.949
        42.300          28.400
 121004659.502 7  94289359.69845  23026422.242                    23026429.352
        46.300          34.100
 115348685.945 8  89882119.42946  21950124.813                    21950131.293
        48.600          38.900
 117372217.935 7  91458894.53345  22335191.008                    22335197.195
        43.200          30.600
 117091122.501 8  91239847.44746  22281698.547                    22281702.813
        48.800          37.100
 125629057.110 7  97892802.70345  23906417.117                    23906424.461
        44.300          30.900
 117596471.616 7  91633624.12145  22377862.922                    22377866.543
        44.800          31.000
 18  3 13 14 41 19.0000000  0 19R01G19G22G25R08R10R09R16R17R18R19G12
                                G06G03G32G24G17G01G14
                  86408320.571 6  20782886.570                    20782890.547
                        36.900
 111493353.333 7  86878144.35645  21216528.234                    21216529.273
        47.500          34.100
 121131902.633 7  94388485.21545  23050634.375                    23050632.410
        47.300          30.000
 121590873.982 7  94746199.31045  23137986.680                    23137991.570
        45.700          31.200
                  87360044.372 7  20974981.852                    20974983.207
                        42.000
                  90798576.271 6  21900318.852                    21900323.957
                        39.900
                  80212234.775 6  19312939.227                    19312939.293
                        41.200
                  88476741.694 6  21295327.453                    21295329.945
                        36.200
                  86826528.175 6  20861503.930                    20861505.063
                        41.100
                  82737974.541 6  19928071.547                    19928073.461
                        39.100
                  95173646.203 5  22875050.469                    22875052.184
                        35.300
 108630745.754 7  84647346.08545  20671744.156                    20671746.359
        47.600          31.400
 123317123.192 6  96091292.24644  23466469.633                    23466476.621
        41.800          28.900
 121003202.893 7  94288224.67945  23026144.984                    23026152.129
        46.100          34.400
 115349683.781 8  89882896.96846  21950314.813                    21950320.879
        48.200          38.500
 117375604.298 7  91461533.26345  22335835.500                    22335841.285
        43.500          31.900
 117093415.801 8  91241634.43646  22282135.477                    22282139.395
        48.900          36.900
 125632625.172 7  97895583.00445  23907095.766                    23907102.863
        44.700          30.400
 117595456.332 7  91632832.99045  22377669.516                    22377673.160
        44.000          32.300
 18  3 13 14 41 20.0000000  0 19R01G19G22G25R08R10R09R16R17R18R19G12
                                G06G03G32G24G17G01G14
                  86407484.772 6  20782685.703                    20782689.578
                        36.800
 111494478.466 7  86879021.08645  21216742.117                    21216743.500
        47.600          33.900
 121131913.987 7  94388494.06945  23050636.609                    23050634.340
        47.600          30.400
 121587705.693 7  94743730.53245  23137383.414                    23137388.961
        46.800          31.400
                  87362214.018 6  20975502.766                    20975503.941
                        41.700
                  90795742.007 6  21899634.313                    21899639.863
                        40.800
                  80212231.649 6  19312938.258                    19312938.102
                        41.400
                  88480010.741 5  21296115.758                    21296116.348
                        35.800
                  86828998.153 6  20862096.883                    20862098.977
                        41.400
                  82737169.337 6  19927877.180                    19927879.191
                        38.600
                  95170437.580 5  22874279.914                    22874280.965
                        34.900
 108629733.703 7  84646557.47045  20671551.469                    20671553.719
        47.100          31.400
 123314327.044 7  96089113.46844  23465938.391                    23465944.609
        43.300          28.800
 121001746.901 7  94287090.14345  23025867.938                    23025874.918
        45.800          33.600
 115350682.305 8  89883675.04446  21950504.680                    21950510.938
        48.500          38.600
 117378991.127 7  91464172.35245  22336479.469                    22336485.578
        43.600          31.100
 117095709.643 8  91243421.84246  22282572.180                    22282575.160
        49.300          37.100
 125636193.667 7  97898363.64845  23907774.773                    23907781.840
        44.800          31.100
 117594441.672 7  91632042.35445  22377476.906                    22377480.215
        43.900          31.100
 18  3 13 14 41 21.0000000  0 19R01G19G22G25R08R10R09R16R17R18R19G12
                                G06G03G32G24G17G01G14
                  86406649.719 6  20782484.336                    20782488.320
                        36.900
 111495604.394 7  86879898.43545  21216956.250                    21216958.094
        47.700          34.000
 121131926.013 7  94388503.44244  23050639.031                    23050636.625
        47.500          29.800
 121584537.754 7  94741262.02445  23136780.586                    23136786.211
        47.100          32.600
                  87364384.318 6  20976024.570                    20976025.219
                        41.600
                  90792908.082 6  21898951.383                    21898956.641
                        40.400
                  80212229.230 6  19312937.414                    19312937.711
                        41.500
                  88483280.130 5  21296901.758                    21296903.098
                        35.800
                  86831468.669 6  20862690.992                    20862692.516
                        41.400
                  82736364.870 6  19927684.617                    19927686.031
                        38.300
                  95167229.187 5  22873509.563                    22873509.617
                        35.100
 108628722.359 7  84645769.42045  20671358.992                    20671361.578
        46.800          31.400
 123311531.313 7  96086935.03944  23465406.430                    23465412.688
        43.500          29.500
 121000291.537 7  94285956.10145  23025590.453                    23025597.762
        45.100          33.700
 115351681.587 8  89884453.70746  21950695.156                    21950701.242
        48.400          39.000
 117382378.408 7  91466811.81145  22337124.898                    22337130.410
        43.700          31.600
 117098004.030 8  91245209.67246  22283008.352                    22283012.258
        48.600          37.100
 125639762.594 7  97901144.62945  23908454.078                    23908461.059
        44.700          31.200
 117593427.631 7  91631252.20445  22377283.977                    22377287.578
        44.300          32.000
 18  3 13 14 41 22.0000000  0 19R01G19G22G25R08R10R09R16R17R18R19G12
                                G06G03G32G24G17G01G14
                  86405815.343 6  20782284.219                    20782287.664
                        36.900
 111496731.061 7  86880776.36245  21217170.820                    21217171.914
        47.500          33.800
 121131938.624 7  94388513.26445  23050641.008                    23050638.961
        46.900          30.700
 121581370.122 7  94738793.74645  23136178.266                    23136183.828
        47.300          32.800
                  87366555.217 6  20976545.602                    20976546.297
                        41.800
                  90790074.418 6  21898268.461                    21898273.480
                        40.300
                  80212227.423 6  19312937.180                    19312937.395
                        41.500
                  88486549.860 5  21297689.102                    21297690.121
                        35.700
                  86833939.721 6  20863284.773                    20863286.219
                        41.200
                  82735561.111 6  19927490.648                    19927492.590
                        38.800
                  95164020.949 5  22872738.328                    22872738.188
                        35.300
 108627711.664 7  84644981.87045  20671166.609                    20671169.160
        47.000          31.300
 123308735.983 7  96084756.92544  23464874.242                    23464880.918
        43.000          28.600
 120998836.764 7  94284822.50245  23025313.859                    23025320.809
        44.700          33.800
 115352681.522 8  89885232.87646  21950885.211                    21950891.246
        48.500          38.500
 117385766.078 7  91469451.58445  22337769.383                    22337774.973
        43.700          31.300
 117100298.970 8  91246997.92746  22283445.000                    22283448.855
        48.300          37.300
 125643331.941 7  97903925.94745  23909133.109                    23909140.418
        44.600          30.100
 117592414.189 7  91630462.52645  22377091.516                    22377094.160
        44.700          31.500
 18  3 13 14 41 23.0000000  0 19R01G19G22G25R08R10R09R16R17R18R19G12
                                G06G03G32G24G17G01G14
                  86404981.630 6  20782083.477                    20782087.098
                        36.600
 111497858.485 7  86881654.87345  21217385.188                    21217386.773
        47.900          34.200
 121131951.905 7  94388523.61644  23050643.750                    23050641.277
        47.000          29.700
 121578202.813 7  94736325.71545  23135575.289                    23135581.430
        47.600          32.700
                  87368726.732 6  20977067.469                    20977067.430
                        41.900
                  90787241.005 6  21897584.938                    21897589.512
                        40.100
                  80212226.302 6  19312937.273                    19312936.801
                        41.400
                  88489819.927 5  21298475.734                    21298477.551
                        35.900
                  86836411.331 6  20863879.180                    20863880.676
                        40.800
                  82734758.097 6  19927297.141                    19927299.449
                        38.700
                  95160812.939 5  22871968.078                    22871966.871
                        34.900
 108626701.632 7  84644194.84145  20670974.406                    20670976.719
        47.000          31.400
 123305941.061 7  96082579.14144  23464341.859                    23464348.945
        43.500          28.300
 120997382.592 7  94283689.38445  23025036.094                    23025043.594
        44.300          33.200
 115353682.162 8  89886012.59346  21951075.758                    21951082.086
        48.000          38.400
 117389154.185 7  91472091.69945  22338414.000                    22338419.793
        44.400          31.000
 117102594.436 8  91248786.59246  22283883.078                    22283885.355
        49.600          37.100
 125646901.684 7  97906707.56744  23909812.680                    23909819.578
        44.600          29.700
 117591401.352 7  91629673.31345  22376899.133                    22376901.980
        45.900          31.500
 18  3 13 14 41 24.0000000  0 19R01G19G22G25R08R10R09R16R17R18R19G12
                                G06G03G32G24G17G01G14
                  86404148.618 6  20781883.328                    20781886.734
                        36.200
 111498986.650 7  86882533.95845  21217599.859                    21217601.090
        47.500          33.600
 121131965.796 7  94388534.43844  23050646.359                    23050644.094
        46.900          29.700
 121575035.835 7  94733857.93745  23134972.094                    23134978.621
        46.900          32.100
                  87370898.874 6  20977588.555                    20977589.230
                        41.900
                  90784407.862 6  21896900.539                    21896906.309
                        40.300
                  80212225.806 6  19312937.031                    19312936.941
                        41.600
                  88493090.313 6  21299263.578                    21299264.430
                        36.500
                  86838883.530 6  20864472.219                    20864474.191
                        40.900
                  82733955.752 6  19927104.109                    19927105.250
                        38.900
                  95157605.125 5  22871195.961                    22871195.977
                        34.800
 108625692.285 7  84643408.34945  20670782.367                    20670784.715
        47.000          31.400
 123303146.528 7  96080401.68144  23463810.445                    23463816.969
        43.900          29.100
 120995929.058 7  94282556.76545  23024760.672                    23024767.684
        44.000          33.100
 115354683.506 8  89886792.86246  21951266.211                    21951272.105
        48.100          38.600
 117392542.719 7  91474732.14445  22339059.117                    22339064.527
        44.400          31.600
 117104890.404 8  91250575.65946  22284319.750                    22284322.531
        50.000          36.600
 125650471.817 7  97909489.49744  23910491.977                    23910498.891
        45.000          29.600
 117590389.127 7  91628884.56145  22376706.594                    22376708.813
        46.000          31.800
 18  3 13 14 41 25.0000000  0 19R01G19G22G25R08R10R09R16R17R18R19G12
                                G06G03G32G24G17G01G14
                  86403316.328 6  20781682.977                    20781686.555
                        36.500
 111500115.604 7  86883413.65945  21217815.055                    21217816.152
        47.500          33.400
 121131980.385 7  94388545.81145  23050648.648                    23050647.008
        46.600          30.400
 121571869.180 7  94731390.41445  23134369.336                    23134375.809
        46.300          32.100
                  87373071.635 6  20978110.555                    20978110.965
                        41.600
                  90781575.027 6  21896218.148                    21896222.957
                        40.500
                  80212225.993 6  19312937.039                    19312936.758
                        41.600
                  88496361.051 5  21300051.164                    21300051.016
                        35.700
                  86841356.325 6  20865066.453                    20865068.816
                        41.200
                  82733154.110 6  19926910.625                    19926912.805
                        39.400
                  95154397.577 5  22870425.344                    22870424.926
                        34.700
 108624683.608 7  84642622.37145  20670590.875                    20670592.813
        47.000          32.300
 123300352.362 7  96078224.51644  23463278.141                    23463285.641
        42.600          28.900
 120994476.143 7  94281424.62745  23024483.734                    23024491.086
        43.900          33.200
 115355685.568 8  89887573.68946  21951457.180                    21951463.359
        48.100          39.300
 117395931.701 7  91477372.93945  22339703.297                    22339710.039
        43.900          31.400
 117107186.951 8  91252365.18146  22284756.367                    22284759.910
        49.500          36.900
 125654042.405 7  97912271.77645  23911171.445                    23911178.352
        44.900          30.400
 117589377.543 7  91628096.29345  22376514.477                    22376516.645
        45.800          31.500
 18  3 13 14 41 26.0000000  0 19R01G19G22G25R08R10R09R16R17R18R19G12
                                G06G03G32G24G17G01G14
                  86402484.738 6  20781483.000                    20781486.285
                        36.400
 111501245.295 7  86884293.93745  21218030.297                    21218031.309
        47.400          33.200
 121131995.568 7  94388557.64345  23050651.359                    23050649.859
        46.500          30.000
 121568702.864 7  94728923.16045  23133766.297                    23133773.512
        45.700          30.800
                  87375245.013 6  20978632.375                    20978633.004
                        41.600
                  90778742.466 6  21895535.852                    21895539.641
                        40.200
                  80212226.854 6  19312937.289                    19312937.156
                        41.500
                  88499632.124 6  21300837.313                    21300839.266
                        36.400
                  86843829.680 6  20865660.430                    20865662.457
                        41.300
                  82732353.144 6  19926718.000                    19926719.508
                        39.300
                  95151190.194 5  22869654.461                    22869654.191
                        35.300
 108623675.596 7  84641836.91445  20670398.688                    20670401.164
        47.200          31.700
 123297558.553 7  96076047.62244  23462746.797                    23462753.742
        43.200          28.800
 120993023.773 7  94280292.91945  23024206.992                    23024214.367
        43.200          33.500
 115356688.302 8  89888355.04346  21951648.320                    21951654.023
        48.300          39.500
 117399321.099 7  91480014.05545  22340348.016                    22340354.488
        43.900          31.400
 117109484.026 8  91254155.11746  22285193.141                    22285196.816
        49.800          36.700
 125657613.373 7  97915054.35845  23911851.258                    23911857.895
        45.000          30.000
 117588366.558 7  91627308.49245  22376320.805                    22376324.059
        44.700          30.900
 18  3 13 14 41 27.0000000  0 19R01G19G22G25R08R10R09R16R17R18R19G12
                                G06G03G32G24G17G01G14
                  86401653.864 6  20781283.914                    20781285.906
                        36.800
 111502375.761 7  86885174.81545  21218245.070                    21218246.012
        47.300          33.600
 121132011.431 7  94388570.00644  23050654.758                    23050652.691
        46.600          29.800
 121565536.844 7  94726456.13245  23133163.602                    23133170.898
        44.300          30.900
                  87377419.039 6  20979153.844                    20979155.422
                        41.600
                  90775910.196 6  21894852.188                    21894856.355
                        40.800
                  80212228.360 6  19312937.539                    19312937.848
                        41.500
                  88502903.604 6  21301623.984                    21301625.797
                        36.300
                  86846303.578 6  20866254.922                    20866256.996
                        41.000
                  82731552.894 6  19926524.875                    19926526.953
                        39.200
                  95147983.052 5  22868883.328                    22868883.293
                        35.600
 108622668.290 7  84641052.00245  20670207.258                    20670210.004
        47.300          32.100
 123294765.116 7  96073871.02044  23462215.508                    23462221.992
        43.300          28.400
 120991572.117 7  94279161.77245  23023931.000                    23023938.223
        43.200          32.800
 115357691.756 8  89889136.94946  21951839.047                    21951844.875
        48.500          39.200
 117402710.917 7  91482655.49845  22340992.914                    22340999.605
        43.400          31.100
 117111781.646 8  91255945.47446  22285631.289                    22285634.168
        50.200          37.300
 125661184.743 7  97917837.24545  23912530.867                    23912537.672
        45.100          30.700
 117587356.176 7  91626521.16845  22376127.742                    22376131.957
        43.200          31.800
 18  3 13 14 41 28.0000000  0 19R01G19G22G25R08R10R09R16R17R18R19G12
                                G06G03G32G24G17G01G14
                  86400823.706 6  20781083.664                    20781086.852
                        36.700
 111503506.994 7  86886056.29845  21218460.445                    21218461.660
        47.200          34.000
 121132027.937 7  94388582.87644  23050657.398                    23050656.012
        46.700          29.600
 121562371.136 7  94723989.35945  23132560.750                    23132568.238
        43.600          30.000
                  87379593.677 6  20979675.508                    20979677.090
                        41.800
                  90773078.213 6  21894167.391                    21894173.359
                        39.900
                  80212230.563 6  19312937.688                    19312938.344
                        41.500
                  88506175.401 6  21302412.758                    21302413.227
                        36.700
                  86848778.079 6  20866848.898                    20866851.391
                        41.100
                  82730753.365 6  19926332.625                    19926334.574
                        39.200
                  95144776.104 6  22868112.695                    22868113.297
                        36.200
 108621661.655 7  84640267.61845  20670015.250                    20670018.203
        47.200          31.500
 123291972.056 7  96071694.69244  23461683.789                    23461690.547
        43.900          28.500
 120990121.013 7  94278031.05045  23023654.453                    23023661.988
        42.900          32.700
 115358695.902 8  89889919.39646  21952029.969                    21952035.910
        48.800          39.000
 117406101.162 7  91485297.25245  22341638.195                    22341644.727
        43.000          31.200
 117114079.825 8  91257736.27746  22286067.422                    22286071.418
        50.000          37.300
 125664756.568 7  97920620.48245  23913210.305                    23913217.488
        45.000          30.500
 117586346.357 7  91625734.31345  22375934.977                    22375939.914
        42.800          31.600
 18  3 13 14 41 29.0000000  0 19R01G19G22G25R08R10R09R16R17R18R19G12
                                G06G03G32G24G17G01G14
                  86399994.240 6  20780883.586                    20780886.875
                        36.500
 111504638.980 7  86886938.36345  21218675.320                    21218676.859
        46.400          33.700
 121132045.058 7  94388596.21344  23050660.438                    23050658.887
        46.700          29.900
 121559205.717 7  94721522.80945  23131958.789                    23131965.758
        43.200          30.000
                  87381768.947 6  20980197.695                    20980199.301
                        41.700
                  90770246.544 6  21893486.734                    21893491.078
                        40.400
                  80212233.398 6  19312939.125                    19312939.250
                        41.500
                  88509447.545 6  21303201.086                    21303201.313
                        36.500
                  86851253.132 6  20867443.313                    20867446.020
                        40.900
                  82729954.546 6  19926140.414                    19926141.746
                        39.400
                  95141569.358 6  22867342.398                    22867342.859
                        36.400
 108620655.684 7  84639483.74845  20669824.086                    20669826.441
        46.800          31.600
 123289179.354 7  96069518.61944  23461152.656                    23461159.004
        44.000          29.800
 120988670.519 7  94276900.80545  23023378.555                    23023385.855
        42.400          33.000
 115359700.743 8  89890702.37546  21952220.992                    21952227.313
        48.800          39.000
 117409491.815 7  91487939.30945  22342283.508                    22342289.730
        43.000          31.400
 117116378.534 8  91259527.48446  22286504.711                    22286509.145
        49.500          37.600
 125668328.743 7  97923403.99945  23913889.672                    23913896.844
        44.500          30.300
 117585337.123 7  91624947.93545  22375743.914                    22375747.559
        43.500          31.200
 18  3 13 14 41 30.0000000  0 19R01G19G22G25R08R10R09R16R17R18R19G12
                                G06G03G32G24G17G01G14
                  86399165.444 6  20780684.375                    20780687.414
                        37.000
 111505771.689 7  86887820.99345  21218890.969                    21218892.754
        46.800          33.800
 121132062.812 7  94388610.04845  23050663.773                    23050662.465
        46.800          30.200
 121556040.631 7  94719056.52744  23131356.766                    23131363.113
        43.900          29.400
                  87383944.808 6  20980721.500                    20980721.617
                        41.900
                  90767415.159 6  21892803.734                    21892807.848
                        40.000
                  80212236.909 6  19312940.008                    19312939.469
                        41.500
                  88512720.012 6  21303989.008                    21303989.281
                        36.300
                  86853728.751 6  20868038.164                    20868040.113
                        41.000
                  82729156.419 6  19925949.156                    19925949.313
                        39.300
                  95138362.857 6  22866571.281                    22866571.758
                        36.000
 108619650.367 7  84638700.37845  20669632.680                    20669635.406
        47.000          32.700
 123286387.016 7  96067342.82444  23460621.000                    23460627.816
        43.700          29.700
 120987220.660 7  94275771.05745  23023102.820                    23023110.105
        43.000          32.100
 115360706.283 8  89891485.89646  21952412.055                    21952418.453
        48.600          39.200
 117412882.854 7  91490581.65545  22342928.680                    22342935.270
        42.900          30.400
 117118677.755 8  91261319.08346  22286942.289                    22286945.957
        49.500          37.500
 125671901.325 7  97926187.82144  23914569.805                    23914576.953
        44.700          29.300
 117584328.534 7  91624162.06145  22375553.281                    22375555.828
        45.200          31.500
 18  3 13 14 41 31.0000000  0 19R01G19G22G25R08R10R09R16R17R18R19G12
                                G06G03G32G24G17G01G14
                  86398337.350 6  20780484.914                    20780488.668
                        37.000
 111506905.180 7  86888704.22845  21219106.391                    21219108.250
        46.900          34.100
 121132081.203 7  94388624.37944  23050666.773                    23050665.859
        46.400          29.500
 121552875.873 7  94716590.51644  23130755.305                    23130760.543
        45.400          29.800
                  87386121.308 6  20981243.719                    20981244.164
                        41.500
                  90764583.975 6  21892119.719                    21892124.211
                        40.200
                  80212241.107 6  19312940.789                    19312940.938
                        41.400
                  88515992.820 6  21304775.563                    21304776.762
                        36.700
                  86856204.884 6  20868633.727                    20868635.973
                        40.800
                  82728358.978 6  19925755.750                    19925757.375
                        39.100
                  95135156.549 5  22865800.586                    22865801.125
                        35.300
 108618645.715 7  84637917.53645  20669441.641                    20669444.148
        46.800          31.500
 123283595.021 7  96065167.29544  23460088.164                    23460096.492
        42.900          29.200
 120985771.372 7  94274641.76345  23022826.711                    23022833.906
        42.900          32.400
 115361712.509 8  89892269.96146  21952603.453                    21952609.922
        48.500          39.200
 117416274.316 7  91493224.32845  22343574.547                    22343580.402
        43.400          30.200
 117120977.492 8  91263111.07846  22287380.625                    22287384.090
        49.300          37.100
 125675474.323 7  97928971.96744  23915249.578                    23915256.648
        44.700          29.600
 117583320.537 7  91623376.62245  22375361.922                    22375363.516
        46.400          32.200
 18  3 13 14 41 32.0000000  0 19R01G19G22G25R08R10R09R16R17R18R19G12
                                G06G03G32G24G17G01G14
                  86397509.933 6  20780286.320                    20780289.449
                        37.200
 111508039.408 7  86889588.03545  21219322.609                    21219324.070
        47.500          34.200
 121132100.231 7  94388639.21144  23050670.750                    23050669.754
        46.300          28.700
 121549711.428 7  94714124.72945  23130154.094                    23130158.547
        46.500          31.700
                  87388298.396 6  20981766.438                    20981767.293
                        41.700
                  90761753.095 6  21891437.078                    21891442.652
                        40.000
                  80212245.953 6  19312942.945                    19312942.547
                        41.500
                  88519265.948 6  21305562.945                    21305564.633
                        36.300
                  86858681.605 6  20869228.617                    20869231.102
                        40.500
                  82727562.230 6  19925564.570                    19925565.824
                        39.400
                  95131950.430 5  22865030.148                    22865030.906
                        35.000
 108617641.725 7  84637135.20945  20669250.305                    20669252.945
        46.800          31.200
 123280803.347 7  96062992.02944  23459556.867                    23459564.934
        42.100          28.200
 120984322.663 7  94273512.90045  23022551.313                    23022558.480
        42.300          32.300
 115362719.405 8  89893054.54146  21952795.336                    21952801.621
        48.500          39.200
 117419666.178 7  91495867.31045  22344220.719                    22344225.418
        43.800          31.100
 117123277.773 8  91264903.50046  22287817.883                    22287821.723
        48.900          37.000
 125679047.720 7  97931756.42944  23915929.867                    23915936.539
        44.200          28.300
 117582313.165 7  91622591.64345  22375170.031                    22375172.266
        46.700          31.900
 18  3 13 14 41 33.0000000  0 19R01G19G22G25R08R10R09R16R17R18R19G12
                                G06G03G32G24G17G01G14
                  86396683.230 6  20780087.359                    20780090.828
                        36.800
 111509174.382 7  86890472.43145  21219538.922                    21219540.027
        47.000          34.100
 121132119.889 7  94388654.53044  23050673.938                    23050673.094
        45.900          29.200
 121546547.337 7  94711659.19845  23129552.063                    23129556.141
        47.600          31.600
                  87390476.141 6  20982289.375                    20982290.051
                        41.800
                  90758922.470 6  21890753.984                    21890759.633
                        40.400
                  80212251.455 6  19312943.422                    19312944.004
                        41.500
                  88522539.449 6  21306349.789                    21306352.781
                        36.400
                  86861158.849 6  20869824.313                    20869826.418
                        40.900
                  82726766.160 6  19925372.055                    19925373.703
                        39.200
                  95128744.463 5  22864258.500                    22864259.406
                        34.700
 108616638.391 7  84636353.39645  20669059.844                    20669061.938
        46.800          31.400
 123278012.060 7  96060817.07344  23459026.391                    23459033.742
        42.200          29.800
 120982874.556 7  94272384.51345  23022275.734                    23022283.297
        43.000          31.900
 115363727.019 8  89893839.68246  21952987.219                    21952993.195
        48.500          38.800
 117423058.448 7  91498510.61745  22344866.547                    22344871.496
        43.800          32.500
 117125578.581 8  91266696.33346  22288256.492                    22288259.551
        49.200          37.500
 125682621.504 7  97934541.19844  23916609.852                    23916616.719
        43.600          28.900
 117581306.365 7  91621807.10445  22374978.125                    22374980.711
        45.800          30.900
 18  3 13 14 41 34.0000000  0 19R01G19G22G25R08R10R09R16R17R18R19G12
                                G06G03G32G24G17G01G14
                  86395857.199 6  20779889.070                    20779891.320
                        36.900
 111510310.078 7  86891357.37245  21219755.070                    21219756.066
        47.000          34.200
 121132140.201 7  94388670.35845  23050677.531                    23050677.336
        45.800          30.000
 121543383.558 7  94709193.90345  23128949.563                    23128954.098
        47.900          33.100
                  87392654.497 6  20982811.500                    20982812.715
                        41.800
                  90756092.118 6  21890071.641                    21890076.023
                        40.500
                  80212257.619 7  19312944.117                    19312944.719
                        42.000
                  88525813.271 6  21307139.344                    21307140.691
                        36.200
                  86863636.650 6  20870419.367                    20870421.539
                        41.000
                  82725970.789 6  19925180.539                    19925182.758
                        39.400
                  95125538.674 5  22863488.977                    22863488.898
                        34.400
 108615635.742 7  84635572.11945  20668869.031                    20668871.023
        47.100          31.400
 123275221.093 7  96058642.35944  23458495.453                    23458502.902
        42.300          29.300
 120981427.081 7  94271256.60745  23022000.391                    23022007.453
        42.900          32.100
 115364735.344 8  89894625.38446  21953179.328                    21953185.414
        48.900          39.100
 117426451.153 7  91501154.28145  22345512.359                    22345517.238
        43.000          31.700
 117127879.913 8  91268489.57546  22288694.555                    22288697.094
        48.800          37.300
 125686195.709 7  97937326.29044  23917289.875                    23917297.094
        43.400          29.000
 117580300.152 7  91621023.03045  22374786.102                    22374789.391
        44.600          31.500
 18  3 13 14 41 35.0000000  0 19R01G19G22G25R08R10R09R16R17R18R19G12
                                G06G03G32G24G17G01G14
                  86395031.891 6  20779689.539                    20779693.449
                        36.700
 111511446.587 7  86892242.95245  21219971.258                    21219972.230
        47.600          34.500
 121132161.157 7  94388686.69244  23050682.211                    23050681.246
        45.600          29.100
 121540220.111 8  94706728.85945  23128347.453                    23128352.508
        48.000          32.600
                  87394833.507 6  20983335.797                    20983336.543
                        41.800
                  90753262.060 6  21889389.508                    21889394.441
                        40.000
                  80212264.464 7  19312947.055                    19312946.254
                        42.100
                  88529087.436 6  21307926.961                    21307928.207
                        36.100
                  86866115.019 6  20871015.508                    20871016.949
                        41.100
                  82725176.180 6  19924989.281                    19924990.930
                        39.400
                  95122333.141 5  22862718.352                    22862718.391
                        35.100
 108614633.786 7  84634791.37945  20668678.727                    20668680.703
        47.000          31.900
 123272430.551 7  96056467.96644  23457965.297                    23457971.395
        43.400          28.600
 120979980.199 7  94270129.15845  23021725.375                    23021732.457
        42.900          32.100
 115365744.343 8  89895411.61046  21953371.016                    21953377.230
        48.800          39.000
 117429844.310 7  91503798.31745  22346157.266                    22346163.109
        43.100          32.100
 117130181.779 8  91270283.24446  22289132.086                    22289135.758
        48.300          36.800
 125689770.310 7  97940111.68844  23917969.625                    23917977.141
        42.800          28.400
 117579294.568 7  91620239.45145  22374593.992                    22374598.012
        44.500          31.200
 18  3 13 14 41 36.0000000  0 19R01G19G22G25R08R10R09R16R17R18R19G12
                                G06G03G32G24G17G01G14
                  86394207.261 6  20779492.133                    20779494.746
                        37.000
 111512583.832 7  86893129.10745  21220187.719                    21220188.945
        47.600          33.900
 121132182.756 7  94388703.52344  23050686.242                    23050685.047
        44.900          28.900
 121537056.987 7  94704264.06445  23127744.914                    23127750.496
        47.300          33.300
                  87397013.115 6  20983858.820                    20983859.773
                        41.600
                  90750432.283 6  21888706.633                    21888711.473
                        40.500
                  80212271.968 7  19312948.469                    19312948.262
                        42.000
                  88532362.033 6  21308715.023                    21308716.648
                        36.100
                  86868594.013 6  20871610.313                    20871612.109
                        40.700
                  82724382.256 6  19924798.203                    19924799.469
                        39.200
                  95119127.814 5  22861948.766                    22861948.113
                        34.500
 108613632.485 7  84634011.13845  20668487.445                    20668489.750
        46.600          32.500
 123269640.378 7  96054293.84844  23457435.055                    23457440.566
        44.100          29.200
 120978533.967 7  94269002.22445  23021449.266                    23021456.984
        42.900          31.600
 115366754.099 8  89896198.43346  21953563.492                    21953569.508
        49.100          39.100
 117433237.887 7  91506442.68445  22346802.430                    22346808.965
        43.200          32.000
 117132484.219 8  91272077.36146  22289569.352                    22289573.316
        48.100          36.500
 125693345.360 7  97942897.43944  23918650.813                    23918657.242
        43.000          27.900
 117578289.581 7  91619456.34545  22374402.789                    22374406.426
        44.800          31.800
 18  3 13 14 41 37.0000000  0 19R01G19G22G25R08R10R09R16R17R18R19G12
                                G06G03G32G24G17G01G14
                  86393383.360 6  20779294.086                    20779297.266
                        37.500
 111513721.884 7  86894015.89645  21220403.977                    21220405.566
        47.700          34.000
 121132205.056 7  94388720.89844  23050690.828                    23050689.543
        44.100          29.100
 121533894.227 7  94701799.56045  23127142.094                    23127148.801
        46.700          33.000
                  87399193.385 6  20984380.633                    20984383.094
                        41.400
                  90747602.806 6  21888024.133                    21888029.465
                        39.800
                  80212280.175 6  19312950.102                    19312950.434
                        41.900
                  88535636.964 5  21309503.094                    21309504.824
                        35.600
                  86871073.566 6  20872207.016                    20872208.277
                        40.800
                  82723589.022 6  19924606.523                    19924608.496
                        39.700
                  95115922.777 5  22861178.313                    22861177.469
                        33.200
 108612631.916 7  84633231.47845  20668297.008                    20668299.422
        46.100          32.300
 123266850.606 7  96052120.02344  23456902.992                    23456909.586
        44.100          28.900
 120977088.397 7  94267875.81145  23021174.820                    23021181.773
        43.100          31.800
 115367764.578 8  89896985.81946  21953755.930                    21953761.879
        48.900          38.900
 117436631.950 7  91509087.42845  22347448.469                    22347454.938
        43.000          31.900
 117134787.219 8  91273871.90646  22290008.234                    22290011.582
        48.600          36.800
 125696920.841 7  97945683.53544  23919330.672                    23919337.902
        42.800          26.200
 117577285.239 7  91618673.76145  22374212.391                    22374215.184
        45.000          31.200
 18  3 13 14 41 38.0000000  0 19R01G19G22G25R08R10R09R16R17R18R19G12
                                G06G03G32G24G17G01G14
                  86392560.146 6  20779096.320                    20779099.098
                        37.400
 111514860.701 7  86894903.27945  21220620.492                    21220622.164
        47.300          34.400
 121132227.958 7  94388738.74544  23050695.297                    23050693.434
        43.600          28.800
 121530731.787 7  94699335.32245  23126540.336                    23126547.633
        44.900          31.600
                  87401374.236 6  20984904.992                    20984907.031
                        41.600
                  90744773.603 6  21887340.820                    21887346.801
                        39.700
                  80212289.050 6  19312952.781                    19312952.211
                        41.800
                  88538912.230 6  21310292.156                    21310293.254
                        36.200
                  86873553.678 6  20872802.898                    20872803.426
                        40.500
                  82722796.446 6  19924416.336                    19924417.941
                        39.100
                  95112717.900 5  22860408.195                    22860406.664
                        34.100
 108611631.972 7  84632452.31045  20668106.891                    20668109.203
        46.700          32.300
 123264061.179 7  96049946.46144  23456371.805                    23456378.344
        43.000          29.300
 120975643.409 7  94266749.85745  23020899.695                    23020907.078
        43.900          32.500
 115368775.759 8  89897773.75146  21953948.539                    21953954.133
        48.700          38.900
 117440026.434 7  91511732.48645  22348093.609                    22348100.656
        42.500          31.400
 117137090.749 8  91275666.86746  22290446.867                    22290449.785
        48.800          37.500
 125700496.722 7  97948469.93144  23920010.836                    23920018.188
        43.000          26.900
 117576281.498 7  91617891.64045  22374021.195                    22374024.691
        44.800          31.900
 18  3 13 14 41 39.0000000  0 19R01G19G22G25R08R10R09R16R17R18R19G12
                                G06G03G32G24G17G01G14
                  86391737.608 6  20778898.258                    20778901.074
                        37.400
 111516000.265 7  86895791.25145  21220837.039                    21220839.086
        47.100          34.400
 121132251.507 7  94388757.08944  23050699.891                    23050698.266
        43.900          27.300
 121527569.593 7  94696871.29745  23125937.766                    23125946.320
        43.600          31.000
                  87403555.713 6  20985427.523                    20985430.691
                        41.700
                  90741944.698 6  21886659.328                    21886664.477
                        40.000
                  80212298.600 6  19312954.945                    19312955.367
                        41.600
                  88542187.804 5  21311080.633                    21311081.801
                        35.900
                  86876034.341 6  20873398.430                    20873399.867
                        40.400
                  82722004.594 6  19924225.445                    19924226.715
                        39.400
                  95109513.231 5  22859638.031                    22859636.734
                        34.500
 108610632.728 7  84631673.68545  20667917.305                    20667918.836
        47.200          31.300
 123261272.093 7  96047773.17444  23455841.125                    23455848.277
        43.200          29.200
 120974199.016 7  94265624.35545  23020625.313                    23020632.102
        43.800          32.800
 115369787.625 8  89898562.22146  21954140.656                    21954146.723
        48.300          38.600
 117443421.331 6  91514377.86345  22348739.313                    22348746.098
        41.200          31.400
 117139394.805 8  91277462.23746  22290884.531                    22290888.922
        48.500          37.100
 125704072.995 7  97951256.63344  23920691.758                    23920698.609
        42.700          27.800
 117575278.365 7  91617109.98245  22373830.172                    22373833.629
        45.000          31.400
 18  3 13 14 41 40.0000000  0 19R01G19G22G25R08R10R09R16R17R18R19G12
                                G06G03G32G24G17G01G14
                  86390915.794 6  20778700.578                    20778703.801
                        38.000
 111517140.602 7  86896679.81945  21221055.047                    21221056.055
        47.200          34.500
 121132275.707 7  94388775.93844  23050704.805                    23050702.570
        43.600          27.400
 121524407.745 7  94694407.55045  23125336.141                    23125344.137
        42.600          30.800
                  87405737.846 6  20985952.852                    20985954.383
                        41.800
                  90739116.085 6  21885978.008                    21885981.820
                        40.100
                  80212308.838 6  19312956.570                    19312957.395
                        41.600
                  88545463.787 5  21311868.609                    21311870.258
                        35.900
                  86878515.600 6  20873994.250                    20873995.473
                        40.800
                  82721213.456 6  19924034.953                    19924036.555
                        39.400
                  95106308.789 6  22858867.711                    22858866.539
                        36.000
 108609634.154 7  84630895.57445  20667727.023                    20667729.027
        47.200          31.900
 123258483.377 7  96045600.17844  23455310.445                    23455317.078
        43.100          28.800
 120972755.257 7  94264499.35545  23020350.063                    23020357.258
        44.300          32.900
 115370800.223 7  89899351.26446  21954332.836                    21954339.668
        47.700          38.600
 117446816.664 6  91517023.57245  22349385.594                    22349392.531
        40.900          31.400
 117141699.423 8  91279258.04046  22291323.820                    22291326.746
        48.500          37.100
 125707649.681 7  97954043.65744  23921372.313                    23921379.367
        43.000          27.500
 117574275.830 7  91616328.78345  22373639.617                    22373643.070
        45.400          31.700
 18  3 13 14 41 41.0000000  0 19R01G19G22G25R08R10R09R16R17R18R19G12
                                G06G03G32G24G17G01G14
                  86390094.703 6  20778503.227                    20778507.043
                        37.500
 111518281.700 7  86897568.98445  21221271.711                    21221272.930
        47.100          34.500
 121132300.550 7  94388795.28544  23050709.727                    23050707.203
        43.500          27.200
 121521246.216 7  94691944.07345  23124735.328                    23124742.113
        43.000          31.100
                  87407920.591 6  20986477.641                    20986478.691
                        41.800
                  90736287.746 6  21885295.859                    21885300.145
                        40.100
                  80212319.771 6  19312959.773                    19312960.293
                        41.800
                  88548740.059 6  21312657.953                    21312659.027
                        36.000
                  86880997.417 6  20874590.766                    20874592.195
                        41.100
                  82720423.039 6  19923843.648                    19923846.238
                        39.200
                  95103104.570 6  22858098.391                    22858096.934
                        36.400
 108608636.252 7  84630117.99345  20667536.469                    20667539.094
        47.100          31.400
 123255695.014 7  96043427.45244  23454779.438                    23454786.695
        42.600          28.500
 120971312.134 7  94263374.85345  23020075.930                    23020082.520
        44.600          32.500
 115371813.526 7  89900140.85846  21954525.180                    21954532.266
        47.200          38.700
 117450212.421 6  91519669.60645  22350032.875                    22350038.859
        41.600          31.600
 117144004.574 8  91281054.25846  22291762.422                    22291765.832
        48.900          37.500
 125711226.826 7  97956831.04244  23922053.164                    23922060.078
        42.900          27.400
 117573273.911 7  91615548.06545  22373449.070                    22373452.387
        45.500          31.000
 18  3 13 14 41 42.0000000  0 19R01G19G22G25R08R10R09R16R17R18R19G12
                                G06G03G32G24G17G01G14
                  86389274.364 6  20778305.164                    20778309.262
                        37.100
 111519423.604 7  86898458.77545  21221488.813                    21221490.281
        46.800          34.400
 121132326.087 7  94388815.17144  23050714.867                    23050712.016
        43.100          28.000
 121518085.103 7  94689480.91645  23124134.789                    23124140.523
        44.600          30.700
                  87410104.004 6  20987002.125                    20987001.984
                        41.800
                  90733459.721 6  21884612.688                    21884618.113
                        39.900
                  80212331.397 7  19312962.914                    19312963.023
                        42.100
                  88552016.749 6  21313446.008                    21313447.301
                        36.200
                  86883479.861 6  20875187.242                    20875188.074
                        40.800
                  82719633.384 6  19923654.133                    19923655.902
                        39.300
                  95099900.601 6  22857327.586                    22857327.668
                        36.100
 108607639.094 7  84629340.99345  20667346.789                    20667349.371
        47.300          32.300
 123252907.099 7  96041255.07144  23454249.703                    23454255.703
        43.500          28.600
 120969869.680 7  94262250.86645  23019800.586                    23019807.621
        44.500          33.300
 115372827.588 7  89900931.05446  21954718.742                    21954725.215
        47.200          39.200
 117453608.631 7  91522315.99245  22350679.734                    22350685.059
        42.700          31.500
 117146310.316 8  91282850.93446  22292201.430                    22292204.410
        48.800          37.600
 125714804.398 7  97959618.75644  23922733.992                    23922741.047
        42.600          27.400
 117572272.649 7  91614767.85745  22373258.695                    22373261.773
        45.600          31.900
 18  3 13 14 41 43.0000000  0 19R01G19G22G25R08R10R09R16R17R18R19G12
                                G06G03G32G24G17G01G14
                  86388454.748 6  20778108.125                    20778112.277
                        37.500
 111520566.295 7  86899349.18445  21221706.570                    21221708.004
        46.300          34.400
 121132352.283 7  94388835.57844  23050720.070                    23050716.895
        43.200          28.100
 121514924.349 7  94687018.02145  23123533.680                    23123539.074
        46.100          30.700
                  87412288.037 6  20987526.273                    20987527.188
                        41.400
                  90730631.985 6  21883929.719                    21883935.836
                        40.000
                  80212343.753 6  19312965.586                    19312966.266
                        41.800
                  88555293.797 6  21314234.711                    21314236.277
                        36.200
                  86885962.855 6  20875783.359                    20875785.543
                        40.400
                  82718844.444 6  19923464.320                    19923466.305
                        39.100
                  95096696.856 6  22856557.875                    22856557.570
                        36.700
 108606642.637 7  84628564.53745  20667157.695                    20667159.969
        47.600          31.600
 123250119.611 7  96039083.01744  23453719.070                    23453725.355
        43.700          28.900
 120968427.851 7  94261127.37145  23019526.039                    23019533.258
        44.600          32.900
 115373842.354 7  89901721.79046  21954912.445                    21954918.523
        47.200          38.600
 117457005.284 7  91524962.73045  22351325.883                    22351331.000
        43.000          31.800
 117148616.610 8  91284648.04046  22292640.164                    22292643.480
        48.300          36.900
 125718382.393 7  97962406.80344  23923414.586                    23923421.938
        42.400          27.000
 117571272.030 7  91613988.14845  22373068.164                    22373071.359
        45.000          31.800
 18  3 13 14 41 44.0000000  0 19R01G19G22G25R08R10R09R16R17R18R19G12
                                G06G03G32G24G17G01G14
                  86387635.772 6  20777910.898                    20777915.617
                        37.800
 111521709.711 7  86900240.15945  21221924.008                    21221925.398
        46.500          34.100
 121132379.094 7  94388856.46544  23050724.883                    23050722.305
        43.800          27.800
 121511763.893 7  94684555.32245  23122933.313                    23122937.621
        47.600          31.400
                  87414472.637 6  20988050.766                    20988051.582
                        41.800
                  90727804.527 6  21883248.289                    21883254.000
                        39.800
                  80212356.742 6  19312968.695                    19312969.086
                        41.600
                  88558571.136 6  21315022.516                    21315025.105
                        36.100
                  86888446.357 6  20876380.391                    20876382.055
                        40.800
                  82718056.188 6  19923275.039                    19923276.000
                        39.300
                  95093493.286 5  22855786.367                    22855787.848
                        35.400
 108605646.798 7  84627788.55845  20666968.172                    20666970.277
        47.500          31.800
 123247332.444 7  96036911.20944  23453188.375                    23453195.254
        43.100          28.400
 120966986.612 7  94260004.33645  23019252.523                    23019259.039
        45.200          32.600
 115374857.807 7  89902513.06346  21955105.797                    21955111.547
        47.200          38.700
 117460402.323 7  91527609.77845  22351972.523                    22351977.961
        43.400          32.100
 117150923.410 8  91286445.54146  22293079.531                    22293082.168
        49.000          36.900
 125721960.789 7  97965195.15544  23924095.555                    23924102.605
        42.200          26.200
 117570271.957 7  91613208.86645  22372876.820                    22372881.027
        44.200          31.600
 18  3 13 14 41 45.0000000  0 19R01G19G22G25R08R10R09R16R17R18R19G12
                                G06G03G32G24G17G01G14
                  86386817.542 6  20777714.242                    20777719.043
                        38.000
 111522853.929 7  86901131.75245  21222141.547                    21222143.184
        46.000          34.400
 121132406.612 7  94388877.90844  23050730.063                    23050726.668
        43.900          28.000
 121508603.817 8  94682092.89345  23122330.961                    23122335.813
        48.100          31.500
                  87416657.883 6  20988575.531                    20988576.152
                        41.400
                  90724977.403 6  21882567.234                    21882571.262
                        40.500
                  80212370.441 6  19312972.422                    19312972.328
                        41.400
                  88561848.920 6  21315812.141                    21315813.961
                        36.300
                  86890930.508 6  20876977.141                    20876979.211
                        40.500
                  82717268.673 6  19923084.680                    19923086.699
                        39.300
                  95090289.983 5  22855016.180                    22855017.676
                        35.600
 108604651.704 7  84627013.15945  20666778.445                    20666780.781
        46.900          32.200
 123244545.672 6  96034739.70944  23452657.984                    23452664.527
        41.600          28.200
 120965546.047 7  94258881.82445  23018978.375                    23018984.895
        45.600          33.000
 115375874.012 7  89903304.92346  21955299.047                    21955305.078
        46.400          38.300
 117463799.842 7  91530257.20545  22352619.031                    22352624.141
        42.800          31.700
 117153230.803 8  91288243.50846  22293518.516                    22293521.746
        49.100          37.500
 125725539.640 7  97967983.87144  23924776.555                    23924783.859
        42.500          26.200
 117569272.538 7  91612430.10545  22372686.953                    22372690.758
        43.700          31.800
 18  3 13 14 41 46.0000000  0 19R01G19G22G25R08R10R09R16R17R18R19G12
                                G06G03G32G24G17G01G14
                  86386000.034 6  20777517.797                    20777522.383
                        37.900
 111523998.917 7  86902023.94245  21222359.477                    21222361.031
        45.800          34.400
 121132434.746 7  94388899.82744  23050735.719                    23050732.180
        43.600          28.000
 121505444.106 8  94679630.74745  23121729.727                    23121734.539
        48.300          31.400
                  87418843.727 6  20989100.438                    20989100.898
                        41.400
                  90722150.555 6  21881884.008                    21881890.137
                        40.800
                  80212384.810 6  19312975.391                    19312975.402
                        41.300
                  88565127.026 6  21316600.719                    21316603.094
                        36.500
                  86893415.231 6  20877574.086                    20877576.613
                        40.700
                  82716481.878 6  19922895.039                    19922896.254
                        39.500
                  95087086.898 6  22854246.844                    22854248.617
                        36.400
 108603657.296 7  84626238.30545  20666588.906                    20666591.813
        46.800          31.500
 123241759.270 6  96032568.49344  23452127.391                    23452134.336
        41.800          29.600
 120964106.104 7  94257759.80145  23018704.266                    23018710.668
        45.600          33.300
 115376890.959 7  89904097.35646  21955492.164                    21955498.176
        46.800          38.700
 117467197.816 7  91532904.98145  22353265.273                    22353270.961
        42.800          31.400
 117155538.728 8  91290041.89146  22293957.547                    22293960.383
        49.200          36.900
 125729118.919 7  97970772.91744  23925457.500                    23925464.625
        42.400          26.200
 117568273.769 7  91611651.85245  22372497.523                    22372500.637
        44.600          32.100
 18  3 13 14 41 47.0000000  0 19R01G19G22G25R08R10R09R16R17R18R19G12
                                G06G03G32G24G17G01G14
                  86385183.212 6  20777321.125                    20777325.391
                        37.700
 111525144.672 7  86902916.72845  21222577.773                    21222578.871
        46.000          34.900
 121132463.587 7  94388922.29444  23050741.242                    23050737.867
        43.800          28.200
 121502284.710 8  94677168.84845  23121127.867                    23121133.152
        48.200          30.900
                  87421030.247 6  20989625.031                    20989626.039
                        41.600
                  90719323.979 6  21881202.258                    21881208.570
                        40.400
                  80212399.855 6  19312979.398                    19312979.289
                        41.500
                  88568405.525 6  21317389.555                    21317391.988
                        36.600
                  86895900.506 6  20878171.602                    20878173.688
                        41.000
                  82715695.799 6  19922706.281                    19922707.672
                        39.200
                  95083884.040 6  22853476.867                    22853478.785
                        36.100
 108602663.565 7  84625463.97945  20666399.906                    20666402.676
        46.300          31.800
 123238973.279 6  96030397.60244  23451597.211                    23451604.359
        41.800          28.800
 120962666.788 7  94256638.26445  23018430.344                    23018436.734
        45.500          33.800
 115377908.584 7  89904890.32446  21955685.984                    21955692.172
        47.300          38.900
 117470596.229 7  91535553.09945  22353912.492                    22353917.445
        43.200          30.400
 117157847.220 8  91291840.71846  22294395.977                    22294400.008
        49.100          37.200
 125732698.600 7  97973562.28544  23926138.633                    23926146.172
        42.500          26.400
 117567275.614 7  91610874.08545  22372308.734                    22372310.883
        46.000          32.300
 18  3 13 14 41 48.0000000  0 19R01G19G22G25R08R10R09R16R17R18R19G12
                                G06G03G32G24G17G01G14
                  86384367.090 6  20777125.727                    20777129.375
                        37.600
 111526291.193 7  86903810.10945  21222796.000                    21222796.996
        46.300          34.800
 121132493.031 7  94388945.23444  23050746.672                    23050743.227
        44.200          29.000
 121499125.647 7  94674707.21145  23120526.758                    23120531.867
        47.400          31.100
                  87423217.432 6  20990149.500                    20990151.051
                        41.600
                  90716497.705 6  21880521.852                    21880526.855
                        40.000
                  80212415.556 6  19312983.867                    19312983.289
                        41.200
                  88571684.311 6  21318180.430                    21318181.074
                        36.200
                  86898386.362 6  20878768.938                    20878771.043
                        41.300
                  82714910.398 6  19922516.844                    19922518.109
                        39.400
                  95080681.406 5  22852707.438                    22852708.172
                        35.600
 108601670.513 7  84624690.17645  20666210.789                    20666213.832
        46.000          31.600
 123236187.666 7  96028227.00444  23451068.117                    23451074.094
        42.600          28.600
 120961228.110 7  94255517.23045  23018157.086                    23018162.887
        46.000          33.700
 115378926.928 7  89905683.84946  21955879.789                    21955885.863
        47.300          38.300
 117473995.075 7  91538201.55345  22354558.102                    22354564.109
        43.400          31.200
 117160156.253 8  91293639.96846  22294835.820                    22294839.199
        49.100          37.400
 125736278.714 7  97976351.97544  23926820.039                    23926827.250
        42.600          26.400
 117566278.102 7  91610096.80045  22372118.883                    22372120.953
        46.800          32.000
 18  3 13 14 41 49.0000000  0 19R01G19G22G25R08R10R09R16R17R18R19G12
                                G06G03G32G24G17G01G14
                  86383551.684 6  20776929.844                    20776933.043
                        37.700
 111527438.452 7  86904704.06345  21223014.227                    21223015.621
        46.500          34.300
 121132523.135 7  94388968.68544  23050752.055                    23050749.074
        44.300          28.500
 121495966.909 7  94672245.84845  23119924.406                    23119931.207
        45.900          30.800
                  87425405.228 6  20990674.961                    20990677.109
                        41.600
                  90713671.715 6  21879841.328                    21879844.707
                        40.000
                  80212431.884 6  19312987.047                    19312986.785
                        41.400
                  88574963.480 6  21318969.281                    21318970.676
                        36.200
                  86900872.792 6  20879366.039                    20879368.184
                        40.800
                  82714125.682 6  19922327.594                    19922329.520
                        39.600
                  95077478.978 5  22851937.141                    22851938.793
                        35.000
 108600678.124 7  84623916.89445  20666022.258                    20666024.402
        46.000          31.700
 123233402.399 7  96026056.66744  23450537.898                    23450544.172
        42.900          29.300
 120959789.998 7  94254396.63245  23017883.297                    23017889.566
        45.800          33.900
 115379945.961 7  89906477.90446  21956073.039                    21956079.203
        47.300          38.400
 117477394.324 7  91540850.31945  22355205.000                    22355211.176
        43.600          31.300
 117162465.808 8  91295439.61546  22295274.969                    22295278.902
        49.100          37.100
 125739859.211 7  97979141.97844  23927501.594                    23927508.414
        42.300          26.900
 117565281.165 7  91609319.95645  22371928.617                    22371931.465
        46.400          31.600
 18  3 13 14 41 50.0000000  0 19R01G19G22G25R08R10R09R16R17R18R19G12
                                G06G03G32G24G17G01G14
                  86382736.992 6  20776734.242                    20776737.520
                        37.100
 111528586.495 7  86905598.63145  21223232.781                    21223234.391
        46.400          34.500
 121132553.900 7  94388992.65644  23050757.742                    23050754.879
        44.900          28.900
 121492808.484 7  94669784.74545  23119323.086                    23119330.176
        43.900          31.000
                  87427593.664 6  20991200.344                    20991202.082
                        41.900
                  90710845.983 6  21879158.875                    21879163.344
                        40.000
                  80212448.896 6  19312990.836                    19312991.082
                        41.400
                  88578243.003 6  21319758.391                    21319759.664
                        36.100
                  86903359.803 6  20879963.078                    20879965.844
                        41.200
                  82713341.696 6  19922138.523                    19922140.926
                        39.100
                  95074276.765 5  22851167.250                    22851168.625
                        33.800
 108599686.479 7  84623144.19245  20665833.750                    20665836.086
        46.800          31.200
 123230617.464 7  96023886.58044  23450007.703                    23450014.219
        43.600          29.200
 120958352.532 7  94253276.52345  23017609.898                    23017615.211
        46.100          33.700
 115380965.694 7  89907272.51246  21956267.438                    21956273.785
        47.700          38.300
 117480794.013 7  91543499.43245  22355851.805                    22355858.270
        43.900          31.100
 117164775.938 8  91297239.70146  22295714.766                    22295718.047
        48.600          37.400
 125743440.151 7  97981932.32644  23928182.719                    23928189.898
        42.700          26.300
 117564284.868 7  91608543.59345  22371738.070                    22371741.816
        45.100          31.900
 18  3 13 14 41 51.0000000  0 19R01G19G22G25R08R10R09R16R17R18R19G12
                                G06G03G32G24G17G01G14
                  86381923.001 6  20776537.703                    20776541.289
                        37.000
 111529735.312 7  86906493.80945  21223451.195                    21223452.734
        46.600          34.400
 121132585.294 7  94389017.11644  23050763.852                    23050760.594
        45.200          28.600
 121489650.364 7  94667323.89644  23118722.063                    23118729.727
        42.300          29.800
                  87429782.711 6  20991726.313                    20991727.383
                        41.300
                  90708020.551 6  21878476.539                    21878482.094
                        40.100
                  80212466.558 6  19312995.141                    19312995.313
                        41.500
                  88581522.867 6  21320548.125                    21320549.484
                        36.400
                  86905847.364 6  20880561.453                    20880563.750
                        41.300
                  82712558.413 6  19921950.422                    19921951.566
                        39.100
                  95071074.717 5  22850398.742                    22850398.535
                        34.400
 108598695.469 7  84622371.97645  20665645.266                    20665647.352
        47.200          31.300
 123227832.972 7  96021716.82444  23449477.984                    23449484.316
        43.500          29.700
 120956915.694 7  94252156.91345  23017336.859                    23017342.047
        46.600          33.500
 115381986.158 7  89908067.67946  21956461.453                    21956467.887
        47.700          38.500
 117484194.142 7  91546148.88545  22356499.188                    22356505.648
        44.200          31.400
 117167086.613 8  91299040.21346  22296154.664                    22296157.996
        48.700          36.900
 125747021.494 7  97984722.97944  23928864.781                    23928871.703
        42.900          27.200
 117563289.141 7  91607767.68845  22371547.758                    22371552.305
        43.700          31.500
 18  3 13 14 41 52.0000000  0 19R01G19G22G25R08R10R09R16R17R18R19G12
                                G06G03G32G24G17G01G14
                  86381109.725 6  20776342.289                    20776345.902
                        36.900
 111530884.904 7  86907389.58945  21223669.945                    21223671.625
        47.100          34.800
 121132617.409 7  94389042.14644  23050769.969                    23050767.223
        44.800          28.700
 121486492.594 7  94664863.33645  23118121.875                    23118128.711
        42.200          30.100
                  87431972.413 6  20992252.133                    20992253.250
                        41.400
                  90705195.409 6  21877795.891                    21877801.023
                        40.500
                  80212484.933 6  19312999.477                    19312999.918
                        41.200
                  88584803.104 6  21321336.977                    21321338.695
                        36.400
                  86908335.493 6  20881158.891                    20881160.559
                        41.100
                  82711775.894 6  19921761.359                    19921763.809
                        39.400
                  95067872.901 5  22849629.859                    22849628.883
                        34.600
 108597705.165 7  84621600.30245  20665456.211                    20665458.887
        47.300          30.900
 123225048.860 7  96019547.35644  23448947.664                    23448954.320
        43.700          29.600
 120955479.494 7  94251037.79445  23017063.453                    23017068.480
        46.700          33.400
 115383007.367 8  89908863.43446  21956656.250                    21956662.391
        48.100          37.700
 117487594.717 7  91548798.68945  22357145.344                    22357151.957
        43.600          30.900
 117169397.830 8  91300841.14646  22296595.438                    22296597.617
        49.900          37.500
 125750603.273 7  97987513.97744  23929545.758                    23929553.363
        42.900          26.900
 117562294.063 7  91606992.31345  22371358.055                    22371362.512
        43.300          31.300
 18  3 13 14 41 53.0000000  0 19R01G19G22G25R08R10R09R16R17R18R19G12
                                G06G03G32G24G17G01G14
                  86380297.120 6  20776146.070                    20776150.281
                        36.700
 111532035.226 7  86908285.93645  21223888.555                    21223890.594
        47.200          35.100
 121132650.087 7  94389067.60744  23050775.734                    23050773.324
        44.000          28.600
 121483335.116 7  94662403.02445  23117521.852                    23117527.742
        43.800          30.900
                  87434162.696 7  20992778.117                    20992778.695
                        42.300
                  90702370.519 6  21877113.383                    21877119.168
                        40.200
                  80212503.950 6  19313004.328                    19313004.625
                        40.900
                  88588083.683 6  21322126.641                    21322127.773
                        36.900
                  86910824.166 6  20881756.891                    20881758.945
                        40.900
                  82710994.047 6  19921573.844                    19921575.234
                        39.100
                  95064671.302 5  22848860.281                    22848859.480
                        34.500
 108596715.511 7  84620829.14445  20665268.172                    20665270.754
        47.500          31.200
 123222265.083 7  96017378.16344  23448418.141                    23448424.516
        44.000          29.600
 120954043.856 7  94249919.11145  23016790.617                    23016795.004
        46.700          33.500
 115384029.230 7  89909659.69546  21956850.578                    21956856.840
        47.900          38.000
 117490995.659 7  91551448.77545  22357792.516                    22357799.578
        42.000          30.200
 117171709.553 8  91302642.47946  22297034.578                    22297038.223
        49.600          36.600
 125754185.402 7  97990305.24244  23930227.977                    23930234.809
        42.800          28.400
 117561299.563 7  91606217.41145  22371170.188                    22371173.695
        44.700          32.100
 18  3 13 14 41 54.0000000  0 19R01G19G22G25R08R10R09R16R17R18R19G12
                                G06G03G32G24G17G01G14
                  86379485.170 6  20775950.867                    20775954.727
                        37.000
 111533186.263 7  86909182.83445  21224108.148                    21224109.594
        47.300          34.700
 121132683.405 7  94389093.58044  23050782.414                    23050779.676
        43.600          29.400
 121480177.945 7  94659942.92644  23116921.852                    23116926.906
        45.500          29.900
                  87436353.569 6  20993303.750                    20993305.285
                        41.900
                  90699545.864 6  21876432.031                    21876437.746
                        40.200
                  80212523.608 6  19313009.086                    19313008.848
                        41.300
                  88591364.508 6  21322916.828                    21322917.973
                        36.400
                  86913313.396 6  20882355.672                    20882356.730
                        40.800
                  82710212.878 6  19921385.367                    19921387.102
                        39.000
                  95061469.869 5  22848091.445                    22848089.332
                        35.200
 108595726.512 7  84620058.49845  20665079.898                    20665082.199
        47.200          31.400
 123219481.672 7  96015209.26444  23447889.219                    23447895.266
        44.400          28.800
 120952608.792 7  94248800.87245  23016517.125                    23016522.004
        46.700          33.700
 115385051.758 7  89910456.47946  21957045.117                    21957051.398
        47.600          37.900
 117494397.013 6  91554099.16545  22358440.063                    22358446.336
        41.500          30.600
 117174021.762 8  91304444.19846  22297474.516                    22297477.840
        49.200          36.600
 125757767.911 7  97993096.80544  23930909.930                    23930916.219
        43.100          28.300
 117560305.642 7  91605442.95045  22370981.953                    22370984.457
        45.600          31.500
 18  3 13 14 41 55.0000000  0 19R01G19G22G25R08R10R09R16R17R18R19G12
                                G06G03G32G24G17G01G14
                  86378673.995 6  20775755.414                    20775759.063
                        37.100
 111534338.141 7  86910080.38845  21224327.164                    21224328.656
        47.600          34.200
 121132717.405 7  94389120.07044  23050788.781                    23050785.816
        43.900          27.600
 121477021.209 7  94657483.14645  23116321.414                    23116326.453
        46.700          30.600
                  87438545.112 6  20993829.922                    20993831.121
                        41.500
                  90696721.592 6  21875751.336                    21875756.711
                        40.400
                  80212543.989 6  19313013.805                    19313014.273
                        41.200
                  88594645.766 6  21323705.859                    21323707.570
                        36.300
                  86915803.246 6  20882953.656                    20882954.586
                        40.500
                  82709432.460 6  19921197.422                    19921198.582
                        39.000
                  95058268.735 5  22847321.656                    22847320.551
                        34.800
 108594738.265 7  84619288.44245  20664892.086                    20664894.168
        47.000          31.500
 123216698.669 7  96013040.67444  23447359.508                    23447365.859
        43.800          28.600
 120951174.429 7  94247683.18145  23016244.156                    23016248.730
        47.300          33.300
 115386075.069 7  89911253.87546  21957239.758                    21957246.129
        47.800          38.400
 117497798.871 7  91556749.93845  22359087.930                    22359093.855
        42.600          30.700
 117176334.596 8  91306246.40646  22297914.773                    22297918.199
        49.200          36.400
 125761350.935 7  97995888.76044  23931591.344                    23931598.281
        43.400          28.000
 117559312.385 7  91604668.98545  22370792.680                    22370794.965
        45.500          32.200
 18  3 13 14 41 56.0000000  0 19R01G19G22G25R08R10R09R16R17R18R19G12
                                G06G03G32G24G17G01G14
                  86377863.462 6  20775560.203                    20775564.434
                        36.900
 111535490.698 8  86910978.47145  21224546.898                    21224547.602
        48.300          34.300
 121132752.018 7  94389147.04144  23050795.055                    23050792.891
        43.600          28.500
 121473864.724 7  94655023.54545  23115720.430                    23115726.035
        47.600          31.500
                  87440737.222 7  20994356.656                    20994357.809
                        42.100
                  90693897.538 6  21875071.391                    21875075.770
                        40.400
                  80212564.972 6  19313018.641                    19313018.945
                        41.400
                  88597927.321 6  21324496.023                    21324497.609
                        36.200
                  86918293.595 6  20883551.273                    20883552.848
                        40.300
                  82708652.655 6  19921009.289                    19921011.496
                        38.500
                  95055067.750 5  22846552.070                    22846550.477
                        35.300
 108593750.621 7  84618518.84845  20664704.109                    20664706.477
        46.800          31.100
 123213915.928 7  96010872.27144  23446829.844                    23446836.219
        43.400          28.400
 120949740.614 7  94246565.92045  23015971.219                    23015975.781
        47.500          33.400
 115387099.005 8  89912051.76046  21957434.094                    21957440.930
        48.100          38.800
 117501201.086 7  91559400.99545  22359736.570                    22359741.070
        43.900          30.900
 117178647.909 8  91308048.99046  22298354.867                    22298358.000
        49.100          36.300
 125764934.274 7  97998680.97144  23932273.188                    23932280.250
        43.700          29.100
 117558319.680 7  91603895.43545  22370603.398                    22370606.422
        44.900          31.500
 18  3 13 14 41 57.0000000  0 19R01G19G22G25R08R10R09R16R17R18R19G12
                                G06G03G32G24G17G01G14
                  86377053.688 6  20775365.508                    20775369.563
                        37.000
 111536644.083 8  86911877.20345  21224766.258                    21224767.250
        48.000          34.400
 121132787.329 7  94389174.56044  23050801.852                    23050799.309
        43.500          29.100
 121470708.628 8  94652564.22345  23115119.719                    23115125.102
        48.000          31.100
                  87442930.001 7  20994882.703                    20994884.512
                        42.200
                  90691073.803 6  21874389.781                    21874394.305
                        40.400
                  80212586.648 6  19313024.586                    19313023.766
                        41.400
                  88601209.240 6  21325286.406                    21325286.750
                        36.700
                  86920784.518 6  20884150.328                    20884151.555
                        40.700
                  82707873.655 6  19920821.711                    19920823.281
                        39.200
                  95051866.994 5  22845782.367                    22845781.582
                        35.300
 108592763.701 7  84617749.82045  20664516.078                    20664518.629
        46.900          31.100
 123211133.619 7  96008704.19544  23446300.086                    23446306.477
        43.000          28.600
 120948307.475 7  94245449.18045  23015698.430                    23015702.914
        47.200          33.000
 115388123.671 8  89912850.20646  21957629.297                    21957635.902
        48.400          38.700
 117504603.780 7  91562052.44745  22360384.422                    22360388.844
        44.700          31.200
 117180961.784 8  91309852.01146  22298794.656                    22298798.621
        48.300          36.500
 125768518.068 7  98001473.54044  23932955.000                    23932962.387
        43.500          28.600
 117557327.614 7  91603122.37945  22370414.039                    22370417.426
        44.800          31.700
 18  3 13 14 41 58.0000000  0 19R01G19G22G25R08R10R09R16R17R18R19G12
                                G06G03G32G24G17G01G14
                  86376244.576 6  20775171.992                    20775174.434
                        36.500
 111537798.203 8  86912776.51445  21224985.867                    21224986.934
        48.100          33.900
 121132823.240 7  94389202.54444  23050808.852                    23050806.270
        43.900          28.600
 121467552.843 7  94650105.14345  23114518.594                    23114524.867
        47.500          31.200
                  87445123.377 7  20995409.953                    20995410.918
                        42.000
                  90688250.293 6  21873707.063                    21873712.957
                        40.200
                  80212608.996 6  19313028.859                    19313029.656
                        41.600
                  88604491.513 6  21326076.250                    21326077.922
                        36.100
                  86923275.991 6  20884749.281                    20884750.070
                        40.900
                  82707095.331 6  19920634.125                    19920636.406
                        38.800
                  95048666.443 6  22845012.938                    22845012.938
                        36.100
 108591777.413 7  84616981.28345  20664328.477                    20664330.906
        46.700          31.200
 123208351.652 7  96006536.36544  23445771.375                    23445777.320
        44.100          29.300
 120946874.902 7  94244332.88845  23015425.852                    23015430.070
        47.500          33.300
 115389149.037 8  89913649.20146  21957824.391                    21957830.871
        48.700          39.000
 117508006.831 7  91564704.20345  22361032.703                    22361036.789
        43.900          30.900
 117183276.193 8  91311655.43746  22299235.570                    22299238.875
        48.300          37.100
 125772102.269 7  98004266.42944  23933637.305                    23933644.359
        43.800          28.600
 117556336.140 7  91602349.79045  22370225.430                    22370229.355
        45.100          31.500
 18  3 13 14 41 59.0000000  0 19R01G19G22G25R08R10R09R16R17R18R19G12
                                G06G03G32G24G17G01G14
                  86375436.233 6  20774977.430                    20774980.410
                        37.000
 111538953.108 8  86913676.43845  21225205.375                    21225206.848
        48.100          33.600
 121132859.862 7  94389231.07844  23050815.930                    23050813.258
        43.500          29.300
 121464397.442 7  94647646.36445  23113918.133                    23113924.527
        46.800          30.500
                  87447317.395 6  20995936.234                    20995937.719
                        41.900
                  90685427.106 6  21873027.313                    21873032.387
                        40.000
                  80212632.050 6  19313035.125                    19313035.074
                        41.700
                  88607774.185 6  21326865.805                    21326867.652
                        36.000
                  86925768.076 6  20885347.547                    20885349.270
                        41.200
                  82706317.774 6  19920447.406                    19920448.910
                        39.100
                  95045466.181 6  22844243.133                    22844243.805
                        36.500
 108590791.864 7  84616213.32845  20664141.227                    20664143.391
        47.200          31.800
 123205570.118 7  96004368.87544  23445241.422                    23445248.246
        43.300          28.700
 120945443.000 7  94243217.11845  23015154.039                    23015157.898
        47.400          33.000
 115390175.143 8  89914448.76546  21958020.086                    21958026.094
        48.500          38.500
 117511410.349 7  91567356.32545  22361679.273                    22361684.656
        43.500          31.600
 117185591.194 8  91313459.32946  22299676.195                    22299679.668
        48.100          36.400
 125775686.912 7  98007059.65844  23934320.016                    23934326.602
        43.800          29.500
 117555345.337 7  91601577.73745  22370037.672                    22370040.504
        45.800          32.300
 18  3 13 14 42  0.0000000  0 19R01G19G22G25R08R10R09R16R17R18R19G12
                                G06G03G32G24G17G01G14
                  86374628.583 6  20774783.359                    20774786.145
                        37.300
 111540108.771 8  86914576.95045  21225425.250                    21225426.680
        48.200          33.500
 121132897.133 7  94389260.10844  23050823.172                    23050820.582
        43.800          29.000
 121461242.348 7  94645187.83244  23113316.656                    23113323.809
        45.400          29.800
                  87449512.043 7  20996462.141                    20996464.715
                        42.100
                  90682604.240 6  21872347.930                    21872351.133
                        40.000
                  80212655.763 6  19313041.047                    19313040.598
                        41.800
                  88611057.141 5  21327655.984                    21327657.691
                        35.900
                  86928260.734 6  20885946.578                    20885947.793
                        41.000
                  82705540.913 6  19920260.078                    19920261.313
                        39.000
                  95042266.116 6  22843474.094                    22843475.340
                        36.000
 108589806.992 7  84615445.89545  20663953.617                    20663956.109
        47.500          31.500
 123202789.021 7  96002201.72844  23444711.508                    23444719.086
        42.800          28.600
 120944011.714 7  94242101.82145  23014881.336                    23014885.379
        47.500          33.600
 115391201.939 8  89915248.86546  21958215.211                    21958221.629
        48.700          38.400
 117514814.314 7  91570008.80345  22362326.195                    22362332.094
        43.400          32.000
 117187906.725 7  91315263.63346  22300116.266                    22300120.668
        47.500          36.600
 125779271.936 7  98009853.18444  23935001.313                    23935008.785
        43.900          29.200
 117554355.137 7  91600806.16045  22369848.961                    22369851.902
        46.100          31.900
 18  3 13 14 42  1.0000000  0 19R01G19G22G25R08R10R09R16R17R18R19G12
                                G06G03G32G24G17G01G14
                  86373821.654 6  20774589.430                    20774592.063
                        37.500
 111541265.232 8  86915478.08045  21225645.406                    21225646.645
        48.100          34.500
 121132935.063 7  94389289.66044  23050830.195                    23050828.168
        43.800          28.900
 121458087.573 7  94642729.56844  23112716.180                    23112722.938
        43.900          29.800
                  87451707.289 7  20996989.922                    20996991.449
                        42.300
                  90679781.647 6  21871667.320                    21871671.074
                        40.000
                  80212680.143 6  19313046.766                    19313046.285
                        41.700
                  88614340.470 6  21328446.070                    21328448.246
                        36.300
                  86930753.951 6  20886545.219                    20886546.984
                        41.400
                  82704764.764 6  19920072.547                    19920074.473
                        38.900
                  95039066.288 5  22842705.063                    22842705.984
                        35.800
 108588822.813 7  84614678.99845  20663766.664                    20663769.066
        47.400          31.400
 123200008.310 7  96000034.90744  23444182.641                    23444189.652
        42.600          29.300
 120942581.078 7  94240987.03145  23014609.547                    23014613.242
        47.600          33.000
 115392229.468 8  89916049.53846  21958411.000                    21958416.949
        48.600          38.400
 117518218.794 7  91572661.67045  22362973.211                    22362979.871
        42.600          31.600
 117190222.838 8  91317068.38946  22300556.953                    22300560.797
        48.100          36.500
 125782857.418 7  98012647.06844  23935683.922                    23935691.270
        44.100          28.400
 117553365.590 7  91600035.08145  22369660.945                    22369664.145
        45.700          31.800
 18  3 13 14 42  2.0000000  0 19R01G19G22G25R08R10R09R16R17R18R19G12
                                G06G03G32G24G17G01G14
                  86373015.367 6  20774395.992                    20774398.270
                        37.200
 111542422.371 8  86916379.73945  21225865.492                    21225866.910
        48.300          33.900
 121132973.558 7  94389319.65344  23050837.430                    23050835.863
        44.100          28.900
 121454933.056 7  94640271.51144  23112115.516                    23112122.813
        42.900          29.600
                  87453903.123 6  20997517.188                    20997518.863
                        41.600
                  90676959.232 6  21870982.914                    21870989.613
                        40.200
                  80212705.138 6  19313053.148                    19313053.059
                        41.600
                  88617624.057 6  21329236.758                    21329237.793
                        36.500
                  86933247.653 6  20887144.570                    20887146.508
                        41.600
                  82703989.264 6  19919886.297                    19919887.273
                        39.600
                  95035866.597 5  22841935.875                    22841937.258
                        35.600
 108587839.224 7  84613912.56345  20663579.070                    20663581.410
        47.600          31.200
 123197227.941 7  95997868.40044  23443653.414                    23443661.148
        42.400          28.100
 120941150.981 7  94239872.67145  23014337.008                    23014340.707
        47.300          32.300
 115393257.640 8  89916850.71446  21958606.656                    21958612.910
        48.900          38.300
 117521623.642 6  91575314.82145  22363620.000                    22363627.926
        41.200          31.100
 117192539.398 8  91318873.48346  22300998.953                    22301001.719
        49.600          37.100
 125786443.223 7  98015441.20144  23936366.453                    23936373.527
        44.200          28.800
 117552376.549 7  91599264.38745  22369472.219                    22369475.617
        45.500          31.700
 18  3 13 14 42  3.0000000  0 19R01G19G22G25R08R10R09R16R17R18R19G12
                                G06G03G32G24G17G01G14
                  86372209.788 6  20774202.336                    20774204.398
                        36.900
 111543580.323 8  86917282.02545  21226085.945                    21226087.559
        48.000          35.000
 121133012.715 7  94389350.16144  23050845.125                    23050843.164
        44.300          29.200
 121451778.885 7  94637813.73144  23111516.055                    23111522.320
        42.500          29.700
                  87456099.584 6  20998045.125                    20998045.867
                        41.400
                  90674137.204 6  21870304.906                    21870308.863
                        40.200
                  80212730.836 6  19313058.875                    19313058.957
                        41.300
                  88620907.999 6  21330027.320                    21330028.188
                        36.600
                  86935741.914 6  20887743.977                    20887745.793
                        41.400
                  82703214.475 6  19919699.523                    19919701.445
                        39.500
                  95032667.141 5  22841166.828                    22841168.414
                        35.000
 108586856.378 7  84613146.70845  20663391.703                    20663394.441
        47.100          32.100
 123194448.020 7  95995702.26644  23443124.625                    23443131.543
        42.700          28.600
 120939721.521 7  94238758.80245  23014064.750                    23014068.684
        47.500          33.200
 115394286.547 8  89917652.46246  21958802.570                    21958808.371
        48.600          38.600
 117525028.939 6  91577968.30345  22364268.484                    22364276.152
        40.900          31.900
 117194856.538 8  91320679.04746  22301439.461                    22301442.719
        49.800          37.700
 125790029.473 7  98018235.67944  23937049.164                    23937055.891
        44.100          29.400
 117551388.158 7  91598494.21745  22369283.438                    22369287.523
        45.300          31.600
 18  3 13 14 42  4.0000000  0 19R01G19G22G25R08R10R09R16R17R18R19G12
                                G06G03G32G24G17G01G14
                  86371404.917 6  20774008.727                    20774011.305
                        37.100
 111544738.990 8  86918184.86945  21226306.609                    21226308.109
        48.100          34.400
 121133052.517 7  94389381.17544  23050853.000                    23050850.895
        44.100          28.700
 121448625.012 7  94635356.19745  23110916.188                    23110921.996
        43.400          30.400
                  87458296.678 7  20998573.273                    20998573.367
                        42.000
                  90671315.431 6  21869626.141                    21869628.477
                        40.400
                  80212757.222 6  19313065.164                    19313065.480
                        41.600
                  88624192.340 6  21330817.758                    21330819.074
                        36.200
                  86938236.740 6  20888342.922                    20888345.145
                        40.700
                  82702440.383 6  19919512.148                    19919514.617
                        39.400
                  95029467.863 6  22840397.648                    22840399.043
                        36.100
 108585874.151 7  84612381.34645  20663205.250                    20663207.691
        47.300          31.800
 123191668.482 7  95993536.44744  23442596.305                    23442603.012
        43.000          29.500
 120938292.673 7  94237645.40845  23013792.656                    23013796.859
        47.300          32.200
 115395316.123 7  89918454.72946  21958998.531                    21959004.328
        47.900          38.400
 117528434.629 6  91580622.07545  22364917.203                    22364923.668
        41.600          31.400
 117197174.180 8  91322485.00246  22301880.750                    22301883.684
        49.300          37.900
 125793616.087 7  98021030.44444  23937731.328                    23937738.219
        44.100          28.700
 117550400.354 7  91597724.50945  22369096.266                    22369099.711
        45.600          31.800
 18  3 13 14 42  5.0000000  0 19R01G19G22G25R08R10R09R16R17R18R19G12
                                G06G03G32G24G17G01G14
                  86370600.745 6  20773813.914                    20773818.023
                        37.300
 111545898.394 7  86919088.28745  21226527.844                    21226528.723
        47.600          34.000
 121133092.963 7  94389412.68844  23050860.109                    23050859.113
        44.400          29.200
 121445471.456 7  94632898.90644  23110317.234                    23110321.723
        44.500          29.900
                  87460494.359 6  20999101.305                    20999101.719
                        41.600
                  90668493.857 6  21868942.195                    21868948.523
                        40.000
                  80212784.262 6  19313071.977                    19313072.012
                        41.200
                  88627476.994 6  21331608.844                    21331610.078
                        36.300
                  86940732.126 6  20888943.094                    20888944.766
                        41.200
                  82701666.970 6  19919326.180                    19919328.242
                        39.600
                  95026268.803 5  22839629.805                    22839630.328
                        35.800
 108584892.603 7  84611616.50545  20663018.656                    20663021.254
        47.200          31.600
 123188889.317 7  95991370.91344  23442068.445                    23442073.926
        43.800          29.900
 120936864.422 7  94236532.48045  23013520.672                    23013524.680
        47.000          33.100
 115396346.394 8  89919257.54246  21959194.453                    21959200.375
        48.000          38.700
 117531840.673 7  91583276.11045  22365566.688                    22365571.750
        43.100          31.400
 117199492.340 8  91324291.36246  22302321.523                    22302324.859
        49.300          37.000
 125797203.110 7  98023825.52444  23938414.055                    23938420.816
        44.100          29.100
 117549413.121 7  91596955.25045  22368908.867                    22368911.746
        45.900          31.000
 18  3 13 14 42  6.0000000  0 19R01G19G22G25R08R10R09R16R17R18R19G12
                                G06G03G32G24G17G01G14
                  86369797.215 6  20773620.922                    20773624.590
                        36.800
 111547058.528 8  86919992.27745  21226748.391                    21226749.672
        48.100          34.800
 121133133.966 7  94389444.62444  23050868.188                    23050867.043
        44.400          29.500
 121442318.194 7  94630441.82345  23109717.758                    23109722.078
        46.000          30.800
                  87462692.616 6  20999629.234                    20999629.520
                        41.800
                  90665672.529 6  21868260.820                    21868267.371
                        39.900
                  80212811.892 6  19313078.852                    19313078.574
                        41.400
                  88630762.007 6  21332399.180                    21332400.461
                        36.400
                  86943228.055 6  20889542.305                    20889544.586
                        41.100
                  82700894.234 6  19919140.242                    19919142.000
                        39.000
                  95023069.916 5  22838859.922                    22838860.523
                        35.000
 108583911.680 7  84610852.15645  20662832.063                    20662834.113
        47.300          31.500
 123186110.514 7  95989205.64644  23441538.938                    23441545.461
        43.500          29.700
 120935436.715 7  94235419.97845  23013249.609                    23013253.023
        46.900          33.200
 115397377.316 8  89920060.85846  21959390.586                    21959396.758
        48.200          38.800
 117535247.062 7  91585930.42345  22366215.102                    22366220.160
        44.000          31.600
 117201810.979 8  91326098.09546  22302763.516                    22302765.973
        49.300          37.300
 125800790.489 7  98026620.88444  23939096.797                    23939103.383
        43.900          29.100
 117548426.479 7  91596186.44045  22368720.984                    22368724.047
        45.900          31.700
 18  3 13 14 42  7.0000000  0 19R01G19G22G25R08R10R09R16R17R18R19G12
                                G06G03G32G24G17G01G14
                  86368994.393 6  20773428.109                    20773431.652
                        36.800
 111548219.437 8  86920896.88045  21226968.938                    21226970.617
        48.200          34.400
 121133175.627 7  94389477.09444  23050876.148                    23050875.203
        44.500          29.500
 121439165.293 7  94627985.01245  23109117.281                    23109122.137
        46.900          32.100
                  87464891.513 6  21000156.023                    21000156.801
                        41.800
                  90662851.561 6  21867583.383                    21867586.980
                        40.600
                  80212840.217 6  19313085.336                    19313085.199
                        41.200
                  88634047.362 6  21333190.203                    21333191.703
                        36.800
                  86945724.564 6  20890142.133                    20890144.051
                        41.100
                  82700122.207 6  19918954.578                    19918956.520
                        39.700
                  95019871.287 5  22838092.234                    22838092.824
                        34.900
 108582931.450 7  84610088.34445  20662645.039                    20662647.539
        47.300          31.400
 123183332.046 7  95987040.63744  23441009.313                    23441016.598
        43.200          29.300
 120934009.660 7  94234307.98645  23012977.609                    23012981.539
        46.700          33.400
 115398408.935 8  89920864.72146  21959586.977                    21959593.008
        48.200          38.400
 117538653.886 7  91588585.09645  22366863.219                    22366868.418
        43.900          31.900
 117204130.183 8  91327905.27446  22303203.406                    22303207.488
        48.900          36.600
 125804378.291 7  98029416.57044  23939779.391                    23939786.168
        44.100          28.600
 117547440.458 7  91595418.09745  22368532.914                    22368536.445
        44.900          32.200
 18  3 13 14 42  8.0000000  0 19R01G19G22G25R08R10R09R16R17R18R19G12
                                G06G03G32G24G17G01G14
                  86368192.277 6  20773235.078                    20773238.805
                        37.100
 111549381.063 8  86921802.04945  21227189.750                    21227191.496
        48.100          34.100
 121133217.941 7  94389510.06244  23050883.609                    23050883.078
        44.700          29.000
 121436012.714 7  94625528.43945  23108517.305                    23108522.574
        47.400          31.800
                  87467091.043 6  21000684.398                    21000685.828
                        41.400
                  90660030.807 6  21866902.977                    21866907.141
                        40.400
                  80212869.199 6  19313092.414                    19313092.273
                        41.400
                  88637333.038 6  21333981.961                    21333982.383
                        37.000
                  86948221.611 6  20890742.227                    20890744.445
                        41.200
                  82699350.850 6  19918768.672                    19918770.617
                        39.700
                  95016672.832 5  22837323.102                    22837323.227
                        33.800
 108581951.868 7  84609325.03045  20662458.578                    20662461.309
        47.000          31.700
 123180553.953 7  95984875.92144  23440481.047                    23440488.133
        43.300          29.600
 120932583.197 7  94233196.46045  23012706.422                    23012709.691
        46.600          33.100
 115399441.266 8  89921669.13946  21959782.969                    21959789.332
        48.800          38.300
 117542061.106 7  91591240.08745  22367511.984                    22367517.148
        44.400          31.600
 117206449.896 8  91329712.85146  22303645.555                    22303648.922
        49.000          37.100
 125807966.470 7  98032212.55244  23940462.102                    23940469.227
        44.000          28.300
 117546455.007 7  91594650.18945  22368344.297                    22368349.172
        43.600          31.500
 18  3 13 14 42  9.0000000  0 19R01G19G22G25R08R10R09R16R17R18R19G12
                                G06G03G32G24G17G01G14
                  86367390.863 6  20773042.234                    20773046.262
                        36.900
 111550543.490 8  86922707.83545  21227411.203                    21227412.785
        48.000          34.900
 121133260.896 7  94389543.53244  23050891.914                    23050891.293
        44.900          29.300
 121432860.491 7  94623072.13845  23107916.891                    23107922.719
        47.600          32.200
                  87469291.198 6  21001212.414                    21001213.172
                        41.600
                  90657210.306 6  21866220.156                    21866226.758
                        40.600
                  80212898.873 6  19313099.844                    19313099.508
                        41.400
                  88640619.094 6  21334771.828                    21334772.766
                        37.000
                  86950719.240 6  20891342.211                    20891344.074
                        40.600
                  82698580.223 6  19918583.141                    19918584.660
                        39.600
                  95013474.599 5  22836553.258                    22836553.887
                        34.600
 108580972.973 7  84608562.26145  20662272.422                    20662275.016
        46.400          32.000
 123177776.246 7  95982711.50444  23439952.336                    23439959.441
        43.200          29.100
 120931157.379 7  94232085.43945  23012434.727                    23012438.734
        46.400          33.300
 115400474.323 8  89922474.12846  21959980.039                    21959985.777
        48.700          38.400
 117545468.816 7  91593895.46545  22368159.414                    22368165.801
        44.300          31.100
 117208770.173 8  91331520.85546  22304086.617                    22304090.000
        48.800          37.300
 125811555.093 7  98035008.88044  23941145.094                    23941151.754
        44.400          29.600
 117545470.133 7  91593882.75545  22368157.195                    22368161.508
        43.000          32.100
 18  3 13 14 42 10.0000000  0 19R01G19G22G25R08R10R09R16R17R18R19G12
                                G06G03G32G24G17G01G14
                  86366590.164 6  20772849.625                    20772853.422
                        37.500
 111551706.679 7  86923614.20345  21227632.523                    21227633.707
        47.800          34.300
 121133304.479 7  94389577.49644  23050900.078                    23050899.906
        45.200          28.900
 121429708.574 7  94620616.09145  23107317.070                    23107323.027
        47.000          32.100
                  87471491.987 6  21001740.547                    21001741.789
                        41.900
                  90654390.169 6  21865540.922                    21865546.160
                        40.500
                  80212929.223 6  19313107.227                    19313106.777
                        41.400
                  88643905.447 6  21335562.711                    21335564.145
                        36.400
                  86953217.441 6  20891942.922                    20891944.266
                        40.700
                  82697810.275 6  19918397.695                    19918399.789
                        39.100
                  95010276.604 5  22835785.820                    22835785.621
                        34.700
 108579994.762 7  84607800.02145  20662086.297                    20662088.965
        47.000          31.300
 123174998.925 7  95980547.39644  23439423.555                    23439430.719
        43.000          28.700
 120929732.162 7  94230974.88345  23012163.711                    23012167.785
        46.400          33.300
 115401508.071 8  89923279.66446  21960176.781                    21960182.734
        48.600          38.100
 117548876.925 7  91596551.14245  22368808.242                    22368813.988
        44.300          31.400
 117211090.971 8  91333329.26246  22304528.867                    22304531.898
        48.900          37.200
 125815144.099 7  98037805.49944  23941827.586                    23941834.492
        44.400          28.900
 117544485.926 7  91593115.86745  22367970.914                    22367974.340
        44.600          31.500
 18  3 13 14 42 11.0000000  0 19R01G19G22G25R08R10R09R16R17R18R19G12
                                G06G03G32G24G17G01G14
                  86365790.157 6  20772657.375                    20772660.855
                        37.000
 111552870.612 7  86924521.15845  21227853.930                    21227855.527
        47.900          34.100
 121133348.716 7  94389611.96644  23050908.367                    23050908.230
        45.700          29.700
 121426556.965 7  94618160.28045  23106716.672                    23106723.645
        46.600          30.900
                  87473693.372 6  21002268.906                    21002270.559
                        41.700
                  90651570.325 6  21864863.117                    21864866.004
                        40.300
                  80212960.211 6  19313115.086                    19313114.219
                        41.200
                  88647192.158 6  21336354.867                    21336355.293
                        36.700
                  86955716.187 6  20892543.547                    20892545.070
                        40.600
                  82697041.020 6  19918211.945                    19918214.375
                        39.200
                  95007078.764 5  22835015.578                    22835016.723
                        35.400
 108579017.229 7  84607038.30145  20661900.383                    20661902.625
        46.500          32.300
 123172221.965 7  95978383.58244  23438895.688                    23438902.371
        43.600          28.400
 120928307.557 7  94229864.80045  23011892.484                    23011896.582
        46.300          33.100
 115402542.527 8  89924085.74846  21960373.242                    21960379.660
        48.500          38.600
 117552285.452 7  91599207.13845  22369456.195                    22369462.813
        43.800          31.900
 117213412.313 8  91335138.08846  22304969.930                    22304973.715
        48.900          37.200
 125818733.499 7  98040602.43444  23942511.039                    23942517.855
        44.100          28.700
 117543502.318 7  91592349.43745  22367785.078                    22367786.793
        46.500          32.100
 18  3 13 14 42 12.0000000  0 19R01G19G22G25R08R10R09R16R17R18R19G12
                                G06G03G32G24G17G01G14
                  86364990.807 6  20772464.789                    20772468.676
                        37.100
 111554035.263 8  86925428.67545  21228075.789                    21228077.309
        48.400          34.100
 121133393.571 7  94389646.92044  23050916.703                    23050917.086
        45.700          29.900
 121423405.621 7  94615704.68445  23106116.531                    23106123.699
        45.600          30.600
                  87475895.361 6  21002797.141                    21002798.906
                        41.700
                  90648750.707 6  21864180.766                    21864185.914
                        40.200
                  80212991.872 6  19313122.922                    19313122.297
                        41.100
                  88650479.212 6  21337145.750                    21337146.492
                        36.200
                  86958215.446 6  20893143.477                    20893145.219
                        40.700
                  82696272.447 6  19918027.227                    19918029.059
                        39.100
                  95003881.169 5  22834246.805                    22834248.691
                        35.200
 108578040.337 7  84606277.08945  20661714.273                    20661716.730
        46.500          32.200
 123169445.400 7  95976220.05944  23438367.820                    23438373.711
        43.800          28.700
 120926883.527 7  94228755.16345  23011621.195                    23011625.855
        46.200          32.100
 115403577.641 8  89924892.34446  21960570.430                    21960576.129
        48.700          38.300
 117555694.340 7  91601863.40645  22370105.188                    22370111.203
        44.300          31.300
 117215734.143 8  91336947.29646  22305412.445                    22305415.844
        49.300          36.800
 125822323.291 7  98043399.67044  23943194.047                    23943201.066
        43.900          28.900
 117542519.314 7  91591583.45445  22367597.953                    22367600.352
        46.700          32.300
 18  3 13 14 42 13.0000000  0 19R01G19G22G25R08R10R09R16R17R18R19G12
                                G06G03G32G24G17G01G14
                  86364192.217 6  20772273.078                    20772276.695
                        36.700
 111555200.708 8  86926336.80845  21228297.344                    21228298.996
        48.300          34.600
 121133439.096 7  94389682.39644  23050925.430                    23050925.637
        45.900          29.400
 121420254.674 7  94613249.40445  23105516.539                    23105524.430
        44.800          30.700
                  87478097.953 6  21003325.891                    21003327.762
                        41.800
                  90645931.352 6  21863499.898                    21863505.637
                        40.200
                  80213024.248 6  19313130.266                    19313129.621
                        41.300
                  88653766.631 6  21337935.805                    21337937.977
                        36.300
                  86960715.266 6  20893744.422                    20893746.344
                        40.600
                  82695504.579 6  19917843.336                    19917843.945
                        39.000
                  95000683.804 5  22833479.156                    22833479.656
                        35.200
 108577064.122 7  84605516.40545  20661528.133                    20661531.191
        46.600          31.500
 123166669.230 7  95974056.83744  23437838.625                    23437845.500
        43.000          28.600
 120925460.131 7  94227646.01845  23011350.625                    23011354.586
        46.500          32.300
 115404613.436 8  89925699.46046  21960767.578                    21960773.477
        48.600          38.600
 117559103.709 7  91604520.05145  22370754.039                    22370760.352
        44.200          31.900
 117218056.542 8  91338756.95546  22305853.805                    22305857.371
        49.000          36.900
 125825913.500 7  98046197.23844  23943877.328                    23943884.219
        43.800          28.000
 117541536.925 7  91590817.92445  22367410.109                    22367413.082
        46.700          32.300
 18  3 13 14 42 14.0000000  0 19R01G19G22G25R08R10R09R16R17R18R19G12
                                G06G03G32G24G17G01G14
                  86363394.252 6  20772081.336                    20772085.199
                        37.100
 111556366.826 7  86927245.47245  21228519.023                    21228520.539
        47.900          34.700
 121133485.188 7  94389718.31444  23050933.719                    23050934.063
        46.200          29.800
 121417103.930 7  94610794.28745  23104917.094                    23104924.320
        44.500          30.200
                  87480301.089 6  21003855.203                    21003856.488
                        41.000
                  90643112.304 6  21862821.945                    21862826.586
                        40.200
                  80213057.205 6  19313137.914                    19313137.738
                        41.300
                  88657054.317 6  21338727.820                    21338729.094
                        36.500
                  86963215.612 6  20894345.094                    20894346.953
                        40.800
                  82694737.356 6  19917657.398                    19917659.078
                        39.600
                  94997486.574 5  22832710.203                    22832711.438
                        35.200
 108576088.520 7  84604756.19145  20661342.859                    20661345.648
        47.000          31.600
 123163893.296 7  95971893.81044  23437309.367                    23437317.129
        42.200          29.100
 120924037.271 7  94226537.28545  23011079.664                    23011084.293
        46.200          31.900
 115405649.903 8  89926507.09946  21960965.117                    21960971.137
        48.500          38.600
 117562513.389 7  91607176.93845  22371402.969                    22371408.910
        44.100          31.000
 117220379.384 8  91340566.95346  22306296.352                    22306300.086
        49.100          36.700
 125829504.015 7  98048995.04244  23944560.805                    23944567.391
        44.100          28.600
 117540555.071 7  91590052.81445  22367222.617                    22367226.285
        45.600          32.400
 18  3 13 14 42 15.0000000  0 19R01G19G22G25R08R10R09R16R17R18R19G12
                                G06G03G32G24G17G01G14
                  86362597.002 6  20771889.148                    20771892.660
                        37.300
 111557533.718 7  86928154.73845  21228741.352                    21228742.523
        47.500          34.300
 121133531.918 7  94389754.73244  23050942.758                    23050943.496
        45.700          29.900
 121413953.536 7  94608339.45844  23104317.898                    23104324.434
        44.600          29.400
                  87482504.821 6  21004384.352                    21004385.504
                        41.400
                  90640293.533 6  21862142.914                    21862146.938
                        40.000
                  80213090.816 6  19313146.070                    19313145.621
                        41.400
                  88660342.349 6  21339519.742                    21339520.828
                        37.000
                  86965716.526 6  20894946.242                    20894947.527
                        40.800
                  82693970.827 6  19917472.625                    19917474.508
                        39.200
                  94994289.531 6  22831943.391                    22831943.543
                        36.400
 108575113.602 7  84603996.52145  20661157.578                    20661159.770
        47.300          30.700
 123161117.771 6  95969731.10344  23436781.539                    23436788.648
        41.400          28.600
 120922615.021 7  94225429.02445  23010809.203                    23010813.664
        45.900          31.600
 115406687.059 7  89927315.26946  21961162.422                    21961168.328
        47.800          38.400
 117565923.571 7  91609834.22845  22372051.328                    22372058.090
        43.500          31.200
 117222702.799 8  91342377.41046  22306737.992                    22306742.016
        48.800          36.700
 125833094.976 7  98051793.18444  23945244.336                    23945250.590
        44.200          28.000
 117539573.811 7  91589288.18345  22367035.258                    22367039.895
        44.200          31.400
 18  3 13 14 42 16.0000000  0 19R01G19G22G25R08R10R09R16R17R18R19G12
                                G06G03G32G24G17G01G14
                  86361800.460 6  20771697.617                    20771701.961
                        37.100
 111558701.392 7  86929064.61545  21228963.438                    21228964.535
        47.800          34.500
 121133579.331 7  94389791.68744  23050951.828                    23050952.832
        45.200          29.900
 121410803.479 7  94605884.87444  23103719.258                    23103724.844
        45.000          28.900
                  87484709.216 6  21004914.938                    21004914.906
                        41.500
                  90637474.984 6  21861460.289                    21861466.883
                        40.100
                  80213125.124 6  19313154.414                    19313153.824
                        41.300
                  88663630.729 6  21340309.898                    21340311.734
                        36.800
                  86968217.998 6  20895546.938                    20895548.297
                        41.400
                  82693205.007 6  19917288.422                    19917289.742
                        39.600
                  94991092.724 6  22831174.617                    22831174.703
                        36.500
 108574139.385 7  84603237.38845  20660972.602                    20660974.465
        46.700          31.200
 123158342.613 6  95967568.68244  23436253.516                    23436260.754
        41.300          28.200
 120921193.410 7  94224321.25745  23010538.672                    23010543.102
        46.300          31.800
 115407724.956 8  89928124.03246  21961359.719                    21961365.363
        48.100          38.800
 117569334.125 7  91612491.80445  22372700.172                    22372707.098
        42.600          31.600
 117225026.741 8  91344188.27146  22307180.391                    22307184.055
        49.000          37.000
 125836686.358 7  98054591.66144  23945927.320                    23945934.129
        43.600          28.300
 117538593.157 7  91588524.05845  22366848.633                    22366852.738
        44.400          31.400
 18  3 13 14 42 17.0000000  0 19R01G19G22G25R08R10R09R16R17R18R19G12
                                G06G03G32G24G17G01G14
                  86361004.634 6  20771505.836                    20771510.527
                        37.900
 111559869.819 8  86929975.08945  21229186.000                    21229187.426
        48.200          34.700
 121133627.346 7  94389829.10245  23050960.930                    23050961.957
        45.100          30.400
 121407653.746 7  94603430.53545  23103120.414                    23103125.445
        45.000          30.400
                  87486914.252 6  21005443.930                    21005444.820
                        41.800
                  90634656.758 6  21860781.438                    21860786.465
                        40.200
                  80213160.075 6  19313162.344                    19313162.895
                        41.500
                  88666919.422 6  21341102.531                    21341103.563
                        36.400
                  86970720.015 6  20896148.000                    20896149.543
                        41.400
                  82692439.871 6  19917104.242                    19917105.809
                        39.400
                  94987896.151 6  22830407.875                    22830406.969
                        36.500
 108573165.815 7  84602478.76845  20660786.656                    20660789.484
        46.600          31.200
 123155567.841 7  95965406.56344  23435726.141                    23435732.684
        42.100          29.000
 120919772.431 7  94223213.99745  23010267.945                    23010272.695
        45.800          32.400
 115408763.557 8  89928933.34946  21961556.883                    21961563.164
        48.000          38.400
 117572745.133 7  91615149.71745  22373349.133                    22373356.250
        42.300          31.300
 117227351.234 8  91345999.56846  22307622.766                    22307626.113
        49.000          37.200
 125840278.118 7  98057390.44044  23946610.977                    23946617.813
        43.600          28.000
 117537613.144 7  91587760.43845  22366662.477                    22366666.348
        45.000          31.000
 18  3 13 14 42 18.0000000  0 19R01G19G22G25R08R10R09R16R17R18R19G12
                                G06G03G32G24G17G01G14
                  86360209.492 6  20771314.641                    20771319.109
                        37.900
 111561039.020 8  86930886.15745  21229408.367                    21229409.758
        48.200          34.400
 121133676.039 7  94389867.05244  23050969.734                    23050971.141
        44.900          29.700
 121404504.371 7  94600976.46645  23102521.383                    23102526.000
        46.100          31.100
                  87489119.922 6  21005972.320                    21005973.992
                        41.800
                  90631838.841 6  21860104.344                    21860106.941
                        40.400
                  80213195.738 6  19313170.969                    19313171.023
                        41.700
                  88670208.531 6  21341894.945                    21341894.887
                        36.500
                  86973222.612 6  20896749.352                    20896750.668
                        41.100
                  82691675.437 6  19916919.984                    19916921.133
                        39.400
                  94984699.810 6  22829639.617                    22829639.324
                        36.700
 108572192.939 7  84601720.68545  20660601.734                    20660604.527
        45.900          31.500
 123152793.459 7  95963244.74644  23435198.359                    23435204.492
        43.400          29.100
 120918352.056 7  94222107.21345  23009997.992                    23010002.727
        45.200          32.300
 115409802.833 8  89929743.18746  21961754.586                    21961760.719
        48.200          38.100
 117576156.584 7  91617807.97245  22373998.688                    22374005.082
        42.600          31.000
 117229676.251 8  91347811.27146  22308065.305                    22308068.891
        48.800          36.700
 125843870.346 7  98060189.56944  23947294.445                    23947301.148
        43.900          28.000
 117536633.747 7  91586997.29645  22366477.047                    22366479.992
        44.800          31.400
 18  3 13 14 42 19.0000000  0 19R01G19G22G25R08R10R09R16R17R18R19G12
                                G06G03G32G24G17G01G14
                  86359415.142 6  20771124.148                    20771128.254
                        37.800
 111562209.079 8  86931797.89145  21229630.773                    21229632.270
        48.400          34.300
 121133725.496 7  94389905.58945  23050978.844                    23050980.496
        45.000          30.200
 121401355.449 7  94598522.74445  23101921.570                    23101926.238
        46.500          30.600
                  87491326.291 7  21006502.266                    21006503.953
                        42.100
                  90629021.257 6  21859422.648                    21859427.918
                        40.200
                  80213232.129 6  19313179.680                    19313179.359
                        41.400
                  88673498.037 5  21342685.008                    21342686.402
                        35.600
                  86975725.865 6  20897350.273                    20897352.445
                        41.000
                  82690911.812 6  19916736.164                    19916737.652
                        39.600
                  94981503.757 6  22828871.242                    22828870.727
                        36.100
 108571220.838 7  84600963.19845  20660416.289                    20660419.359
        46.000          31.200
 123150019.559 7  95961083.29444  23434670.352                    23434676.793
        43.800          29.500
 120916932.430 7  94221001.02145  23009727.430                    23009732.648
        45.500          32.100
 115410842.928 8  89930553.65546  21961952.406                    21961958.973
        48.400          38.300
 117579568.551 7  91620466.62045  22374648.984                    22374653.988
        43.800          30.900
 117232001.938 8  91349623.48646  22308507.516                    22308510.836
        49.000          37.500
 125847463.029 7  98062989.05644  23947978.117                    23947985.211
        44.000          28.200
 117535655.050 7  91586234.68345  22366290.406                    22366293.797
        45.100          31.500
 18  3 13 14 42 20.0000000  0 19R01G19G22G25R08R10R09R16R17R18R19G12
                                G06G03G32G24G17G01G14
                  86358621.461 6  20770933.477                    20770937.469
                        37.600
 111563379.852 7  86932710.18245  21229853.859                    21229855.301
        47.600          34.400
 121133775.552 7  94389944.59645  23050988.898                    23050990.082
        45.200          30.100
 121398206.822 7  94596069.25645  23101322.836                    23101327.023
        46.200          31.500
                  87493533.197 6  21007032.609                    21007033.832
                        41.500
                  90626203.906 6  21858741.031                    21858747.754
                        39.900
                  80213269.162 6  19313188.500                    19313188.230
                        41.300
                  88676787.867 5  21343477.742                    21343478.293
                        35.800
                  86978229.640 6  20897952.008                    20897954.285
                        41.200
                  82690148.854 6  19916552.484                    19916554.223
                        39.500
                  94978307.896 6  22828101.617                    22828102.715
                        36.100
 108570249.392 7  84600206.23245  20660231.375                    20660234.184
        46.100          31.200
 123147245.989 7  95958922.09644  23434142.789                    23434148.988
        44.100          29.400
 120915513.362 7  94219895.25445  23009457.234                    23009462.582
        45.300          32.300
 115411883.680 8  89931364.63246  21962150.523                    21962157.227
        48.600          38.600
 117582980.881 7  91623125.56345  22375298.664                    22375303.359
        44.100          31.100
 117234328.108 8  91351436.08046  22308950.766                    22308954.074
        49.000          37.600
 125851056.113 7  98065788.87044  23948661.531                    23948668.633
        44.000          27.700
 117534676.941 7  91585472.51545  22366104.070                    22366107.762
        45.200          31.200
 18  3 13 14 42 21.0000000  0 19R01G19G22G25R08R10R09R16R17R18R19G12
                                G06G03G32G24G17G01G14
                  86357828.495 6  20770743.305                    20770747.043
                        37.200
 111564551.415 7  86933623.09245  21230076.695                    21230078.168
        47.800          34.300
 121133826.271 7  94389984.12444  23050999.031                    23050999.797
        45.100          28.900
 121395058.555 7  94593616.05445  23100722.984                    23100728.445
        46.400          31.500
                  87495740.744 6  21007562.211                    21007563.902
                        41.600
                  90623386.915 6  21858064.797                    21858068.621
                        40.000
                  80213306.888 6  19313197.266                    19313197.375
                        41.400
                  88680078.046 6  21344269.930                    21344270.867
                        36.300
                  86980734.003 6  20898553.180                    20898555.684
                        41.400
                  82689386.645 6  19916369.375                    19916370.383
                        38.900
                  94975112.249 5  22827333.359                    22827333.754
                        35.500
 108569278.632 7  84599449.81145  20660047.656                    20660049.898
        46.700          31.900
 123144472.833 7  95956761.19544  23433614.500                    23433621.191
        43.600          28.900
 120914094.934 7  94218789.97945  23009186.930                    23009192.887
        44.500          32.800
 115412925.161 8  89932176.18446  21962349.336                    21962355.344
        48.400          38.400
 117586393.641 7  91625784.86045  22375948.875                    22375952.902
        43.300          31.600
 117236654.839 8  91353249.11046  22309393.133                    22309396.293
        48.900          37.500
 125854649.608 7  98068588.99144  23949345.977                    23949352.410
        43.600          27.500
 117533699.456 7  91584710.83145  22365918.180                    22365921.344
        45.400          32.300
 18  3 13 14 42 22.0000000  0 19R01G19G22G25R08R10R09R16R17R18R19G12
                                G06G03G32G24G17G01G14
                  86357036.215 6  20770552.031                    20770556.203
                        37.400
 111565723.679 7  86934536.55245  21230300.055                    21230301.164
        47.900          34.400
 121133877.609 7  94390024.13145  23051008.406                    23051009.590
        44.800          30.400
 121391910.554 7  94591163.05845  23100123.961                    23100129.953
        46.200          32.300
                  87497948.872 7  21008092.141                    21008093.805
                        42.400
                  90620570.177 6  21857385.406                    21857389.016
                        40.000
                  80213345.219 6  19313206.984                    19313206.730
                        40.800
                  88683368.525 5  21345060.305                    21345062.816
                        35.800
                  86983238.866 6  20899155.844                    20899157.824
                        41.400
                  82688625.070 6  19916186.117                    19916187.035
                        38.700
                  94971916.741 5  22826566.352                    22826566.355
                        35.300
 108568308.497 7  84598693.85845  20659862.922                    20659864.930
        47.300          31.800
 123141699.982 7  95954600.53344  23433086.203                    23433093.348
        43.000          28.600
 120912677.078 7  94217685.15445  23008917.117                    23008922.957
        44.400          32.200
 115413967.299 8  89932988.24746  21962547.383                    21962553.777
        48.200          38.600
 117589806.775 7  91628444.46145  22376597.461                    22376602.410
        43.600          31.700
 117238982.021 8  91355062.48946  22309836.234                    22309839.465
        48.600          37.000
 125858243.453 7  98071389.38344  23950029.758                    23950036.465
        43.300          25.900
 117532722.535 7  91583949.59745  22365732.797                    22365735.309
        45.700          32.400
 18  3 13 14 42 23.0000000  0 19R01G19G22G25R08R10R09R16R17R18R19G12
                                G06G03G32G24G17G01G14
                  86356244.643 6  20770361.852                    20770365.645
                        37.200
 111566896.747 7  86935450.63945  21230523.164                    21230524.625
        47.600          34.100
 121133929.611 7  94390064.64745  23051018.648                    23051019.594
        44.600          30.500
 121388762.912 7  94588710.34845  23099524.820                    23099531.566
        46.000          32.100
                  87500157.618 6  21008622.750                    21008624.055
                        41.900
                  90617753.669 6  21856703.328                    21856710.238
                        40.600
                  80213384.269 6  19313216.445                    19313216.309
                        41.300
                  88686659.343 5  21345853.422                    21345854.559
                        35.800
                  86985744.324 6  20899757.344                    20899759.934
                        41.600
                  82687864.213 6  19916002.742                    19916003.648
                        39.100
                  94968721.495 5  22825797.016                    22825797.945
                        35.200
 108567339.078 7  84597938.46545  20659678.031                    20659680.785
        46.700          31.300
 123138927.523 7  95952440.19144  23432558.648                    23432565.871
        42.600          29.400
 120911259.864 7  94216580.83545  23008647.680                    23008653.652
        44.100          32.600
 115415010.160 8  89933800.87146  21962745.891                    21962751.855
        48.000          39.000
 117593220.374 7  91631104.43645  22377246.500                    22377252.418
        43.700          31.800
 117241309.809 8  91356876.34346  22310278.914                    22310282.227
        48.600          37.600
 125861837.753 7  98074190.13644  23950713.680                    23950720.109
        43.500          26.600
 117531746.254 7  91583188.85445  22365547.141                    22365549.980
        46.000          32.600
 18  3 13 14 42 24.0000000  0 19R01G19G22G25R08R10R09R16R17R18R19G12
                                G06G03G32G24G17G01G14
                  86355453.764 6  20770172.328                    20770175.180
                        37.600
 111568070.546 7  86936365.29945  21230746.117                    21230747.711
        47.300          34.100
 121133982.226 7  94390105.64644  23051028.867                    23051029.711
        44.600          29.800
 121385615.638 7  94586257.94445  23098925.547                    23098932.422
        45.900          32.300
                  87502366.998 6  21009153.938                    21009155.324
                        41.500
                  90614937.505 6  21856025.070                    21856030.422
                        40.200
                  80213423.975 6  19313225.930                    19313225.688
                        41.200
                  88689950.538 6  21346644.758                    21346647.207
                        36.000
                  86988250.342 6  20900360.242                    20900362.184
                        41.600
                  82687104.055 6  19915819.250                    19915820.430
                        38.600
                  94965526.447 5  22825029.461                    22825030.383
                        34.500
 108566370.345 7  84597183.60845  20659493.352                    20659495.805
        46.700          31.000
 123136155.447 7  95950280.16944  23432031.797                    23432038.270
        42.600          28.900
 120909843.260 7  94215476.98745  23008378.203                    23008384.238
        44.000          32.400
 115416053.706 8  89934614.03246  21962944.703                    21962950.398
        48.500          39.000
 117596634.365 7  91633764.71045  22377895.469                    22377901.828
        43.500          31.500
 117243638.083 8  91358690.57246  22310722.828                    22310725.641
        48.600          37.700
 125865432.418 7  98076991.16944  23951397.469                    23951404.488
        43.500          27.400
 117530770.567 7  91582428.56545  22365360.992                    22365364.492
        45.300          32.400
 18  3 13 14 42 25.0000000  0 19R01G19G22G25R08R10R09R16R17R18R19G12
                                G06G03G32G24G17G01G14
                  86354663.606 6  20769981.758                    20769984.957
                        37.600
 111569245.082 7  86937280.51945  21230969.430                    21230971.445
        47.200          34.300
 121134035.500 7  94390147.15745  23051038.906                    23051039.555
        44.700          30.600
 121382468.656 7  94583805.77745  23098326.648                    23098333.980
        45.500          31.900
                  87504576.989 7  21009683.539                    21009685.246
                        42.000
                  90612121.685 6  21855347.977                    21855350.918
                        40.200
                  80213464.369 6  19313235.586                    19313235.426
                        41.600
                  88693242.025 6  21347437.734                    21347438.863
                        36.300
                  86990756.917 6  20900961.977                    20900963.887
                        41.400
                  82686344.610 6  19915635.930                    19915637.801
                        39.200
                  94962331.636 5  22824260.852                    22824261.922
                        34.300
 108565402.267 7  84596429.26545  20659309.813                    20659311.766
        46.800          31.700
 123133383.744 7  95948120.42845  23431505.109                    23431511.320
        43.600          30.500
 120908427.265 7  94214373.61945  23008108.336                    23008115.227
        43.800          32.200
 115417097.967 8  89935427.75046  21963143.273                    21963149.234
        48.200          38.900
 117600048.786 7  91636425.29845  22378545.156                    22378551.918
        42.400          31.300
 117245966.942 8  91360505.26846  22311165.125                    22311168.594
        48.500          37.400
 125869027.503 7  98079792.53744  23952081.828                    23952088.797
        43.400          27.600
 117529795.488 7  91581668.75045  22365174.500                    22365178.938
        44.100          31.900
 18  3 13 14 42 26.0000000  0 19R01G19G22G25R08R10R09R16R17R18R19G12
                                G06G03G32G24G17G01G14
                  86353874.144 6  20769791.789                    20769795.465
                        37.000
 111570420.408 7  86938196.35645  21231192.875                    21231194.488
        47.000          33.900
 121134089.443 7  94390189.19045  23051049.656                    23051050.254
        45.000          30.700
 121379322.019 7  94581353.89245  23097727.719                    23097735.379
        44.900          31.700
                  87506787.612 6  21010214.852                    21010216.082
                        41.800
                  90609306.108 6  21854667.453                    21854672.020
                        40.200
                  80213505.425 6  19313245.586                    19313245.359
                        41.200
                  88696533.899 6  21348230.406                    21348231.273
                        36.200
                  86993264.045 6  20901564.859                    20901566.336
                        41.500
                  82685585.890 6  19915453.375                    19915455.430
                        39.100
                  94959137.041 5  22823493.906                    22823493.395
                        34.200
 108564434.874 7  84595675.44345  20659125.961                    20659127.871
        46.100          31.400
 123130612.433 7  95945960.97644  23430977.781                    23430983.559
        44.400          29.700
 120907011.897 7  94213270.73945  23007839.695                    23007845.609
        44.100          32.900
 115418142.943 8  89936242.02046  21963342.063                    21963348.465
        48.100          39.000
 117603463.664 6  91639086.23745  22379194.492                    22379201.656
        41.600          31.400
 117248296.316 7  91362320.35946  22311608.125                    22311612.090
        47.800          37.500
 125872623.010 7  98082594.23344  23952766.039                    23952772.688
        42.900          27.900
 117528820.979 7  91580909.37845  22364988.797                    22364993.324
        43.400          31.700
 18  3 13 14 42 27.0000000  0 19R01G19G22G25R08R10R09R16R17R18R19G12
                                G06G03G32G24G17G01G14
                  86353085.425 6  20769601.258                    20769604.945
                        37.100
 111571596.502 7  86939112.79045  21231417.625                    21231418.914
        47.200          34.600
 121134144.021 7  94390231.71245  23051059.680                    23051060.797
        45.300          30.600
 121376175.730 7  94578902.27645  23097129.000                    23097136.570
        44.600          30.900
                  87508998.848 7  21010746.266                    21010746.813
                        42.100
                  90606490.780 6  21853987.000                    21853993.008
                        40.300
                  80213547.163 6  19313255.961                    19313255.316
                        41.500
                  88699826.139 6  21349022.945                    21349023.684
                        36.300
                  86995771.754 6  20902166.820                    20902169.203
                        41.000
                  82684827.906 6  19915270.961                    19915273.063
                        39.300
                  94955942.666 5  22822725.609                    22822725.816
                        35.100
 108563468.196 7  84594922.18845  20658941.797                    20658943.930
        46.400          31.600
 123127841.522 7  95943801.81845  23430449.695                    23430456.555
        43.800          30.000
 120905597.149 7  94212168.34345  23007570.094                    23007577.328
        43.600          32.300
 115419188.644 8  89937056.86446  21963541.016                    21963547.012
        48.300          38.700
 117606878.986 6  91641747.50345  22379844.977                    22379851.473
        41.400          31.400
 117250626.260 8  91364135.89846  22312051.578                    22312054.875
        48.200          37.600
 125876218.930 7  98085396.24944  23953450.375                    23953457.367
        43.100          26.100
 117527847.070 7  91580150.49145  22364804.148                    22364807.836
        44.300          30.900
 18  3 13 14 42 28.0000000  0 19R01G19G22G25R08R10R09R16R17R18R19G12
                                G06G03G32G24G17G01G14
                  86352297.361 6  20769411.641                    20769415.820
                        36.900
 111572773.295 7  86940029.77445  21231641.734                    21231642.770
        46.700          34.200
 121134199.182 7  94390274.69445  23051070.313                    23051071.484
        45.400          31.500
 121373029.658 7  94576450.82245  23096530.703                    23096537.934
        44.200          30.000
                  87511210.685 7  21011277.945                    21011278.656
                        42.000
                  90603675.719 6  21853308.617                    21853313.887
                        40.400
                  80213589.495 6  19313265.469                    19313265.602
                        41.300
                  88703118.653 6  21349815.430                    21349816.539
                        36.500
                  86998279.946 6  20902770.695                    20902771.840
                        41.000
                  82684070.579 6  19915088.430                    19915090.188
                        39.300
                  94952748.456 5  22821958.250                    22821957.754
                        34.900
 108562502.108 7  84594169.38845  20658757.469                    20658760.473
        46.500          31.700
 123125070.903 7  95941642.87444  23429921.961                    23429929.168
        43.300          29.700
 120904182.996 7  94211066.40945  23007301.352                    23007307.668
        43.000          32.700
 115420234.960 8  89937872.18446  21963740.148                    21963745.918
        48.100          39.000
 117610294.640 6  91644409.02345  22380495.094                    22380501.574
        41.300          31.100
 117252956.645 8  91365951.78046  22312495.828                    22312498.871
        48.500          37.900
 125879815.211 7  98088198.54144  23954135.203                    23954141.539
        43.200          26.500
 117526873.785 7  91579392.09145  22364619.453                    22364622.586
        45.500          31.900
 18  3 13 14 42 29.0000000  0 19R01G19G22G25R08R10R09R16R17R18R19G12
                                G06G03G32G24G17G01G14
                  86351510.014 6  20769221.875                    20769225.684
                        37.500
 111573950.856 7  86940947.35645  21231865.688                    21231867.063
        47.000          34.600
 121134254.986 7  94390318.17645  23051080.883                    23051082.352
        45.500          30.800
 121369883.950 7  94573999.63244  23095932.563                    23095939.199
        44.800          28.800
                  87513423.112 6  21011808.578                    21011809.164
                        41.400
                  90600860.962 6  21852631.188                    21852635.547
                        40.100
                  80213632.519 6  19313276.266                    19313275.738
                        41.200
                  88706411.497 6  21350606.430                    21350609.121
                        36.200
                  87000788.698 6  20903372.773                    20903373.906
                        41.400
                  82683313.931 6  19914905.719                    19914908.141
                        39.300
                  94949554.486 5  22821190.656                    22821190.813
                        35.000
 108561536.705 7  84593417.12445  20658572.953                    20658576.156
        46.400          31.100
 123122300.652 7  95939484.23844  23429394.883                    23429401.723
        43.500          29.700
 120902769.426 7  94209964.93445  23007032.313                    23007038.879
        43.100          32.900
 115421281.963 7  89938688.03446  21963939.484                    21963945.500
        47.900          38.800
 117613710.734 6  91647070.89645  22381145.977                    22381151.387
        41.900          31.900
 117255287.593 7  91367768.10246  22312938.289                    22312942.328
        47.800          36.900
 125883411.868 7  98091001.13544  23954819.070                    23954825.641
        43.200          26.800
 117525901.103 7  91578634.14945  22364434.930                    22364437.770
        46.000          31.200
 18  3 13 14 42 30.0000000  0 19R01G19G22G25R08R10R09R16R17R18R19G12
                                G06G03G32G24G17G01G14
                  86350723.321 6  20769033.430                    20769036.855
                        37.400
 111575129.118 7  86941865.48945  21232089.734                    21232091.000
        47.000          34.900
 121134311.396 7  94390362.13345  23051091.625                    23051092.871
        45.700          31.400
 121366738.508 7  94571548.64045  23095334.453                    23095339.727
        45.600          30.200
                  87515636.158 7  21012339.078                    21012340.395
                        42.000
                  90598046.407 6  21851952.148                    21851956.547
                        39.900
                  80213676.150 6  19313286.313                    19313286.426
                        41.100
                  88709704.722 6  21351398.859                    21351401.793
                        36.200
                  87003297.956 6  20903975.367                    20903976.121
                        41.200
                  82682557.951 6  19914724.688                    19914726.004
                        39.100
                  94946360.686 5  22820422.969                    22820424.277
                        35.400
 108560571.905 7  84592665.32945  20658389.891                    20658392.844
        46.000          31.800
 123119530.738 7  95937325.85644  23428868.141                    23428875.008
        43.000          29.300
 120901356.419 7  94208863.88545  23006763.430                    23006770.414
        43.400          33.100
 115422329.622 7  89939504.38446  21964138.844                    21964144.891
        47.600          38.600
 117617127.151 7  91649733.02445  22381796.625                    22381801.477
        43.400          31.500
 117257619.012 8  91369584.78246  22313382.633                    22313386.313
        48.600          36.600
 125887008.884 7  98093804.00144  23955503.586                    23955509.934
        43.600          27.500
 117524928.995 7  91577876.64545  22364250.000                    22364252.531
        46.100          31.900
 18  3 13 14 42 31.0000000  0 19R01G19G22G25R08R10R09R16R17R18R19G12
                                G06G03G32G24G17G01G14
                  86349937.330 6  20768844.711                    20768848.219
                        36.700
 111576308.131 7  86942784.20945  21232313.945                    21232315.734
        46.700          33.600
 121134368.456 7  94390406.60245  23051102.195                    23051104.355
        46.200          31.100
 121363593.424 7  94569097.92845  23094735.898                    23094740.738
        46.400          30.300
                  87517849.836 7  21012870.672                    21012872.324
                        42.000
                  90595232.149 6  21851272.547                    21851277.504
                        40.200
                  80213720.478 6  19313297.055                    19313297.426
                        41.000
                  88712998.262 6  21352193.750                    21352194.668
                        36.500
                  87005807.788 6  20904578.602                    20904580.445
                        41.100
                  82681802.673 6  19914542.297                    19914543.750
                        39.100
                  94943167.091 5  22819656.672                    22819656.031
                        35.800
 108559607.820 7  84591914.10745  20658206.406                    20658209.113
        46.400          31.000
 123116761.177 7  95935167.75344  23428340.352                    23428348.211
        42.300          27.900
 120899944.068 7  94207763.35045  23006495.031                    23006501.793
        43.500          33.200
 115423377.988 7  89940321.28446  21964338.484                    21964344.066
        47.500          38.800
 117620544.034 7  91652395.52345  22382446.930                    22382451.578
        44.200          31.600
 117259950.978 8  91371401.88446  22313826.453                    22313829.809
        49.300          36.900
 125890606.350 7  98096607.22844  23956187.313                    23956194.828
        43.900          27.600
 117523957.497 7  91577119.61045  22364064.578                    22364067.992
        45.100          31.100
 18  3 13 14 42 32.0000000  0 19R01G19G22G25R08R10R09R16R17R18R19G12
                                G06G03G32G24G17G01G14
                  86349151.979 6  20768655.977                    20768658.855
                        37.400
 111577487.875 7  86943703.49645  21232538.102                    21232540.137
        46.600          34.600
 121134426.120 7  94390451.54045  23051113.555                    23051115.262
        46.300          30.500
 121360448.672 7  94566647.45945  23094137.766                    23094142.672
        46.600          30.300
                  87520064.111 7  21013401.445                    21013403.176
                        42.100
                  90592418.130 6  21850594.164                    21850599.012
                        40.600
                  80213765.431 6  19313307.453                    19313307.805
                        41.000
                  88716292.186 6  21352985.609                    21352987.332
                        36.500
                  87008318.179 6  20905181.891                    20905182.973
                        40.900
                  82681048.088 6  19914360.711                    19914361.781
                        39.400
                  94939973.695 5  22818888.195                    22818888.336
                        35.800
 108558644.362 7  84591163.36345  20658023.977                    20658026.023
        47.200          31.000
 123113991.940 7  95933009.91544  23427813.523                    23427820.906
        42.700          28.900
 120898532.292 7  94206663.26445  23006226.070                    23006232.758
        43.700          33.600
 115424427.025 7  89941138.70546  21964537.805                    21964543.613
        47.700          38.400
 117623961.283 7  91655058.32045  22383097.289                    22383102.156
        44.700          31.600
 117262283.443 8  91373219.38346  22314270.742                    22314273.605
        49.700          36.800
 125894204.147 7  98099410.70444  23956873.055                    23956879.188
        43.900          28.100
 117522986.552 7  91576363.01945  22363878.953                    22363883.207
        44.400          31.900
 18  3 13 14 42 33.0000000  0 19R01G19G22G25R08R10R09R16R17R18R19G12
                                G06G03G32G24G17G01G14
                  86348367.351 6  20768467.492                    20768470.531
                        37.200
 111578668.396 7  86944623.38145  21232762.891                    21232764.531
        47.000          34.800
 121134484.443 7  94390496.98945  23051124.703                    23051126.305
        46.400          31.700
 121357304.203 7  94564197.21345  23093538.969                    23093543.875
        46.800          30.800
                  87522278.989 6  21013934.172                    21013935.266
                        41.400
                  90589604.440 6  21849915.273                    21849920.461
                        40.400
                  80213811.054 6  19313318.477                    19313318.852
                        41.200
                  88719586.363 6  21353779.063                    21353780.391
                        36.500
                  87010829.151 6  20905784.555                    20905786.059
                        41.200
                  82680294.231 6  19914179.133                    19914180.238
                        39.600
                  94936780.503 6  22818121.859                    22818121.676
                        36.400
 108557681.604 7  84590413.17045  20657840.797                    20657842.488
        47.600          31.400
 123111223.140 7  95930852.40044  23427287.891                    23427294.023
        42.700          28.300
 120897121.161 7  94205563.69845  23005957.789                    23005964.871
        44.300          33.900
 115425476.799 7  89941956.70046  21964737.773                    21964743.477
        47.900          38.800
 117627378.973 7  91657721.46545  22383747.477                    22383752.703
        45.300          31.200
 117264616.454 8  91375037.31346  22314713.945                    22314717.816
        49.300          36.700
 125897802.366 7  98102214.51744  23957557.375                    23957563.988
        44.000          28.500
 117522016.227 7  91575606.91745  22363694.555                    22363698.332
        44.500          32.500
 18  3 13 14 42 34.0000000  0 19R01G19G22G25R08R10R09R16R17R18R19G12
                                G06G03G32G24G17G01G14
                  86347583.378 6  20768278.578                    20768281.758
                        37.300
 111579849.629 7  86945543.82945  21232988.063                    21232989.305
        46.800          34.900
 121134543.355 7  94390542.89545  23051135.555                    23051137.805
        46.600          31.600
 121354160.091 7  94561747.24145  23092940.539                    23092945.211
        46.600          30.900
                  87524494.418 7  21014466.359                    21014467.594
                        42.000
                  90586790.995 6  21849236.297                    21849241.551
                        40.000
                  80213857.338 6  19313329.859                    19313330.184
                        41.600
                  88722880.876 6  21354571.758                    21354573.012
                        36.500
                  87013340.622 6  20906387.789                    20906390.059
                        41.000
                  82679541.033 6  19913997.742                    19913999.508
                        39.600
                  94933587.524 6  22817353.852                    22817354.102
                        36.900
 108556719.486 7  84589663.46245  20657657.320                    20657659.414
        47.400          31.300
 123108454.695 7  95928695.15445  23426761.398                    23426767.441
        43.500          30.200
 120895710.587 7  94204464.56345  23005688.906                    23005696.781
        44.200          34.500
 115426527.229 7  89942775.22446  21964937.766                    21964943.832
        47.700          39.000
 117630797.047 7  91660384.91745  22384396.867                    22384402.996
        44.900          30.500
 117266949.958 8  91376855.63246  22315158.641                    22315161.891
        49.500          36.500
 125901400.953 7  98105018.60744  23958242.453                    23958248.859
        44.000          28.800
 117521046.500 7  91574851.30445  22363510.508                    22363514.043
        45.200          31.500
 18  3 13 14 42 35.0000000  0 19R01G19G22G25R08R10R09R16R17R18R19G12
                                G06G03G32G24G17G01G14
                  86346800.150 6  20768089.773                    20768093.398
                        36.700
 111581031.653 7  86946464.88445  21233212.969                    21233214.324
        47.200          34.800
 121134602.958 7  94390589.34045  23051146.852                    23051149.020
        47.000          31.300
 121351016.302 7  94559297.53445  23092342.023                    23092347.848
        46.800          30.900
                  87526710.466 6  21014999.008                    21014999.176
                        41.900
                  90583977.852 6  21848557.781                    21848563.082
                        40.200
                  80213904.288 6  19313342.070                    19313341.344
                        41.800
                  88726175.760 6  21355364.734                    21355365.695
                        36.000
                  87015852.645 6  20906992.039                    20906993.672
                        41.100
                  82678788.532 6  19913816.344                    19913817.941
                        39.000
                  94930394.796 6  22816586.234                    22816586.734
                        36.200
 108555758.076 7  84588914.30545  20657474.227                    20657477.133
        47.200          31.400
 123105686.613 7  95926538.18844  23426233.789                    23426240.715
        42.100          28.000
 120894300.661 7  94203365.92545  23005420.641                    23005428.621
        44.000          33.800
 115427578.374 8  89943594.30046  21965137.477                    21965143.461
        48.000          38.400
 117634215.543 7  91663048.69945  22385047.672                    22385053.156
        44.800          31.200
 117269284.018 8  91378674.38046  22315602.242                    22315605.969
        48.700          36.700
 125904999.980 7  98107823.05044  23958927.289                    23958933.730
        43.600          27.000
 117520077.387 7  91574096.15845  22363326.063                    22363329.359
        45.400          31.300
 18  3 13 14 42 36.0000000  0 19R01G19G22G25R08R10R09R16R17R18R19G12
                                G06G03G32G24G17G01G14
                  86346017.668 6  20767901.852                    20767905.422
                        37.400
 111582214.460 7  86947386.55545  21233437.906                    21233439.309
        47.800          34.500
 121134663.245 7  94390636.32845  23051158.148                    23051160.508
        46.900          31.200
 121347872.893 7  94556848.13245  23091743.117                    23091749.438
        46.600          31.400
                  87528927.140 7  21015531.148                    21015531.555
                        42.200
                  90581165.056 6  21847880.258                    21847884.043
                        40.100
                  80213951.921 6  19313353.039                    19313352.816
                        41.500
                  88729471.024 6  21356158.023                    21356158.949
                        37.500
                  87018365.286 6  20907595.219                    20907596.848
                        41.500
                  82678036.809 6  19913635.789                    19913637.258
                        39.400
                  94927202.319 5  22815818.211                    22815819.480
                        35.200
 108554797.374 7  84588165.70645  20657290.625                    20657294.066
        46.600          31.500
 123102918.911 7  95924381.52644  23425707.094                    23425713.914
        42.300          25.500
 120892891.361 7  94202267.77645  23005152.766                    23005160.379
        44.200          34.400
 115428630.237 8  89944413.94346  21965337.922                    21965343.957
        48.000          38.000
 117637634.536 7  91665712.85945  22385697.164                    22385704.176
        43.600          30.500
 117271618.658 8  91380493.57746  22316046.797                    22316050.508
        48.600          36.000
 125908599.431 7  98110627.81444  23959611.977                    23959618.691
        44.000          28.000
 117519108.939 7  91573341.52545  22363142.281                    22363145.164
        45.800          31.900
 18  3 13 14 42 37.0000000  0 19R01G19G22G25R08R10R09R16R17R18R19G12
                                G06G03G32G24G17G01G14
                  86345235.893 6  20767713.969                    20767717.352
                        37.300
 111583398.011 7  86948308.80845  21233663.344                    21233664.512
        47.800          34.400
 121134724.162 7  94390683.80444  23051169.305                    23051172.625
        45.600          28.500
 121344729.772 7  94554398.96245  23091145.781                    23091152.195
        45.500          32.400
                  87531144.454 6  21016063.508                    21016063.816
                        41.800
                  90578352.513 6  21847201.180                    21847206.168
                        39.800
                  80214000.221 6  19313364.320                    19313364.387
                        41.500
                  88732766.607 6  21356951.016                    21356952.637
                        36.200
                  87020878.448 6  20908199.547                    20908202.133
                        40.700
                  82677285.761 6  19913455.023                    19913456.000
                        39.200
                  94924010.043 5  22815051.195                    22815051.406
                        34.900
 108553837.328 7  84587417.61445  20657108.609                    20657111.090
        46.100          32.100
 123100151.675 7  95922225.22344  23425180.477                    23425187.090
        43.500          29.000
 120891482.774 7  94201170.18045  23004884.844                    23004892.488
        44.300          31.300
 115429682.819 7  89945234.13646  21965537.930                    21965544.109
        47.800          38.600
 117641053.954 7  91668377.34045  22386348.047                    22386355.145
        43.400          31.900
 117273953.821 8  91382313.18346  22316490.570                    22316494.504
        49.500          38.700
 125912199.280 7  98113432.89244  23960297.328                    23960303.594
        43.700          26.900
 117518141.091 7  91572587.34245  22362957.445                    22362960.914
        44.600          31.200
 18  3 13 14 42 38.0000000  0 19R01G19G22G25R08R10R09R16R17R18R19G12
                                G06G03G32G24G17G01G14
                  86344454.818 6  20767524.719                    20767528.824
                        36.000
 111584582.344 7  86949231.66345  21233888.570                    21233889.996
        47.900          34.200
 121134785.705 7  94390731.77944  23051181.516                    23051183.957
        45.100          28.700
 121341587.016 7  94551950.07345  23090546.625                    23090553.879
        44.300          31.600
                  87533362.425 6  21016595.266                    21016596.398
                        41.500
                  90575540.251 6  21846521.820                    21846528.164
                        40.600
                  80214049.212 6  19313376.398                    19313376.180
                        41.800
                  88736062.521 6  21357743.688                    21357745.789
                        36.400
                  87023392.191 6  20908803.422                    20908805.277
                        41.500
                  82676535.438 6  19913273.594                    19913275.516
                        38.900
                  94920817.994 5  22814284.289                    22814284.656
                        35.100
 108552877.975 7  84586670.06645  20656926.453                    20656928.668
        46.500          31.400
 123097384.777 7  95920069.18144  23424653.875                    23424661.105
        43.300          28.500
 120890074.702 7  94200072.96945  23004616.281                    23004624.188
        44.500          35.000
 115430736.125 7  89946054.88946  21965738.195                    21965744.375
        47.700          38.500
 117644473.852 7  91671042.17645  22386998.734                    22387005.527
        42.400          31.300
 117276289.513 8  91384133.19146  22316935.422                    22316939.211
        48.600          37.300
 125915799.511 6  98116238.27643  23960982.352                    23960988.938
        40.800          21.100
 117517173.879 7  91571833.66344  22362773.445                    22362776.996
        42.500          29.200
 18  3 13 14 42 39.0000000  0 19R01G19G22G25R08R10R09R16R17R18R19G12
                                G06G03G32G24G17G01G14
                  86343674.452 6  20767338.414                    20767341.570
                        36.700
 111585767.438 7  86950155.11645  21234114.148                    21234115.324
        47.400          34.900
 121134847.925 7  94390780.23845  23051193.055                    23051195.891
        47.700          33.700
 121338444.561 7  94549501.43245  23089948.805                    23089956.078
        43.700          32.100
                  87535581.043 6  21017128.031                    21017128.805
                        41.400
                  90572728.311 6  21845844.367                    21845850.258
                        38.500
                  80214098.864 7  19313388.523                    19313388.449
                        42.100
                  88739358.813 6  21358537.477                    21358539.098
                        36.400
                  87025906.479 6  20909407.867                    20909409.430
                        41.400
                  82675785.829 6  19913092.641                    19913095.000
                        39.800
                  94917626.140 5  22813517.016                    22813517.676
                        35.100
 108551919.314 7  84585923.05545  20656743.234                    20656746.191
        46.300          30.900
 123094618.264 7  95917913.44344  23424128.453                    23424134.270
        44.800          28.300
 120888667.253 7  94198976.25445  23004348.609                    23004356.285
        45.600          35.300
 115431790.085 7  89946876.15245  21965938.852                    21965944.914
        46.000          35.400
 117647894.136 7  91673707.30745  22387649.578                    22387656.281
        42.600          31.500
 117278625.765 8  91385953.64146  22317379.789                    22317383.441
        48.800          37.000
 125919400.178 7  98119043.98444  23961667.227                    23961673.691
        44.200          27.900
 117516207.315 7  91571080.50744  22362589.250                    22362593.031
        43.400          28.900
 18  3 13 14 42 40.0000000  0 19R01G19G22G25R08R10R09R16R17R18R19G12
                                G06G03G32G24G17G01G14
                  86342894.809 6  20767150.000                    20767154.742
                        38.100
 111586953.299 7  86951079.17945  21234339.453                    21234341.316
        46.800          34.800
 121134910.789 7  94390829.23045  23051205.070                    23051207.191
        46.300          31.700
 121335302.373 7  94547053.01045  23089351.156                    23089358.418
        44.400          30.500
                  87537800.205 6  21017660.953                    21017662.094
                        39.500
                  90569916.714 6  21845167.273                    21845171.129
                        38.000
                  80214149.205 7  19313400.422                    19313400.738
                        42.100
                  88742655.427 6  21359330.055                    21359332.770
                        36.700
                  87028421.332 6  20910011.297                    20910013.660
                        41.500
                  82675036.869 6  19912912.961                    19912914.496
                        39.800
                  94914434.478 6  22812749.578                    22812750.387
                        36.300
 108550961.332 7  84585176.59545  20656561.195                    20656563.828
        46.600          31.500
 123091852.134 7  95915758.01244  23423601.539                    23423608.004
        43.000          28.200
 120887260.461 7  94197880.06945  23004081.031                    23004088.918
        45.600          35.400
 115432844.758 7  89947697.98746  21966139.656                    21966145.527
        46.400          36.400
 117651314.782 7  91676372.72645  22388301.789                    22388307.121
        44.100          32.800
 117280962.547 8  91387774.50746  22317824.977                    22317828.691
        48.500          36.400
 125923001.253 7  98121850.01744  23962352.750                    23962359.449
        44.900          27.900
 117515241.237 7  91570327.72045  22362405.680                    22362409.090
        45.800          33.300
 18  3 13 14 42 41.0000000  0 19R01G19G22G25R08R10R09R16R17R18R19G12
                                G06G03G32G24G17G01G14
                  86342115.888 6  20766962.891                    20766966.602
                        36.800
 111588139.950 7  86952003.85445  21234565.320                    21234567.000
        46.700          34.600
 121134974.356 7  94390878.76845  23051217.555                    23051220.051
        46.200          31.200
 121332160.752 7  94544605.03044  23088753.805                    23088760.508
        43.000          25.600
                  87540020.000 6  21018195.086                    21018195.113
                        40.900
                  90567105.229 6  21844488.930                    21844493.527
                        36.200
                  80214200.244 6  19313412.695                    19313412.367
                        41.300
                  88745952.389 6  21360124.164                    21360125.414
                        36.500
                  87030936.790 6  20910616.828                    20910618.551
                        41.100
                  82674288.660 6  19912732.406                    19912734.230
                        38.900
                  94911243.113 5  22811981.680                    22811983.426
                        34.600
 108550004.102 7  84584430.70045  20656379.672                    20656381.945
        47.500          32.500
 123089086.454 7  95913602.92244  23423074.625                    23423082.285
        43.600          28.500
 120885854.351 7  94196784.40545  23003813.250                    23003821.773
        45.400          35.200
 115433900.165 7  89948520.37945  21966339.984                    21966346.473
        45.800          35.900
 117654735.919 7  91679038.54045  22388952.547                    22388958.082
        44.000          31.000
 117283299.954 8  91389595.85946  22318269.078                    22318272.922
        48.400          36.800
 125926602.747 7  98124656.37044  23963037.984                    23963044.879
        44.100          27.900
 117514275.900 7  91569575.50045  22362222.086                    22362225.559
        44.400          32.300
 18  3 13 14 42 42.0000000  0 19R01G19G22G25R08R10R09R16R17R18R19G12
                                G06G03G32G24G17G01G14
                  86341337.666 6  20766775.508                    20766780.113
                        37.100
 111589327.339 7  86952929.10245  21234791.547                    21234792.777
        46.600          34.400
 121135038.543 7  94390928.79445  23051229.570                    23051232.020
        46.400          32.300
 121329019.312 7  94542157.16844  23088157.102                    23088162.461
        46.700          28.800
                  87542240.414 7  21018726.164                    21018728.301
                        42.200
                  90564294.176 6  21843809.367                    21843815.141
                        41.100
                  80214251.925 6  19313425.023                    19313425.055
                        41.000
                  88749249.674 6  21360918.320                    21360919.398
                        36.900
                  87033452.806 6  20911220.563                    20911222.871
                        41.200
                  82673541.139 6  19912552.727                    19912554.699
                        39.400
                  94908051.962 5  22811216.164                    22811215.613
                        34.400
 108549047.498 7  84583685.28345  20656197.242                    20656199.793
        47.200          31.200
 123086321.143 7  95911448.11944  23422548.438                    23422555.492
        43.300          28.100
 120884448.801 7  94195689.18045  23003546.320                    23003554.258
        45.900          35.700
 115434956.308 7  89949343.33446  21966541.461                    21966547.266
        47.100          39.400
 117658157.466 7  91681704.68845  22389604.188                    22389609.512
        44.100          31.200
 117285637.851 8  91391417.59646  22318714.789                    22318717.879
        49.200          37.700
 125930204.664 7  98127463.06844  23963723.438                    23963730.172
        44.500          28.700
 117513311.182 7  91568823.78845  22362038.305                    22362042.141
        45.200          31.500
 18  3 13 14 42 43.0000000  0 19R01G19G22G25R08R10R09R16R17R18R19G12
                                G06G03G32G24G17G01G14
                  86340560.116 6  20766589.789                    20766593.293
                        36.800
 111590515.428 7  86953854.88545  21235017.531                    21235018.828
        46.100          35.000
 121135103.359 7  94390979.31345  23051241.563                    23051243.867
        45.600          31.000
 121325878.229 7  94539709.55545  23087559.148                    23087564.316
        47.500          30.400
                  87544461.432 6  21019259.875                    21019260.980
                        41.400
                  90561483.346 6  21843133.531                    21843136.352
                        39.700
                  80214304.281 6  19313438.289                    19313437.336
                        41.000
                  88752547.321 6  21361712.141                    21361713.180
                        37.500
                  87035969.388 6  20911825.328                    20911826.629
                        40.900
                  82672794.310 6  19912373.102                    19912374.160
                        39.500
                  94904860.985 5  22810448.430                    22810448.902
                        34.000
 108548091.564 7  84582940.39645  20656015.242                    20656017.754
        47.400          31.900
 123083556.176 7  95909293.58944  23422021.625                    23422029.488
        42.500          27.200
 120883043.878 7  94194594.43245  23003278.914                    23003287.031
        45.800          35.500
 115436013.109 7  89950166.80846  21966742.547                    21966748.773
        46.700          39.400
 117661579.434 7  91684371.16645  22390254.945                    22390260.555
        44.600          31.300
 117287976.264 8  91393239.72946  22319159.578                    22319162.875
        49.300          37.200
 125933806.977 7  98130270.06244  23964409.148                    23964415.914
        44.800          28.500
 117512347.049 7  91568072.52545  22361854.273                    22361858.559
        44.300          31.300
 18  3 13 14 42 44.0000000  0 19R01G19G22G25R08R10R09R16R17R18R19G12
                                G06G03G32G24G17G01G14
                  86339783.318 6  20766402.961                    20766406.555
                        37.000
 111591704.335 7  86954781.30345  21235244.117                    21235245.438
        46.700          34.900
 121135168.855 7  94391030.35245  23051254.188                    23051256.723
        46.100          32.000
 121322737.490 7  94537262.20945  23086961.563                    23086966.531
        47.600          31.100
                  87546683.112 7  21019792.188                    21019794.809
                        42.500
                  90558672.860 6  21842455.727                    21842459.293
                        39.700
                  80214357.294 6  19313450.523                    19313450.316
                        41.500
                  88755845.306 6  21362505.148                    21362506.836
                        36.800
                  87038486.491 6  20912430.383                    20912431.797
                        41.100
                  82672048.239 6  19912193.703                    19912195.191
                        39.600
                  94901670.234 5  22809682.969                    22809681.574
                        35.300
 108547136.331 8  84582196.06545  20655833.641                    20655835.938
        48.000          32.300
 123080791.625 7  95907139.40944  23421496.453                    23421503.297
        42.900          29.000
 120881639.607 7  94193500.19545  23003011.469                    23003019.504
        45.800          35.900
 115437070.625 7  89950990.84546  21966944.039                    21966949.777
        47.200          39.400
 117665001.807 7  91687037.95745  22390906.148                    22390912.027
        44.800          31.500
 117290315.241 8  91395062.30846  22319604.211                    22319608.180
        48.200          36.400
 125937409.695 7  98133077.37244  23965094.281                    23965101.496
        44.600          29.900
 117511383.519 7  91567321.72745  22361671.102                    22361675.055
        44.500          31.600
 18  3 13 14 42 45.0000000  0 19R01G19G22G25R08R10R09R16R17R18R19G12
                                G06G03G32G24G17G01G14
                  86339007.206 6  20766216.039                    20766220.168
                        36.500
 111592893.951 7  86955708.26545  21235470.406                    21235471.758
        46.300          34.500
 121135234.946 7  94391081.85745  23051267.336                    23051269.387
        46.400          31.700
 121319597.029 7  94534815.07645  23086363.352                    23086368.758
        46.800          31.700
                  87548905.337 7  21020326.586                    21020328.199
                        42.300
                  90555862.567 6  21841775.750                    21841782.191
                        40.000
                  80214410.950 6  19313464.227                    19313463.391
                        41.600
                  88759143.596 6  21363299.266                    21363300.297
                        36.500
                  87041004.176 6  20913034.852                    20913036.434
                        41.600
                  82671302.834 6  19912013.641                    19912015.063
                        39.700
                  94898479.654 5  22808915.547                    22808914.820
                        35.600
 108546181.753 7  84581452.24345  20655652.563                    20655654.461
        47.800          31.900
 123078027.422 7  95904985.48644  23420970.320                    23420977.367
        43.200          28.100
 120880235.896 7  94192406.39445  23002744.477                    23002752.598
        46.000          34.900
 115438128.802 7  89951815.38146  21967145.578                    21967151.047
        47.200          39.000
 117668424.603 7  91689705.06945  22391557.398                    22391563.102
        44.300          31.500
 117292654.720 8  91396885.27546  22320049.766                    22320053.266
        48.400          36.600
 125941012.786 7  98135884.97744  23965780.055                    23965786.789
        44.500          29.500
 117510420.559 7  91566571.37845  22361488.469                    22361491.773
        44.500          32.100
 18  3 13 14 42 46.0000000  0 19R01G19G22G25R08R10R09R16R17R18R19G12
                                G06G03G32G24G17G01G14
                  86338231.876 6  20766028.875                    20766033.320
                        37.200
 111594084.380 7  86956635.86545  21235696.602                    21235697.965
        46.000          34.300
 121135301.767 7  94391133.93345  23051279.977                    23051281.457
        46.400          31.700
 121316457.004 7  94532368.29145  23085765.406                    23085771.180
        46.300          31.100
                  87551128.254 6  21020860.609                    21020861.566
                        41.500
                  90553052.610 6  21841099.086                    21841104.078
                        39.800
                  80214465.351 6  19313476.227                    19313476.625
                        41.400
                  88762442.293 6  21364093.930                    21364094.512
                        36.700
                  87043522.442 6  20913639.469                    20913641.594
                        41.100
                  82670558.203 6  19911834.891                    19911836.355
                        39.800
                  94895289.370 5  22808149.008                    22808148.777
                        35.800
 108545227.913 7  84580708.99445  20655470.234                    20655473.398
        46.800          32.300
 123075263.679 7  95902831.93244  23420445.000                    23420451.340
        43.600          28.300
 120878832.901 7  94191313.15845  23002477.852                    23002485.809
        46.800          35.500
 115439187.756 7  89952640.52146  21967347.219                    21967352.852
        47.100          38.400
 117671847.864 7  91692372.54545  22392208.617                    22392214.656
        44.300          31.600
 117294994.786 8  91398708.69746  22320494.898                    22320498.516
        48.600          36.300
 125944616.340 7  98138692.94244  23966466.016                    23966472.926
        45.100          29.700
 117509458.333 7  91565821.59845  22361305.688                    22361308.793
        45.700          31.900
 18  3 13 14 42 47.0000000  0 19R01G19G22G25R08R10R09R16R17R18R19G12
                                G06G03G32G24G17G01G14
                  86337457.187 6  20765842.516                    20765847.168
                        38.200
 111595275.517 7  86957564.01345  21235923.328                    21235924.563
        45.800          34.400
 121135369.149 7  94391186.44445  23051292.977                    23051294.473
        46.600          32.600
 121313317.226 7  94529921.71544  23085167.828                    23085173.621
        45.400          29.200
                  87553351.723 7  21021395.922                    21021395.746
                        42.200
                  90550242.949 6  21840421.742                    21840426.465
                        40.700
                  80214520.354 6  19313489.516                    19313489.359
                        41.800
                  88765741.261 6  21364887.094                    21364888.496
                        36.400
                  87046041.216 6  20914244.922                    20914246.410
                        41.300
                  82669814.233 6  19911655.063                    19911656.566
                        40.000
                  94892099.270 5  22807382.164                    22807381.742
                        34.900
 108544274.707 7  84579966.22245  20655288.188                    20655291.254
        46.600          32.000
 123072500.269 7  95900678.64344  23419919.383                    23419925.453
        43.800          28.600
 120877430.407 7  94190220.29845  23002210.852                    23002218.707
        46.500          35.200
 115440247.352 7  89953466.16146  21967548.492                    21967554.246
        47.600          39.300
 117675271.507 7  91695040.31845  22392860.531                    22392866.047
        44.700          31.600
 117297335.330 8  91400532.49946  22320939.992                    22320943.746
        48.800          36.500
 125948220.239 7  98141501.17945  23967152.180                    23967158.535
        45.200          30.000
 117508496.615 7  91565072.20745  22361122.258                    22361125.660
        45.600          32.100
 18  3 13 14 42 48.0000000  0 19R01G19G22G25R08R10R09R16R17R18R19G12
                                G06G03G32G24G17G01G14
                  86336683.190 6  20765656.891                    20765661.008
                        37.900
 111596467.412 7  86958492.74845  21236149.984                    21236151.590
        46.000          34.600
 121135437.213 7  94391239.48745  23051305.852                    23051307.281
        46.900          31.400
 121310177.755 7  94527475.38844  23084570.313                    23084576.637
        45.100          29.500
                  87555575.802 7  21021929.641                    21021930.168
                        42.000
                  90547433.586 6  21839744.000                    21839748.465
                        40.500
                  80214576.042 7  19313503.031                    19313502.938
                        42.000
                  88769040.586 6  21365682.813                    21365683.281
                        36.700
                  87048560.568 6  20914850.352                    20914852.211
                        41.500
                  82669070.980 6  19911475.969                    19911477.277
                        39.800
                  94888909.438 5  22806615.313                    22806615.164
                        35.300
 108543322.155 7  84579223.96445  20655107.070                    20655110.281
        46.300          31.800
 123069737.233 7  95898525.62444  23419393.602                    23419399.684
        44.100          28.900
 120876028.551 7  94189127.93245  23001943.969                    23001952.102
        46.900          35.500
 115441307.655 7  89954292.36246  21967749.680                    21967756.422
        46.700          39.200
 117678695.594 7  91697708.44245  22393511.227                    22393517.676
        44.100          30.900
 117299676.403 8  91402356.70546  22321385.969                    22321389.621
        48.300          36.700
 125951824.549 7  98144309.73745  23967837.313                    23967844.152
        44.600          30.400
 117507535.527 7  91564323.29945  22360939.367                    22360942.984
        45.300          31.700
 18  3 13 14 42 49.0000000  0 19R01G19G22G25R08R10R09R16R17R18R19G12
                                G06G03G32G24G17G01G14
                  86335909.910 6  20765470.188                    20765473.969
                        37.100
 111597660.135 7  86959422.13045  21236376.742                    21236378.277
        45.700          34.400
 121135505.956 7  94391293.05845  23051318.852                    23051320.105
        46.800          31.900
 121307038.684 7  94525029.36945  23083972.578                    23083979.113
        44.600          30.700
                  87557800.485 6  21022463.469                    21022464.270
                        41.600
                  90544624.524 6  21839065.391                    21839070.902
                        39.900
                  80214632.424 7  19313516.898                    19313516.672
                        42.100
                  88772340.276 6  21366476.297                    21366477.035
                        36.400
                  87051080.548 6  20915455.563                    20915457.793
                        41.200
                  82668328.473 6  19911297.180                    19911299.066
                        40.200
                  94885719.795 5  22805848.727                    22805848.313
                        35.900
 108542370.327 7  84578482.29445  20654926.516                    20654929.223
        47.100          32.100
 123066974.612 7  95896372.91144  23418867.383                    23418873.762
        44.100          29.100
 120874627.361 7  94188036.07145  23001677.828                    23001685.281
        46.800          35.800
 115442368.710 7  89955119.16346  21967951.609                    21967958.332
        46.600          39.200
 117682120.103 7  91700376.89645  22394163.578                    22394169.109
        43.900          31.900
 117302018.091 8  91404181.38946  22321831.570                    22321834.789
        48.700          36.900
 125955429.346 7  98147118.67144  23968523.367                    23968530.480
        44.300          29.300
 117506575.062 7  91563574.87045  22360756.047                    22360759.785
        44.600          32.300
 18  3 13 14 42 50.0000000  0 19R01G19G22G25R08R10R09R16R17R18R19G12
                                G06G03G32G24G17G01G14
                  86335137.344 6  20765284.953                    20765288.762
                        37.100
 111598853.603 7  86960352.10145  21236604.031                    21236605.727
        45.600          33.800
 121135575.361 7  94391347.13745  23051332.109                    23051333.906
        46.800          31.600
 121303899.953 7  94522583.62544  23083375.961                    23083381.996
        44.300          27.900
                  87560025.832 7  21022998.109                    21022998.281
                        42.200
                  90541815.743 6  21838388.703                    21838393.957
                        40.200
                  80214689.491 6  19313530.914                    19313529.680
                        41.900
                  88775640.368 6  21367268.469                    21367271.609
                        36.400
                  87053601.072 6  20916061.531                    20916063.777
                        41.400
                  82667586.717 6  19911119.016                    19911120.387
                        39.400
                  94882530.412 5  22805081.695                    22805081.473
                        34.400
 108541419.222 7  84577741.16945  20654745.625                    20654748.184
        46.900          32.100
 123064212.405 7  95894220.52744  23418341.227                    23418348.281
        43.700          28.900
 120873226.828 7  94186944.74046  23001411.516                    23001418.434
        47.000          36.600
 115443430.487 7  89955946.52346  21968153.563                    21968160.191
        47.100          39.000
 117685545.076 7  91703045.71845  22394814.125                    22394821.055
        43.000          31.900
 117304360.286 8  91406006.46546  22322277.461                    22322280.797
        49.100          37.500
 125959034.508 7  98149927.89344  23969209.625                    23969216.582
        44.600          29.400
 117505615.236 7  91562826.94945  22360573.430                    22360577.172
        44.100          32.300
 18  3 13 14 42 51.0000000  0 19R01G19G22G25R08R10R09R16R17R18R19G12
                                G06G03G32G24G17G01G14
                  86334365.464 6  20765099.047                    20765103.367
                        37.200
 111600047.831 7  86961282.65345  21236831.727                    21236832.953
        46.200          34.200
 121135645.377 7  94391401.69645  23051345.523                    23051347.180
        47.000          31.700
 121300761.530 7  94520138.10445  23082779.156                    23082784.785
        45.300          30.800
                  87562251.818 7  21023532.031                    21023532.574
                        42.000
                  90539007.284 6  21837711.063                    21837715.926
                        40.400
                  80214747.190 6  19313544.422                    19313544.270
                        41.500
                  88778940.761 6  21368063.016                    21368065.863
                        36.500
                  87056122.103 6  20916668.844                    20916669.254
                        41.300
                  82666845.639 6  19910940.039                    19910942.133
                        39.300
                  94879341.231 6  22804314.711                    22804315.457
                        36.400
 108540468.734 7  84577000.53545  20654564.922                    20654567.516
        46.900          31.200
 123061450.563 7  95892068.43344  23417816.219                    23417822.684
        43.300          28.900
 120871826.872 7  94185853.86245  23001144.211                    23001151.992
        46.800          35.800
 115444492.951 7  89956774.42146  21968355.672                    21968362.273
        46.300          38.900
 117688970.471 7  91705714.86545  22395466.555                    22395473.262
        42.800          31.800
 117306703.003 8  91407831.96046  22322722.844                    22322726.734
        49.100          37.100
 125962640.059 7  98152737.41144  23969895.867                    23969902.461
        44.600          29.100
 117504656.014 7  91562079.50945  22360391.133                    22360394.746
        44.100          31.400
 18  3 13 14 42 52.0000000  0 19R01G19G22G25R08R10R09R16R17R18R19G12
                                G06G03G32G24G17G01G14
                  86333594.291 6  20764913.680                    20764917.586
                        38.300
 111601242.797 7  86962213.79545  21237059.484                    21237060.234
        46.400          34.600
 121135716.035 7  94391456.76045  23051359.094                    23051360.738
        47.000          32.700
 121297623.460 7  94517692.87645  23082182.281                    23082187.688
        46.600          31.300
                  87564478.409 6  21024066.945                    21024067.535
                        41.400
                  90536199.106 6  21837033.891                    21837039.551
                        38.800
                  80214805.554 6  19313558.148                    19313557.848
                        41.800
                  88782241.455 6  21368858.766                    21368860.105
                        36.400
                  87058643.706 6  20917272.883                    20917275.215
                        41.200
                  82666105.276 6  19910762.234                    19910763.637
                        39.600
                  94876152.226 6  22803547.836                    22803548.645
                        36.600
 108539518.933 7  84576260.43845  20654384.063                    20654386.555
        47.600          31.600
 123058689.082 7  95889916.61845  23417289.563                    23417297.297
        42.200          30.600
 120870427.517 7  94184763.44746  23000878.391                    23000886.051
        47.300          37.100
 115445556.100 7  89957602.86346  21968558.469                    21968564.652
        46.300          39.000
 117692396.281 7  91708384.31745  22396118.172                    22396124.668
        42.800          31.300
 117309046.239 8  91409657.86046  22323168.961                    22323172.859
        49.100          37.200
 125966245.992 7  98155547.23244  23970581.930                    23970588.824
        44.900          29.200
 117503697.400 7  91561332.56045  22360208.977                    22360212.254
        43.800          30.500
 18  3 13 14 42 53.0000000  0 19R01G19G22G25R08R10R09R16R17R18R19G12
                                G06G03G32G24G17G01G14
                  86332823.849 6  20764728.359                    20764731.848
                        37.600
 111602438.537 7  86963145.53245  21237286.570                    21237287.531
        46.300          34.200
 121135787.369 7  94391512.34045  23051372.063                    23051374.160
        47.000          33.200
 121294485.758 7  94515247.93345  23081585.375                    23081590.852
        47.200          31.600
                  87566705.633 6  21024600.766                    21024601.730
                        41.500
                  90533391.202 6  21836356.109                    21836361.512
                        39.400
                  80214864.620 6  19313572.531                    19313572.555
                        41.900
                  88785542.544 5  21369652.273                    21369654.883
                        35.900
                  87061165.891 6  20917879.367                    20917881.383
                        41.300
                  82665365.644 6  19910583.594                    19910585.352
                        39.600
                  94872963.516 6  22802782.195                    22802781.938
                        36.900
 108538569.847 7  84575520.89845  20654203.891                    20654206.227
        47.500          31.500
 123055927.993 7  95887765.14044  23416763.953                    23416771.617
        42.000          29.100
 120869028.834 7  94183673.55746  23000612.758                    23000619.945
        47.500          36.500
 115446619.991 7  89958431.88346  21968761.195                    21968767.230
        46.600          38.800
 117695822.499 7  91711054.09145  22396771.500                    22396776.684
        43.900          31.800
 117311390.067 8  91411484.22446  22323614.883                    22323618.375
        49.200          37.100
 125969852.347 7  98158357.37844  23971268.031                    23971274.961
        44.900          29.500
 117502739.435 7  91560586.10145  22360027.195                    22360030.211
        44.800          31.900
 18  3 13 14 42 54.0000000  0 19R01G19G22G25R08R10R09R16R17R18R19G12
                                G06G03G32G24G17G01G14
                  86332054.084 6  20764543.563                    20764546.539
                        37.700
 111603635.000 7  86964077.84345  21237514.258                    21237515.641
        46.000          34.200
 121135859.302 7  94391568.38145  23051386.320                    23051388.074
        47.200          33.100
 121291348.363 7  94512803.21845  23080988.156                    23080994.211
        47.300          30.800
                  87568933.400 6  21025136.211                    21025137.109
                        41.500
                  90530583.587 6  21835679.789                    21835684.012
                        39.100
                  80214924.315 6  19313587.125                    19313586.879
                        41.800
                  88788843.958 5  21370447.367                    21370449.496
                        35.600
                  87063688.612 6  20918485.773                    20918487.441
                        40.900
                  82664626.721 6  19910405.953                    19910407.145
                        39.900
                  94869774.968 5  22802016.922                    22802015.914
                        35.800
 108537621.394 7  84574781.84545  20654023.258                    20654025.680
        47.100          31.300
 123053167.254 7  95885613.93944  23416239.930                    23416246.465
        43.700          29.400
 120867630.732 7  94182584.11846  23000346.875                    23000353.961
        47.400          36.300
 115447684.540 7  89959261.40546  21968964.320                    21968969.762
        46.500          38.800
 117699249.100 7  91713724.16145  22397423.734                    22397428.723
        44.300          31.400
 117313734.356 8  91413310.94646  22324061.000                    22324064.762
        48.900          36.900
 125973459.103 7  98161167.83444  23971954.727                    23971961.246
        45.000          29.800
 117501782.011 7  91559840.05145  22359845.078                    22359848.266
        45.100          31.700
 18  3 13 14 42 55.0000000  0 19R01G19G22G25R08R10R09R16R17R18R19G12
                                G06G03G32G24G17G01G14
                  86331285.005 6  20764358.984                    20764361.668
                        37.900
 111604832.216 7  86965010.73545  21237741.711                    21237743.375
        45.700          34.200
 121135931.866 7  94391624.92245  23051399.938                    23051402.406
        46.700          33.200
 121288211.275 7  94510358.74145  23080390.617                    23080396.914
        47.000          30.300
                  87571161.757 6  21025670.500                    21025672.395
                        41.700
                  90527776.243 6  21835002.703                    21835006.973
                        38.900
                  80214984.670 6  19313600.820                    19313601.176
                        41.500
                  88792145.696 5  21371242.781                    21371244.000
                        35.600
                  87066211.893 6  20919091.367                    20919093.676
                        41.200
                  82663888.495 6  19910227.992                    19910229.344
                        39.400
                  94866586.646 6  22801249.867                    22801249.852
                        36.100
 108536673.618 7  84574043.31245  20653842.484                    20653845.188
        46.800          31.300
 123050406.901 7  95883463.03844  23415715.016                    23415721.227
        43.900          29.300
 120866233.218 7  94181495.13346  23000080.430                    23000087.797
        47.200          36.200
 115448749.774 7  89960091.45646  21969166.938                    21969172.477
        46.900          39.400
 117702676.124 7  91716394.58045  22398076.141                    22398081.270
        45.500          31.300
 117316079.180 8  91415138.08046  22324507.102                    22324510.996
        48.500          36.900
 125977066.232 7  98163978.58345  23972640.883                    23972647.691
        44.400          30.100
 117500825.209 7  91559094.48245  22359662.477                    22359665.598
        45.000          32.300
 18  3 13 14 42 56.0000000  0 19R01G19G22G25R08R10R09R16R17R18R19G12
                                G06G03G32G24G17G01G14
                  86330516.582 6  20764173.891                    20764176.648
                        37.900
 111606030.109 7  86965944.14845  21237969.664                    21237971.641
        45.900          34.300
 121136005.022 7  94391681.91545  23051414.141                    23051416.461
        47.100          33.400
 121285074.461 7  94507914.46244  23079793.445                    23079799.660
        47.200          29.100
                  87573390.709 6  21026205.516                    21026207.492
                        41.400
                  90524969.124 6  21834326.109                    21834330.039
                        39.500
                  80215045.647 6  19313615.805                    19313615.871
                        41.500
                  88795447.711 5  21372037.359                    21372038.480
                        35.900
                  87068735.665 6  20919696.961                    20919699.801
                        41.300
                  82663150.896 6  19910050.555                    19910051.801
                        39.200
                  94863398.431 6  22800483.609                    22800483.211
                        36.200
 108535726.424 7  84573305.23345  20653662.508                    20653664.887
        47.200          31.600
 123047646.843 7  95881312.34145  23415190.492                    23415196.082
        44.600          30.000
 120864836.309 7  94180406.62546  22999814.727                    22999822.211
        46.900          36.000
 115449815.636 7  89960921.99146  21969369.602                    21969375.109
        47.200          39.500
 117706103.462 7  91719065.25945  22398728.211                    22398733.570
        45.800          31.500
 117318424.484 8  91416965.58546  22324953.375                    22324957.496
        48.300          36.600
 125980673.697 7  98166789.59744  23973327.391                    23973334.125
        44.600          29.600
 117499868.958 7  91558349.34645  22359480.227                    22359483.809
        44.700          31.900
 18  3 13 14 42 57.0000000  0 19R01G19G22G25R08R10R09R16R17R18R19G12
                                G06G03G32G24G17G01G14
                  86329748.911 6  20763988.789                    20763992.871
                        37.100
 111607228.831 7  86966878.20345  21238197.656                    21238199.563
        46.400          34.400
 121136078.883 7  94391739.46245  23051428.273                    23051430.871
        47.200          33.400
 121281938.015 7  94505470.47345  23079196.828                    23079202.777
        46.500          30.200
                  87575620.347 6  21026740.789                    21026741.992
                        41.200
                  90522162.312 6  21833648.086                    21833653.113
                        39.600
                  80215107.334 6  19313630.344                    19313630.836
                        41.600
                  88798750.127 6  21372832.070                    21372833.852
                        36.400
                  87071260.011 6  20920305.078                    20920306.199
                        41.100
                  82662414.067 6  19909873.258                    19909874.660
                        39.400
                  94860210.496 6  22799717.922                    22799717.918
                        37.000
 108534779.997 7  84572567.75945  20653482.047                    20653484.996
        47.200          30.800
 123044887.214 7  95879161.94944  23414664.734                    23414670.777
        44.400          29.500
 120863440.049 7  94179318.63245  22999548.867                    22999555.914
        47.100          35.800
 115450882.264 7  89961753.11446  21969572.508                    21969578.363
        46.900          39.100
 117709531.254 7  91721736.28845  22399380.008                    22399385.758
        45.700          32.100
 117320770.383 8  91418793.55046  22325399.398                    22325403.531
        48.200          36.800
 125984281.635 7  98169600.97845  23974014.102                    23974020.637
        43.800          30.300
 117498913.370 7  91557604.72945  22359298.469                    22359302.254
        45.200          32.300
 18  3 13 14 42 58.0000000  0 19R01G19G22G25R08R10R09R16R17R18R19G12
                                G06G03G32G24G17G01G14
                  86328981.956 6  20763804.359                    20763808.500
                        37.000
 111608428.318 7  86967812.85445  21238426.172                    21238427.461
        46.400          34.300
 121136153.381 7  94391797.50245  23051442.359                    23051444.746
        47.300          33.400
 121278801.915 7  94503026.75144  23078599.836                    23078606.113
        46.100          29.900
                  87577850.625 6  21027276.695                    21027277.441
                        41.900
                  90519355.788 6  21832971.219                    21832976.043
                        39.200
                  80215169.711 6  19313645.617                    19313645.961
                        41.700
                  88802052.879 5  21373628.414                    21373628.434
                        35.900
                  87073784.945 6  20920910.500                    20920912.410
                        40.900
                  82661677.959 6  19909696.008                    19909697.375
                        39.700
                  94857022.777 6  22798951.570                    22798951.063
                        36.500
 108533834.227 7  84571830.79045  20653302.328                    20653304.727
        46.300          31.500
 123042128.013 7  95877011.87844  23414138.875                    23414146.195
        43.400          29.300
 120862044.444 7  94178231.15645  22999283.102                    22999290.449
        47.200          35.600
 115451949.614 7  89962584.80546  21969775.438                    21969781.254
        47.000          38.600
 117712959.495 7  91724407.67845  22400031.617                    22400038.277
        44.900          31.900
 117323116.813 8  91420621.92846  22325846.742                    22325850.063
        48.400          37.200
 125987889.952 7  98172412.64645  23974700.664                    23974707.492
        43.900          30.000
 117497958.410 7  91556860.60645  22359116.766                    22359119.984
        45.000          32.100
 18  3 13 14 42 59.0000000  0 19R01G19G22G25R08R10R09R16R17R18R19G12
                                G06G03G32G24G17G01G14
                  86328215.701 6  20763619.391                    20763623.547
                        37.000
 111609628.560 7  86968748.09245  21238655.156                    21238655.965
        46.600          34.700
 121136228.538 7  94391856.06745  23051456.336                    23051459.094
        47.300          33.400
 121275666.162 7  94500583.30744  23078002.906                    23078008.863
        45.800          29.600
                  87580081.507 6  21027813.750                    21027813.004
                        41.900
                  90516549.606 6  21832295.563                    21832299.367
                        39.400
                  80215232.726 6  19313660.453                    19313660.645
                        41.600
                  88805355.915 5  21374422.789                    21374423.535
                        35.800
                  87076310.408 6  20921517.055                    20921519.199
                        40.500
                  82660942.553 6  19909518.273                    19909519.602
                        39.400
                  94853835.303 6  22798185.938                    22798185.176
                        36.000
 108532889.148 7  84571094.36645  20653122.336                    20653124.848
        46.500          31.300
 123039369.170 7  95874862.09444  23413612.570                    23413620.914
        42.200          28.600
 120860649.430 7  94177144.13745  22999017.320                    22999024.875
        46.900          35.300
 115453017.657 7  89963417.03946  21969978.641                    21969984.543
        47.000          38.400
 117716388.172 7  91727079.38645  22400683.438                    22400690.859
        44.000          32.100
 117325463.814 8  91422450.74946  22326293.234                    22326296.621
        48.200          36.600
 125991498.721 7  98175224.68044  23975387.328                    23975393.984
        43.900          29.000
 117497004.049 7  91556116.94945  22358934.539                    22358938.496
        44.800          31.400
 18  3 13 14 43  0.0000000  0 19R01G19G22G25R08R10R09R16R17R18R19G12
                                G06G03G32G24G17G01G14
                  86327450.176 6  20763435.859                    20763440.309
                        36.900
 111610829.560 7  86969683.91345  21238883.117                    21238884.441
        46.800          34.700
 121136304.362 7  94391915.16545  23051470.984                    23051473.527
        47.500          33.600
 121272530.733 7  94498140.11945  23077406.469                    23077412.168
        46.200          31.300
                  87582312.999 7  21028349.813                    21028348.887
                        42.100
                  90513743.681 6  21831618.258                    21831622.762
                        39.400
                  80215296.424 6  19313676.453                    19313676.289
                        41.400
                  88808659.286 6  21375218.484                    21375218.598
                        36.000
                  87078836.460 6  20922123.820                    20922126.434
                        40.400
                  82660207.836 6  19909342.039                    19909343.016
                        39.700
                  94850648.088 5  22797419.609                    22797418.891
                        34.600
 108531944.771 7  84570358.48545  20652942.852                    20652945.469
        46.800          31.500
 123036610.758 7  95872712.68944  23413088.992                    23413096.059
        42.500          28.900
 120859255.068 7  94176057.62245  22998752.758                    22998759.859
        46.900          34.800
 115454086.402 7  89964249.82246  21970181.266                    21970187.758
        47.400          38.700
 117719817.261 7  91729751.39345  22401336.133                    22401343.113
        43.300          32.000
 117327811.347 8  91424279.99746  22326739.742                    22326743.602
        48.700          36.900
 125995107.889 7  98178037.00944  23976073.727                    23976080.844
        43.700          28.900
 117496050.294 7  91555373.77145  22358753.406                    22358757.191
        44.900          31.800
 18  3 13 14 43  1.0000000  0 19R01G19G22G25R08R10R09R16R17R18R19G12
                                G06G03G32G24G17G01G14
                  86326685.366 6  20763251.188                    20763255.961
                        36.800
 111612031.313 7  86970620.32945  21239112.188                    21239113.137
        47.200          34.200
 121136380.810 7  94391974.74045  23051485.648                    23051487.953
        47.500          32.700
 121269395.643 7  94495697.20244  23076810.055                    23076815.746
        45.800          29.400
                  87584545.118 6  21028884.391                    21028885.488
                        41.700
                  90510938.051 6  21830939.758                    21830946.066
                        40.500
                  80215360.820 6  19313692.328                    19313691.723
                        41.400
                  88811963.035 6  21376014.258                    21376014.211
                        36.100
                  87081363.048 6  20922731.305                    20922733.395
                        40.500
                  82659473.859 6  19909165.031                    19909166.203
                        38.900
                  94847461.052 5  22796652.828                    22796652.762
                        35.200
 108531001.071 7  84569623.13545  20652763.688                    20652765.738
        46.700          31.200
 123033852.737 7  95870563.60244  23412564.930                    23412571.016
        43.400          29.000
 120857861.315 7  94174971.57845  22998487.273                    22998494.246
        47.100          35.500
 115455155.868 7  89965083.17546  21970384.789                    21970391.195
        47.700          39.400
 117723246.779 7  91732423.73745  22401988.547                    22401995.445
        43.700          32.000
 117330159.392 8  91426109.63346  22327187.195                    22327190.176
        49.200          37.200
 125998717.432 7  98180849.64144  23976760.953                    23976768.117
        43.300          28.300
 117495097.188 7  91554631.09945  22358572.805                    22358575.492
        45.000          32.300
 18  3 13 14 43  2.0000000  0 19R01G19G22G25R08R10R09R16R17R18R19G12
                                G06G03G32G24G17G01G14
                  86325921.286 6  20763068.156                    20763072.094
                        37.200
 111613233.855 7  86971557.34845  21239340.922                    21239342.156
        47.300          34.800
 121136457.960 7  94392034.85445  23051500.383                    23051502.668
        47.300          32.800
 121266260.899 7  94493254.56644  23076213.203                    23076219.215
        44.700          28.100
                  87586777.848 6  21029420.258                    21029421.520
                        40.900
                  90508132.779 6  21830264.945                    21830269.102
                        39.600
                  80215425.890 6  19313707.523                    19313707.617
                        41.300
                  88815267.173 6  21376807.859                    21376809.594
                        36.400
                  87083890.210 6  20923337.914                    20923340.602
                        41.000
                  82658740.598 6  19908987.625                    19908989.289
                        39.000
                  94844274.258 5  22795886.797                    22795887.566
                        35.100
 108530058.064 7  84568888.31945  20652584.539                    20652586.059
        47.500          32.100
 123031095.120 7  95868414.81544  23412039.367                    23412046.559
        42.800          29.700
 120856468.209 7  94173886.03445  22998221.500                    22998229.063
        47.000          35.100
 115456226.063 7  89965917.09746  21970588.484                    21970595.105
        47.100          37.800
 117726676.754 7  91735096.42345  22402642.938                    22402648.391
        43.200          31.900
 117332507.995 8  91427939.70846  22327633.688                    22327637.426
        49.100          37.500
 126002327.414 7  98183662.61344  23977447.930                    23977454.695
        43.700          28.900
 117494144.699 7  91553888.89645  22358391.656                    22358394.449
        45.500          31.600
 18  3 13 14 43  3.0000000  0 19R01G19G22G25R08R10R09R16R17R18R19G12
                                G06G03G32G24G17G01G14
                  86325157.862 6  20762884.914                    20762888.168
                        37.400
 111614437.084 7  86972494.91245  21239569.789                    21239570.867
        47.800          34.400
 121136535.665 7  94392095.40345  23051515.508                    23051517.594
        47.500          32.000
 121263126.518 7  94490812.20545  23075617.289                    23075622.605
        47.100          32.500
                  87589011.174 6  21029956.016                    21029957.379
                        40.200
                  90505327.791 5  21829589.031                    21829592.715
                        35.700
                  80215491.601 6  19313723.742                    19313723.195
                        41.900
                  88818571.581 5  21377604.344                    21377604.266
                        35.600
                  87086417.923 6  20923946.336                    20923948.148
                        41.100
                  82658008.005 6  19908812.117                    19908813.148
                        38.400
                  94841087.619 6  22795119.438                    22795121.484
                        37.100
 108529115.713 7  84568154.01145  20652404.758                    20652407.441
        47.000          31.200
 123028337.819 7  95866266.27944  23411514.781                    23411521.910
        43.500          28.800
 120855075.678 7  94172800.94445  22997956.984                    22997964.395
        46.700          34.900
 115457296.902 7  89966751.51646  21970792.953                    21970798.652
        46.900          36.100
 117730107.100 7  91737769.40945  22403294.555                    22403301.000
        42.300          32.100
 117334857.087 8  91429770.17146  22328080.641                    22328084.289
        49.100          37.700
 126005937.722 7  98186475.83944  23978134.969                    23978141.422
        43.700          28.900
 117493192.814 7  91553147.15744  22358210.398                    22358213.160
        44.300          29.700
 18  3 13 14 43  4.0000000  0 19R01G19G22G25R08R10R09R16R17R18R19G12
                                G06G03G32G24G17G01G14
                  86324395.213 5  20762700.977                    20762704.965
                        35.700
 111615641.132 7  86973433.11645  21239798.625                    21239799.895
        47.500          34.100
 121136614.071 7  94392156.50344  23051530.602                    23051532.484
        46.100          29.700
 121259992.382 7  94488370.03944  23075020.906                    23075026.191
        45.800          29.900
                  87591245.110 7  21030491.734                    21030494.082
                        42.800
                  90502522.990 6  21828910.406                    21828916.066
                        40.600
                  80215557.994 6  19313739.086                    19313738.754
                        41.200
                  88821876.452 6  21378399.672                    21378400.461
                        36.100
                  87088946.232 6  20924553.563                    20924555.477
                        41.500
                  82657276.138 6  19908635.469                    19908637.004
                        39.600
                  94837901.416 5  22794353.711                    22794355.355
                        35.800
 108528174.063 7  84567420.24745  20652224.961                    20652227.934
        47.000          31.900
 123025580.936 7  95864118.06344  23410990.359                    23410997.012
        42.700          29.800
 120853683.803 7  94171716.36945  22997692.266                    22997699.152
        47.000          35.800
 115458368.445 8  89967586.47646  21970996.727                    21971002.555
        49.300          40.900
 117733537.877 7  91740442.73945  22403947.891                    22403954.219
        42.900          32.300
 117337206.746 8  91431601.07046  22328527.539                    22328531.691
        48.500          36.800
 126009548.450 7  98189289.39044  23978821.891                    23978828.863
        43.200          28.300
 117492241.508 6  91552405.87544  22358029.273                    22358032.402
        40.400          25.600
 18  3 13 14 43  5.0000000  0 19R01G19G22G25R08R10R09R16R17R18R19G12
                                G06G03G32G24G17G01G14
                  86323633.160 5  20762517.984                    20762521.273
                        34.600
 111616845.895 7  86974371.87945  21240027.859                    21240029.430
        47.400          35.600
 121136693.061 6  94392218.04343  23051544.656                    23051547.355
        41.500          21.800
 121256858.633 7  94485928.17745  23074424.508                    23074429.855
        46.100          31.400
                  87593479.658 6  21031028.992                    21031030.438
                        41.500
                  90499718.493 6  21828233.977                    21828239.551
                        39.600
                  80215625.028 6  19313755.570                    19313755.051
                        41.800
                  88825181.547 6  21379193.406                    21379195.559
                        36.600
                  87091475.049 6  20925161.773                    20925163.031
                        40.800
                  82656544.924 6  19908458.984                    19908460.551
                        38.700
                  94834715.220 5  22793588.188                    22793590.277
                        35.100
 108527233.015 7  84566686.95945  20652045.836                    20652048.777
        47.300          31.300
 123022824.397 7  95861970.11544  23410464.914                    23410472.777
        42.100          27.900
 120852292.623 7  94170632.32544  22997426.859                    22997434.703
        43.500          26.600
 115459440.670 8  89968421.96546  21971200.867                    21971206.277
        48.300          38.600
 117736969.094 7  91743116.40545  22404600.891                    22404606.848
        43.400          32.300
 117339556.871 8  91433432.33845  22328974.758                    22328978.559
        48.800          35.700
 126013159.58316                  23979509.594
        37.900
 117491290.806 7  91551665.06645  22357848.102                    22357851.750
        44.700          32.300
 18  3 13 14 43  6.0000000  0 19R01G19G22G25R08R10R09R16R17R18R19G12
                                G06G03G32G24G17G01G14
                  86322871.875 6  20762334.461                    20762338.281
                        36.800
 111618051.418 7  86975311.22445  21240257.797                    21240258.949
        47.000          32.400
 121136772.777 7  94392280.14345  23051560.672                    23051562.207
        47.200          34.500
 121253725.232 7  94483486.57844  23073827.977                    23073833.969
        45.600          29.900
                  87595714.854 6  21031565.438                    21031566.734
                        41.600
                  90496914.348 6  21827559.727                    21827563.367
                        39.800
                  80215692.694 6  19313771.727                    19313771.563
                        40.900
                  88828487.092 6  21379988.922                    21379991.715
                        36.700
                  87094004.364 6  20925769.305                    20925771.117
                        39.900
                  82655814.441 6  19908283.156                    19908285.105
                        39.400
                  94831529.284 5  22792821.469                    22792823.824
                        34.600
 108526292.742 7  84565954.28245  20651866.727                    20651869.781
        47.100          31.200
 123020068.226 7  95859822.46344  23409940.477                    23409947.988
        42.700          29.900
 120850901.864 7  94169548.60845  22997162.805                    22997169.531
        46.300          32.400
 115460513.614 8  89969258.02546  21971405.070                    21971410.875
        48.600          38.800
 117740400.706 7  91745790.38345  22405253.617                    22405260.336
        42.800          31.000
 117341907.615 7  91435264.09045  22329422.625                    22329426.051
        47.200          33.800
 126016771.23217                  23980196.031
        42.900
 117490340.741 7  91550924.75045  22357667.063                    22357670.992
        44.700          32.400
 18  3 13 14 43  7.0000000  0 19R01G19G22G25R08R10R09R16R17R18R19G12
                                G06G03G32G24G17G01G14
                  86322111.268 5  20762151.766                    20762155.543
                        35.800
 111619257.731 7  86976251.20145  21240487.484                    21240488.570
        46.300          32.300
 121136853.090 7  94392342.74245  23051576.242                    23051577.820
        47.500          34.500
 121250592.122 7  94481045.19445  23073232.242                    23073237.680
        46.900          32.600
                  87597950.616 6  21032102.250                    21032104.309
                        41.900
                  90494110.498 6  21826884.063                    21826887.426
                        40.200
                  80215761.034 6  19313787.984                    19313788.332
                        41.700
                  88831792.894 5  21380785.711                    21380786.996
                        35.400
                  87096534.313 7  20926378.047                    20926379.473
                        42.200
                  82655084.681 6  19908107.289                    19908109.426
                        38.900
                  94828343.614 5  22792056.586                    22792058.422
                        35.200
 108525353.081 7  84565222.06745  20651688.336                    20651691.375
        47.000          32.800
 123017312.540 6  95857675.18544  23409417.289                    23409423.746
        40.900          24.500
 120849511.843 7  94168465.49045  22996898.242                    22996905.078
        46.800          35.300
 115461587.270 8  89970094.63446  21971609.188                    21971615.566
        48.500          39.700
 117743832.774 7  91748464.71345  22405907.781                    22405913.234
        43.000          31.100
 117344258.834 7  91437096.21445  22329869.688                    22329873.266
        47.900          34.600
 126020383.159 7  98197732.00954  23980883.906                    23980891.023
        42.700          27.700
 117489391.283 7  91550184.92345  22357486.539                    22357490.246
        43.900          31.100
 18  3 13 14 43  8.0000000  0 19R01G19G22G25R08R10R09R16R17R18R19G12
                                G06G03G32G24G17G01G14
                  86321351.390 6  20761969.352                    20761972.910
                        37.000
 111620464.826 7  86977191.80545  21240717.109                    21240718.051
        45.400          30.800
 121136934.053 7  94392405.84945  23051591.273                    23051593.316
        47.300          34.400
 121247459.359 7  94478604.08545  23072635.719                    23072641.891
        47.000          30.900
                  87600187.012 6  21032639.672                    21032640.922
                        41.300
                  90491306.874 6  21826204.094                    21826210.820
                        39.100
                  80215830.026 6  19313804.992                    19313804.461
                        41.200
                  88835099.126 6  21381580.070                    21381583.371
                        36.000
                  87099064.775 6  20926984.992                    20926986.605
                        40.600
                  82654355.606 6  19907931.383                    19907933.422
                        37.000
                  94825158.139 6  22791291.969                    22791292.512
                        36.700
 108524414.120 7  84564490.41245  20651509.813                    20651512.699
        47.000          32.100
 123014557.102 7  95855528.09844  23408893.234                    23408899.430
        43.100          25.800
 120848122.398 7  94167382.82045  22996633.266                    22996640.180
        47.300          35.700
 115462661.615 8  89970931.78546  21971813.406                    21971819.617
        48.400          39.000
 117747265.218 7  91751139.35145  22406560.969                    22406565.922
        44.900          31.900
 117346610.683 7  91438928.82445  22330317.461                    22330320.953
        47.100          33.100
 126023995.538 6  98200546.84444  23981571.203                    23981578.348
        41.600          28.100
 117488442.407 7  91549445.55045  22357306.531                    22357309.676
        44.500          32.300
 18  3 13 14 43  9.0000000  0 19R01G19G22G25R08R10R09R16R17R18R19G12
                                G06G03G32G24G17G01G14
                  86320592.205 6  20761785.797                    20761790.168
                        37.000
 111621672.658 7  86978132.99645  21240946.961                    21240948.074
        45.800          30.900
 121137015.658 7  94392469.46245  23051606.719                    23051608.957
        47.500          33.700
 121244326.953 7  94476163.24545  23072039.867                    23072045.809
        46.700          31.100
                  87602423.995 6  21033176.680                    21033177.590
                        41.100
                  90488503.605 6  21825530.391                    21825533.898
                        38.900
                  80215899.688 6  19313821.469                    19313822.023
                        40.900
                  88838405.669 6  21382376.531                    21382378.477
                        36.500
                  87101595.797 6  20927593.914                    20927594.844
                        40.500
                  82653627.262 6  19907756.367                    19907758.078
                        38.400
                  94821972.879 5  22790527.711                    22790527.223
                        35.800
 108523475.859 7  84563759.30845  20651331.555                    20651334.121
        47.400          32.100
 123011802.126 7  95853381.35444  23408369.094                    23408375.281
        44.000          27.300
 120846733.598 7  94166300.63445  22996368.703                    22996375.785
        46.800          34.800
 115463736.662 8  89971769.50146  21972017.922                    21972024.285
        48.300          37.900
 117750698.082 7  91753814.31445  22407214.922                    22407219.246
        45.700          30.400
 117348962.974 7  91440761.77245  22330764.336                    22330768.215
        46.700          32.500
 126027608.292 6  98203361.98044  23982258.625                    23982265.652
        41.400          28.000
 117487494.179 7  91548706.67045  22357126.172                    22357128.770
        45.300          32.200
 18  3 13 14 43 10.0000000  0 19R01G19G22G25R08R10R09R16R17R18R19G12
                                G06G03G32G24G17G01G14
                  86319833.735 6  20761603.414                    20761607.918
                        37.500
 111622881.252 7  86979074.77145  21241177.133                    21241177.766
        45.800          30.200
 121137097.928 7  94392533.56945  23051622.328                    23051624.621
        47.300          33.900
 121241194.872 7  94473722.65945  23071443.320                    23071450.063
        46.600          31.500
                  87604661.582 6  21033713.516                    21033714.762
                        41.400
                  90485700.659 6  21824856.891                    21824858.641
                        39.200
                  80215969.992 6  19313838.352                    19313838.340
                        41.100
                  88841712.526 6  21383174.078                    21383174.180
                        36.900
                  87104127.385 6  20928202.000                    20928203.375
                        41.100
                  82652899.603 6  19907581.109                    19907582.527
                        39.300
                  94818787.837 5  22789761.805                    22789761.902
                        34.200
 108522538.254 7  84563028.70245  20651153.008                    20651155.523
        47.200          31.900
 123009047.511 7  95851234.87344  23407843.922                    23407851.094
        44.300          28.400
 120845345.398 7  94165218.90945  22996104.914                    22996111.184
        46.600          34.400
 115464812.395 8  89972607.73146  21972222.719                    21972229.289
        48.800          38.100
 117754131.357 7  91756489.60445  22407867.703                    22407872.414
        45.300          30.700
 117351315.814 7  91442595.15445  22331212.422                    22331216.129
        47.200          33.500
 126031221.434 6  98206177.41144  23982945.570                    23982953.324
        41.400          27.900
 117486546.549 7  91547968.25445  22356945.750                    22356948.809
        45.000          32.100
 18  3 13 14 43 11.0000000  0 19R01G19G22G25R08R10R09R16R17R18R19G12
                                G06G03G32G24G17G01G14
                  86319076.012 6  20761421.852                    20761425.160
                        37.400
 111624090.648 7  86980017.16945  21241407.273                    21241408.063
        45.800          30.600
 121137180.834 7  94392598.17445  23051638.180                    23051640.234
        47.800          33.900
 121238063.154 7  94471282.36345  23070847.242                    23070854.043
        47.100          31.700
                  87606899.788 6  21034251.445                    21034252.633
                        41.600
                  90482897.923 6  21824177.813                    21824183.277
                        39.600
                  80216040.961 6  19313855.555                    19313855.250
                        41.200
                  88845019.659 6  21383968.695                    21383969.969
                        37.200
                  87106659.530 6  20928810.086                    20928811.430
                        40.700
                  82652172.644 6  19907405.570                    19907408.230
                        38.500
                  94815602.973 5  22788996.078                    22788995.922
                        32.600
 108521601.342 7  84562298.63345  20650974.375                    20650977.309
        47.000          31.800
 123006293.261 7  95849088.66644  23407319.906                    23407326.723
        44.500          29.800
 120843957.862 7  94164137.70845  22995840.969                    22995846.902
        46.900          34.000
 115465888.827 8  89973446.50046  21972427.711                    21972433.652
        48.800          38.200
 117757565.070 7  91759165.26045  22408519.961                    22408525.836
        44.900          30.900
 117353669.213 7  91444428.97245  22331660.078                    22331664.070
        47.000          33.900
 126034835.027 6  98208993.20044  23983633.797                    23983640.512
        40.900          26.900
 117485599.574 7  91547230.33645  22356765.352                    22356768.668
        44.700          31.900
 18  3 13 14 43 12.0000000  0 19R01G19G22G25R08R10R09R16R17R18R19G12
                                G06G03G32G24G17G01G14
                  86318318.980 6  20761239.531                    20761243.520
                        37.300
 111625300.747 7  86980960.10445  21241637.570                    21241638.512
        45.800          30.400
 121137264.385 8  94392663.27745  23051654.516                    23051656.285
        48.200          34.700
 121234931.708 7  94468842.27945  23070251.297                    23070258.047
        46.500          30.300
                  87609138.590 6  21034789.430                    21034789.809
                        41.500
                  90480095.466 6  21823499.258                    21823506.461
                        39.100
                  80216112.633 6  19313872.422                    19313872.293
                        41.400
                  88848327.166 6  21384765.359                    21384766.523
                        36.800
                  87109192.221 6  20929418.672                    20929420.656
                        40.800
                  82651446.416 6  19907230.906                    19907232.879
                        38.900
                  94812418.341 5  22788230.648                    22788230.125
                        33.000
 108520665.093 7  84561569.08645  20650796.156                    20650799.066
        46.800          31.800
 123003539.428 7  95846942.80044  23406795.953                    23406802.586
        44.900          29.100
 120842570.917 7  94163056.97145  22995576.859                    22995582.844
        46.700          33.200
 115466965.975 8  89974285.83546  21972633.391                    21972638.973
        49.100          38.700
 117760999.129 7  91761841.17745  22409173.117                    22409179.242
        44.100          31.200
 117356023.099 7  91446263.15745  22332108.773                    22332112.082
        46.900          33.900
 126038448.951 6  98211809.24644  23984320.922                    23984328.461
        41.100          25.300
 117484653.128 7  91546492.82745  22356584.641                    22356588.684
        44.400          30.900
 18  3 13 14 43 13.0000000  0 19R01G19G22G25R08R10R09R16R17R18R19G12
                                G06G03G32G24G17G01G14
                  86317562.679 6  20761058.883                    20761061.355
                        37.900
 111626511.597 7  86981903.62145  21241867.578                    21241868.828
        45.500          30.800
 121137348.574 7  94392728.87845  23051670.227                    23051672.402
        47.800          34.900
 121231800.640 7  94466402.49145  23069654.727                    23069661.922
        45.900          31.100
                  87611378.033 6  21035327.391                    21035327.941
                        41.800
                  90477293.377 6  21822826.742                    21822830.406
                        39.000
                  80216184.967 6  19313890.563                    19313890.469
                        41.300
                  88851635.021 6  21385561.586                    21385563.148
                        36.200
                  87111725.485 6  20930026.734                    20930028.559
                        40.400
                  82650720.910 6  19907056.125                    19907057.289
                        38.700
                  94809233.926 5  22787465.922                    22787464.055
                        34.100
 108519729.521 7  84560840.07545  20650618.297                    20650620.938
        46.900          32.100
 123000785.968 7  95844797.22645  23406271.586                    23406279.047
        43.900          30.400
 120841184.617 7  94161976.74045  22995312.422                    22995318.461
        46.400          33.300
 115468043.832 8  89975125.72146  21972838.469                    21972843.855
        49.300          39.100
 117764433.664 7  91764517.45445  22409826.469                    22409832.973
        43.100          31.200
 117358377.538 7  91448097.77945  22332556.063                    22332559.773
        47.000          34.400
 126042063.304 6  98214625.60444  23985008.945                    23985016.203
        41.100          27.300
 117483707.340 7  91545755.83645  22356404.555                    22356408.953
        44.500          31.800
 18  3 13 14 43 14.0000000  0 19R01G19G22G25R08R10R09R16R17R18R19G12
                                G06G03G32G24G17G01G14
                  86316807.108 6  20760876.688                    20760879.590
                        37.700
 111627723.260 7  86982847.77145  21242098.219                    21242099.176
        44.900          31.100
 121137433.456 7  94392795.02145  23051685.969                    23051688.543
        47.900          34.600
 121228669.888 7  94463962.95545  23069059.375                    23069066.414
        45.800          30.800
                  87613618.124 7  21035864.055                    21035865.527
                        42.000
                  90474491.578 6  21822151.828                    21822154.750
                        39.600
                  80216258.016 6  19313907.727                    19313907.957
                        41.400
                  88854943.256 6  21386358.258                    21386358.363
                        36.000
                  87114259.330 6  20930635.461                    20930637.586
                        40.200
                  82649996.149 6  19906881.609                    19906883.090
                        39.200
                  94806049.775 5  22786700.977                    22786699.848
                        34.800
 108518794.695 7  84560111.63845  20650440.883                    20650443.074
        47.100          31.900
 122998032.913 7  95842651.97645  23405747.313                    23405755.129
        43.700          30.400
 120839798.936 7  94160896.99045  22995049.273                    22995054.410
        46.200          32.300
 115469122.403 8  89975966.15846  21973043.539                    21973048.902
        48.900          39.200
 117767868.633 7  91767194.04945  22410479.688                    22410486.762
        42.800          31.500
 117360732.551 7  91449932.84445  22333005.133                    22333008.309
        47.200          35.400
 126045678.100 6  98217442.31744  23985697.391                    23985703.969
        41.300          27.400
 117482762.190 7  91545019.37045  22356224.688                    22356228.320
        44.300          31.800
