     2.11           OBSERVATION DATA    M (MIXED)           RINEX VERSION / TYPE
teqc  2018Mar15                         20180319 14:17:34UTCPGM / RUN BY / DATE
Linux 2.6.32-573.12.1.x86_64|x86_64|gcc -static|Linux 64|=+ COMMENT
END OF STATIC MODE OBSERVATION                              COMMENT
BIT 2 OF LLI FLAGS DATA COLLECTED UNDER A/S CONDITION       COMMENT
-Unknown-                                                   MARKER NAME
4625                                                        MARKER NUMBER
-Unknown-           -Unknown-                               OBSERVER / AGENCY
5127468778          TRIMBLE             4.63                REC # / TYPE / VERS
47477114                            NONE                    ANT # / TYPE
  5853922.5948  2532236.5302        0.0000                  APPROX POSITION XYZ
        0.0000        0.0000        0.0000                  ANTENNA: DELTA H/E/N
     1     1                                                WAVELENGTH FACT L1/2
     7    L1    L2    C1    P1    P2    S1    S2            # / TYPES OF OBSERV
    18                                                      LEAP SECONDS
 SNR is mapped to RINEX snr flag value [0-9]                COMMENT
  L1 & L2: min(max(int(snr_dBHz/6), 0), 9)                  COMMENT
  2018     3    15    14     7   50.0000000     GPS         TIME OF FIRST OBS
                                                            END OF HEADER
 18  3 15 14  7 50.0000000  0 17R01R02G25G12R12R10R11G14R20G17G22G01
                                R19G24G32R03G19
                  97787671.733 5  23519833.648                    23519836.465
                        32.100
                  85497907.397 6  20600063.250                    20600066.781
                        37.200
 128589062.953 7 100199403.41044  24469712.016                    24469718.754
        44.000          27.200
 112769642.264 8  87872335.56645  21459318.031                    21459322.434
        48.100          33.300
                                  22947003.445

                  84621591.438 5  20410453.070                    20410455.672
                        35.600
                  82645100.186 6  19884733.820                    19884735.926
                        38.300
 121684675.402 7  94819135.60544  23155803.680                    23155807.230
        43.800          26.500
                  87557188.044 6  21051815.141                    21051817.781
                        36.800
 116129486.500 8  90490547.22445  22098718.344                    22098722.125
        49.100          33.500
 123707514.975 7  96395442.98444  23540753.102                    23540754.988
        43.600          29.400
 122627826.788 6  95554239.30843  23335314.633                    23335321.754
        38.800          21.800
                  85746599.669 6  20609259.617                    20609259.367
                        37.400
 114652919.076 8  89339949.24846  21817726.109                    21817732.008
        49.700          36.500
 116513859.023 7  90790202.51545  22171850.406                    22171856.023
        45.600          34.100
                  91429018.360 6  21959586.203                    21959589.074
                        36.000
 112550378.458 7  87701777.26145  21417624.328                    21417626.238
        46.000          34.100
 18  3 15 14  7 51.0000000  0 17R01R02G25G12R12R10R11G14R20G17G22G01
                                R19G24G32R03G19
                  97791444.854 5  23520740.938                    23520744.520
                        32.800
                  85498954.502 6  20600316.789                    20600319.094
                        40.300
 128585487.197 7 100196617.11044  24469031.547                    24469038.688
        44.200          28.100
 112767656.762 8  87870788.43645  21458942.125                    21458943.957
        49.800          35.600
                                  22946263.164

                  84624078.100 6  20411051.039                    20411055.629
                        38.600
                  82644064.505 6  19884485.258                    19884486.762
                        40.700
 121682788.841 7  94817665.53844  23155444.625                    23155448.238
        43.400          26.700
                  87555207.462 6  21051337.836                    21051341.023
                        39.300
 116130867.639 8  90491623.43145  22098981.273                    22098984.609
        49.700          35.500
 123706565.247 7  96394702.92845  23540572.539                    23540574.188
        44.300          30.700
 122630628.269 6  95556422.27143  23335847.898                    23335855.117
        37.200          20.900
                  85748290.348 6  20609665.094                    20609665.535
                        39.900
 114655541.393 8  89341992.61146  21818224.711                    21818230.898
        49.100          37.600
 116513761.540 7  90790126.56345  22171832.063                    22171837.523
        45.900          35.700
                  91426860.166 6  21959068.938                    21959070.430
                        38.100
 112550304.031 7  87701719.24845  21417610.297                    21417612.039
        46.100          35.900
 18  3 15 14  7 52.0000000  0 17R01R02G25G12R12R10R11G14R20G17G22G01
                                R19G24G32R03G19
                  97795218.166 5  23521648.219                    23521652.355
                        33.300
                  85500002.345 6  20600569.297                    20600571.770
                        39.600
 128581911.627 7 100193830.95944  24468351.328                    24468358.250
        45.200          26.500
 112765671.871 8  87869241.76745  21458564.141                    21458566.914
        49.200          35.500
                                  22945522.086

                  84626565.291 6  20411651.023                    20411655.008
                        37.900
                  82643029.471 6  19884236.039                    19884238.031
                        40.800
 121680902.725 7  94816195.83544  23155086.266                    23155089.406
        44.700          27.500
                  87553227.484 6  21050862.523                    21050865.250
                        39.400
 116132249.410 8  90492700.14145  22099243.758                    22099247.609
        49.800          35.500
 123705616.146 7  96393963.37145  23540391.391                    23540393.289
        44.100          30.500
 122633430.382 6  95558605.73643  23336381.430                    23336388.121
        37.500          20.400
                  85749981.688 6  20610071.867                    20610071.836
                        40.200
 114658164.239 8  89344036.38546  21818723.773                    21818730.172
        49.500          37.100
 116513664.838 7  90790051.22246  22171814.391                    22171819.066
        47.300          36.000
                  91424702.483 6  21958550.266                    21958552.281
                        37.800
 112550230.393 7  87701661.86045  21417596.938                    21417597.785
        46.100          35.900
 18  3 15 14  7 53.0000000  0 17R01R02G25G12R12R10R11G14R20G17G22G01
                                R19G24G32R03G19
                  97798991.703 5  23522554.945                    23522559.664
                        34.000
                  85501050.947 6  20600822.203                    20600824.152
                        40.400
 128578336.296 7 100191045.00744  24467670.375                    24467677.906
        45.700          26.900
 112763687.503 8  87867695.50146  21458184.867                    21458189.176
        48.500          36.700
                                  22944781.406

                  84629052.995 6  20412252.336                    20412255.379
                        38.300
                  82641995.035 6  19883986.875                    19883988.852
                        41.300
 121679017.201 7  94814726.57244  23154727.055                    23154730.668
        44.400          28.300
                  87551248.043 6  21050385.945                    21050389.527
                        40.100
 116133631.808 8  90493777.33345  22099507.320                    22099510.512
        49.200          35.200
 123704667.652 7  96393224.31044  23540211.633                    23540212.883
        44.200          29.900
 122636233.045 6  95560789.59243  23336914.727                    23336921.563
        37.900          21.100
                  85751673.746 6  20610478.781                    20610479.055
                        40.200
 114660787.637 8  89346080.59046  21819223.383                    21819228.938
        49.600          38.100
 116513568.814 7  90789976.39345  22171795.461                    22171800.480
        47.000          35.800
                  91422545.270 6  21958031.742                    21958034.168
                        37.900
 112550157.545 7  87701605.08446  21417582.992                    21417584.379
        45.600          36.500
 18  3 15 14  7 54.0000000  0 17R01R02G25G12R12R10R11G14R20G17G22G01
                                R19G24G32R03G19
                  97802765.389 5  23523463.219                    23523467.070
                        33.600
                  85502100.250 6  20601074.742                    20601077.297
                        39.600
 128574761.093 7 100188259.13444  24466990.070                    24466997.371
        44.900          26.800
 112761703.760 8  87866149.72746  21457810.180                    21457811.648
        49.900          36.100
                                  22944040.406

                  84631541.206 6  20412851.148                    20412855.742
                        37.300
                  82640961.201 6  19883737.992                    19883740.547
                        41.000
 121677132.131 7  94813257.64944  23154368.125                    23154371.840
        43.100          27.300
                  87549269.213 6  21049910.383                    21049913.762
                        40.000
 116135014.818 8  90494855.00645  22099770.422                    22099773.965
        49.000          35.400
 123703719.658 7  96392485.62845  23540030.867                    23540032.508
        44.600          30.600
 122639036.316 6  95562973.95143  23337447.883                    23337454.883
        38.800          22.000
                  85753366.488 6  20610885.688                    20610885.309
                        40.100
 114663411.601 8  89348125.24246  21819722.508                    21819728.313
        49.800          38.200
 116513473.492 7  90789902.11045  22171777.172                    22171782.723
        46.600          35.800
                  91420388.524 6  21957514.625                    21957515.484
                        38.500
 112550085.441 7  87701548.89046  21417568.891                    21417570.387
        45.700          36.200
 18  3 15 14  7 55.0000000  0 17R01R02G25G12R12R10R11G14R20G17G22G01
                                R19G24G32R03G19
                  97806539.376 5  23524371.094                    23524375.715
                        30.800
                  85503150.275 6  20601327.656                    20601330.168
                        40.200
 128571186.173 6 100185473.51043  24466310.070                    24466316.949
        40.800          22.600
 112759720.585 8  87864604.38446  21457431.133                    21457434.895
        49.100          36.300
                                  22943299.867

                  84634029.969 6  20413451.891                    20413455.555
                        39.000
                  82639927.972 6  19883489.594                    19883491.859
                        41.800
 121675247.604 7  94811789.14644  23154009.547                    23154013.215
        43.400          28.100
                  87547290.927 6  21049435.805                    21049437.973
                        40.300
 116136398.470 8  90495933.16946  22100033.883                    22100037.320
        49.400          36.700
 123702772.341 7  96391747.45645  23539849.953                    23539852.156
        44.600          31.000
 122641840.095 6  95565158.73543  23337981.406                    23337988.332
        39.800          20.900
                  85755059.878 6  20611292.656                    20611292.848
                        40.000
 114666036.109 8  89350170.30746  21820222.531                    21820227.680
        50.000          38.400
 116513378.896 7  90789828.40646  22171758.422                    22171764.469
        46.300          36.300
                  91418232.340 6  21956996.344                    21956998.383
                        39.700
 112550014.136 7  87701493.33546  21417556.281                    21417557.219
        46.000          36.400
 18  3 15 14  7 56.0000000  0 17R01R02G25G12R12R10R11G14R20G17G22G01
                                R19G24G32R03G19
                  97810313.482 5  23525279.398                    23525283.203
                        32.200
                  85504201.076 6  20601581.156                    20601583.156
                        41.000
 128567611.316 6 100182687.94243  24465629.383                    24465636.492
        39.200          22.000
 112757737.974 8  87863059.48746  21457052.992                    21457056.855
        48.500          36.200
                                  22942557.055

                  84636519.224 6  20414052.813                    20414056.203
                        38.800
                  82638895.381 6  19883240.688                    19883243.020
                        41.900
 121673363.605 7  94810321.03445  23153651.516                    23153654.359
        44.900          30.900
                  87545313.192 6  21048959.586                    21048963.258
                        40.700
 116137782.741 8  90497011.82046  22100296.992                    22100300.766
        48.700          36.500
 123701825.579 7  96391009.70645  23539670.125                    23539671.898
        45.500          33.500
 122644644.448 6  95567343.95643  23338515.648                    23338522.379
        41.700          22.800
                  85756753.962 6  20611699.703                    20611699.305
                        40.400
 114668661.205 8  89352215.83746  21820721.391                    21820727.441
        49.100          38.100
 116513284.998 7  90789755.23846  22171740.297                    22171747.277
        46.500          36.300
                  91416076.660 6  21956478.594                    21956480.016
                        40.100
 112549943.642 7  87701438.40546  21417541.969                    21417543.883
        45.900          37.100
 18  3 15 14  7 57.0000000  0 17R01R02G25G12R12R10R11G14R20G17G22G01
                                R19G24G32R03G19
                  97814087.794 5  23526188.883                    23526191.039
                        32.500
                  85505252.628 6  20601834.117                    20601836.406
                        41.400
 128564036.702 7 100179902.54943  24464948.789                    24464956.230
        42.000          21.800
 112755755.975 8  87861515.08445  21456677.906                    21456680.137
        49.200          35.900
                                  22941817.023

                  84639009.051 6  20414651.805                    20414657.047
                        39.400
                  82637863.411 7  19882992.602                    19882994.266
                        42.300
 121671480.071 7  94808853.31745  23153292.719                    23153296.152
        43.800          30.200
                  87543336.038 6  21048483.477                    21048487.160
                        40.700
 116139167.632 8  90498090.96146  22100560.477                    22100564.313
        49.000          36.700
 123700879.466 7  96390272.47445  23539490.359                    23539491.898
        44.100          32.300
 122647449.482 6  95569529.69444  23339048.430                    23339056.391
        41.400          25.400
                  85758448.761 6  20612106.688                    20612107.355
                        40.900
 114671286.853 8  89354261.79946  21821221.328                    21821227.066
        49.300          37.500
 116513191.778 7  90789682.60446  22171722.352                    22171729.063
        46.600          37.300
                  91413921.542 6  21955960.719                    21955962.270
                        41.500
 112549873.925 7  87701384.09646  21417528.461                    21417530.598
        46.000          37.100
 18  3 15 14  7 58.0000000  0 17R01R02G25G12R12R10R11G14R20G17G22G01
                                R19G24G32R03G19
                  97817862.314 5  23527095.609                    23527098.824
                        32.900
                  85506304.859 6  20602087.703                    20602090.340
                        41.400
 128560462.297 7 100177117.30043  24464269.813                    24464276.242
        42.000          21.700
 112753774.497 8  87859971.07546  21456299.438                    21456303.387
        49.300          36.500
                                  22941076.492

                  84641499.326 6  20415253.898                    20415257.043
                        39.400
                  82636832.021 7  19882744.578                    19882746.676
                        42.300
 121669597.026 7  94807386.00845  23152934.125                    23152938.129
        44.300          30.400
                  87541359.473 6  21048009.352                    21048011.879
                        41.500
 116140553.119 8  90499170.56545  22100824.320                    22100827.730
        48.600          35.400
 123699933.852 7  96389535.63345  23539310.695                    23539312.074
        44.100          32.400
 122650254.915 6  95571715.76643  23339582.063                    23339589.293
        41.100          23.800
                  85760144.200 6  20612514.391                    20612514.738
                        40.900
 114673913.006 8  89356308.14846  21821720.711                    21821727.023
        49.600          38.400
 116513099.267 7  90789610.52246  22171704.820                    22171711.746
        46.700          37.300
                  91411766.899 6  21955443.234                    21955445.031
                        41.600
 112549804.995 7  87701330.39646  21417516.430                    21417517.293
        46.700          36.500
 18  3 15 14  7 59.0000000  0 17R01R02G25G12R12R10R11G14R20G17G22G01
                                R19G24G32R03G19
                  97821637.062 5  23528003.078                    23528006.922
                        31.600
                  85507357.820 6  20602341.617                    20602343.711
                        40.700
 128556888.043 7 100174332.15943  24463588.289                    24463596.105
        42.000          21.500
 112751793.623 8  87858427.55146  21455922.344                    21455925.660
        49.300          36.200
                                  22940335.734

                  84643990.138 6  20415854.211                    20415858.234
                        39.300
                  82635801.243 7  19882496.039                    19882498.324
                        42.300
 121667714.523 7  94805919.13644  23152575.914                    23152579.762
        42.300          29.100
                  87539383.526 6  21047534.453                    21047537.313
                        41.600
 116141939.259 8  90500250.67545  22101087.930                    22101091.613
        49.100          35.900
 123698988.893 7  96388799.29845  23539130.781                    23539132.051
        44.200          30.800
 122653061.094 6  95573902.43943  23340117.078                    23340123.816
        38.300          22.900
                  85761840.347 6  20612922.641                    20612922.508
                        41.800
 114676539.734 8  89358354.94846  21822220.594                    21822226.652
        49.400          38.500
 116513007.478 7  90789538.98646  22171687.492                    22171693.949
        46.900          37.100
                  91409612.800 6  21954926.438                    21954927.676
                        41.300
 112549736.849 7  87701277.31546  21417502.766                    21417504.422
        46.800          36.700
 18  3 15 14  8  0.0000000  0 17R01R02G25G12R12R10R11G14R20G17G22G01
                                R19G24G32R03G19
                  97825411.962 5  23528910.523                    23528914.387
                        31.900
                  85508411.496 6  20602595.539                    20602597.820
                        41.200
 128553314.063 7 100171547.21043  24462908.758                    24462915.910
        42.900          21.500
 112749813.403 8  87856884.53246  21455546.695                    21455548.980
        49.800          36.600
                                  22939595.352

                  84646481.493 6  20416454.742                    20416459.438
                        39.300
                  82634771.082 7  19882248.773                    19882250.313
                        42.100
 121665832.574 6  94804452.70944  23152217.695                    23152221.465
        41.600          29.600
                  87537408.131 6  21047059.047                    21047062.090
                        41.600
 116143326.032 8  90501331.27346  22101351.953                    22101355.473
        50.100          36.500
 123698044.545 7  96388063.43345  23538950.992                    23538952.664
        44.700          32.100
 122655867.820 6  95576089.53444  23340650.523                    23340657.602
        40.900          27.500
                  85763537.165 6  20613329.906                    20613329.977
                        41.400
 114679167.037 8  89360402.20946  21822721.117                    21822726.566
        49.700          38.600
 116512916.403 7  90789468.02146  22171670.273                    22171677.086
        46.600          37.100
                  91407459.177 6  21954408.016                    21954411.180
                        41.900
 112549669.484 7  87701224.83846  21417490.164                    21417491.469
        47.200          37.400
 18  3 15 14  8  1.0000000  0 17R01R02G25G12R12R10R11G14R20G17G22G01
                                R19G24G32R03G19
                  97829187.111 5  23529818.938                    23529822.891
                        30.400
                  85509465.888 6  20602848.891                    20602851.809
                        41.500
 128549740.213 6 100168762.40043  24462228.750                    24462235.551
        41.800          21.700
 112747833.729 8  87855341.93445  21455168.641                    21455172.352
        49.600          35.800
                                  22938854.477

                  84648973.370 6  20417056.344                    20417060.250
                        39.400
                  82633741.557 7  19882001.227                    19882002.863
                        42.100
 121663951.130 6  94802986.68044  23151859.594                    23151863.707
        41.900          28.800
                  87535433.286 7  21046583.617                    21046586.973
                        42.000
 116144713.422 8  90502412.36246  22101615.844                    22101619.180
        50.300          36.600
 123697100.744 7  96387328.00345  23538771.102                    23538772.711
        45.200          30.800
 122658675.138 6  95578277.06244  23341185.211                    23341191.641
        40.300          25.200
                  85765234.705 6  20613738.492                    20613737.727
                        41.000
 114681794.890 8  89362449.88646  21823220.508                    21823226.992
        49.800          39.000
 116512826.074 7  90789397.63346  22171653.094                    22171659.586
        45.800          37.300
                  91405306.068 6  21953890.938                    21953893.258
                        41.800
 112549602.925 7  87701172.98646  21417477.602                    21417478.871
        47.000          37.100
 18  3 15 14  8  2.0000000  0 17R01R02G25G12R12R10R11G14R20G17G22G01
                                R19G24G32R03G19
                  97832962.432 5  23530727.008                    23530730.457
                        31.200
                  85510521.032 7  20603103.945                    20603105.883
                        42.000
 128546166.538 6 100165977.72843  24461548.008                    24461555.879
        40.300          20.100
 112745854.620 8  87853799.77146  21454792.688                    21454795.609
        49.200          36.500
                                  22938113.961

                  84651465.746 6  20417657.078                    20417661.539
                        39.100
                  82632712.639 7  19881753.484                    19881755.172
                        42.400
 121662070.111 7  94801520.95644  23151501.719                    23151505.242
        42.200          29.000
                  87533459.031 7  21046109.594                    21046112.344
                        42.100
 116146101.452 8  90503493.95346  22101879.672                    22101883.129
        50.300          36.600
 123696157.604 7  96386593.09145  23538592.234                    23538593.449
        45.000          31.600
 122661482.934 6  95580464.94144  23341719.531                    23341726.160
        40.900          25.800
                  85766932.924 6  20614146.313                    20614146.902
                        41.500
 114684423.265 8  89364497.97446  21823721.383                    21823726.852
        50.200          38.600
 116512736.420 7  90789327.78246  22171636.688                    22171642.637
        45.900          37.500
                  91403153.460 6  21953375.242                    21953376.371
                        41.900
 112549537.109 7  87701121.72346  21417464.500                    21417466.242
        46.800          37.400
 18  3 15 14  8  3.0000000  0 17R01R02G25G12R12R10R11G14R20G17G22G01
                                R19G24G32R03G19
                  97836738.056 5  23531634.422                    23531639.391
                        32.400
                  85511576.943 6  20603357.734                    20603360.813
                        41.900
 128542593.191 6 100163193.35043  24460868.195                    24460875.668
        39.900          20.100
 112743876.137 8  87852258.08646  21454415.906                    21454419.188
        48.300          36.700
                                  22937374.602

                  84653958.652 6  20418259.078                    20418262.801
                        39.700
                  82631684.334 7  19881506.336                    19881507.906
                        42.000
 121660189.714 7  94800055.70145  23151144.125                    23151147.594
        43.300          30.000
                  87531485.342 7  21045634.422                    21045637.941
                        42.200
 116147490.131 8  90504576.04046  22102144.297                    22102147.883
        50.200          37.000
 123695215.033 7  96385858.60145  23538412.734                    23538413.848
        45.200          31.000
 122664291.359 7  95582653.32844  23342254.094                    23342260.211
        42.000          26.500
                  85768631.843 6  20614554.469                    20614554.844
                        41.900
 114687052.242 8  89366546.52846  21824220.945                    21824227.281
        49.900          38.700
 116512647.535 7  90789258.53146  22171620.031                    22171625.480
        46.800          37.900
                  91401001.424 7  21952858.492                    21952860.043
                        42.800
 112549472.077 7  87701071.06346  21417452.313                    21417453.785
        46.300          37.500
 18  3 15 14  8  4.0000000  0 17R01R02G25G12R12R10R11G14R20G17G22G01
                                R19G24G32R03G19
                  97840513.905 4  23532541.063                    23532547.039
                        26.900
                  85512633.614 6  20603612.109                    20603615.105
                        41.900
 128539019.980 6 100160409.04843  24460188.781                    24460196.012
        38.100          19.000
 112741898.236 8  87850716.87246  21454040.422                    21454042.891
        49.500          36.800
                                  22936637.188

                  84656452.056 6  20418860.875                    20418864.285
                        39.300
                  82630656.646 7  19881258.477                    19881260.594
                        42.500
 121658309.756 7  94798590.78645  23150786.289                    23150789.766
        43.900          30.000
                  87529512.211 7  21045159.492                    21045163.203
                        42.100
 116148879.450 8  90505658.62146  22102408.852                    22102412.219
        50.000          37.100
 123694273.077 7  96385124.59145  23538233.453                    23538234.676
        45.800          31.600
 122667100.336 6  95584842.15944  23342789.219                    23342795.441
        41.400          26.700
                  85770331.417 6  20614962.813                    20614963.113
                        41.600
 114689681.758 8  89368595.48846  21824721.930                    21824727.383
        50.500          38.800
 116512559.314 7  90789189.79446  22171604.055                    22171608.613
        46.700          36.800
                  91398849.940 7  21952340.852                    21952343.168
                        42.700
 112549407.841 7  87701021.00746  21417440.961                    21417441.695
        46.600          37.100
 18  3 15 14  8  5.0000000  0 17R01R02G25G12R12R10R11G14R20G17G22G01
                                R19G24G32R03G19
                  97844289.808 5  23533451.617                    23533455.168
                        31.700
                  85513690.956 6  20603867.383                    20603870.289
                        41.300
 128535446.840 5 100157624.84643  24459508.906                    24459516.098
        35.400          18.300
 112739920.900 8  87849176.08246  21453662.883                    21453666.484
        49.100          37.000
                                  22935897.039

                  84658945.975 6  20419461.516                    20419465.500
                        39.100
                  82629629.541 6  19881011.469                    19881013.125
                        41.900
 121656430.302 7  94797126.25544  23150429.305                    23150432.297
        43.100          27.800
                  87527539.662 7  21044686.117                    21044689.023
                        42.100
 116150269.390 8  90506741.69446  22102673.336                    22102676.781
        50.000          37.200
 123693331.702 7  96384391.03545  23538054.195                    23538055.555
        45.800          31.600
 122669909.855 6  95587031.39844  23343323.953                    23343329.988
        41.000          25.100
                  85772031.647 7  20615371.906                    20615371.727
                        42.600
 114692311.809 8  89370644.87846  21825221.867                    21825228.266
        49.600          38.100
 116512471.802 7  90789121.59646  22171587.180                    22171591.848
        46.400          37.100
                  91396698.933 6  21951823.797                    21951825.910
                        41.600
 112549344.360 7  87700971.51946  21417427.867                    21417429.801
        46.400          37.100
 18  3 15 14  8  6.0000000  0 17R01R02G25G12R12R10R11G14R20G17G22G01
                                R19G24G32R03G19
                  97848065.960 5  23534361.453                    23534363.723
                        32.400
                  85514749.073 6  20604121.281                    20604125.223
                        41.100
 128531873.952 5 100154840.78842  24458829.180                    24458836.422
        35.000          16.900
 112737944.146 8  87847635.76046  21453286.805                    21453289.879
        49.700          37.000
                                  22935156.625

                  84661440.429 6  20420063.164                    20420067.242
                        38.900
                  82628603.047 7  19880764.289                    19880766.418
                        42.000
 121654551.451 7  94795662.23344  23150071.594                    23150074.965
        42.800          27.200
                  87525567.709 7  21044212.211                    21044215.297
                        42.200
 116151659.947 8  90507825.24446  22102938.063                    22102941.590
        49.800          37.300
 123692390.912 7  96383657.96745  23537875.266                    23537876.633
        44.100          30.300
 122672719.986 6  95589221.11643  23343857.656                    23343864.559
        37.500          21.300
                  85773732.555 6  20615780.422                    20615780.492
                        41.600
 114694942.456 8  89372694.72646  21825722.414                    21825728.129
        49.300          38.700
 116512385.026 7  90789053.98946  22171570.250                    22171575.496
        46.800          37.600
                  91394548.484 6  21951306.805                    21951309.750
                        40.800
 112549281.665 7  87700922.63946  21417416.211                    21417417.902
        46.700          37.100
 18  3 15 14  8  7.0000000  0 17R01R02G25G12R12R10R11G14R20G17G22G01
                                R19G24G32R03G19
                  97851842.313 5  23535268.648                    23535272.242
                        32.200
                  85515807.853 6  20604376.977                    20604379.852
                        40.200
 128528301.324 6 100152056.95442  24458148.578                    24458155.953
        36.900          16.300
 112735968.004 8  87846095.91746  21452912.641                    21452914.648
        50.400          36.600
                                  22934417.039

                  84663935.376 6  20420665.766                    20420669.227
                        39.000
                  82627577.164 6  19880518.188                    19880519.672
                        41.900
 121652673.043 7  94794198.55544  23149714.133                    23149717.559
        43.400          28.200
                  87523596.292 6  21043737.930                    21043740.781
                        41.800
 116153051.105 8  90508909.26146  22103202.875                    22103206.035
        50.100          36.600
 123691450.729 7  96382925.36144  23537696.422                    23537697.570
        43.700          29.100
 122675530.655 5  95591411.27543  23344392.164                    23344399.617
        34.500          20.100
                  85775434.179 6  20616189.773                    20616189.918
                        41.300
 114697573.639 8  89374744.99246  21826223.398                    21826229.402
        49.300          37.600
 116512298.924 7  90788986.91046  22171553.758                    22171559.043
        47.000          37.600
                  91392398.496 6  21950791.141                    21950793.422
                        39.600
 112549219.726 7  87700874.35646  21417404.703                    21417405.500
        46.700          37.700
 18  3 15 14  8  8.0000000  0 17R01R02G25G12R12R10R11G14R20G17G22G01
                                R19G24G32R03G19
                  97855618.844 5  23536176.266                    23536180.355
                        31.800
                  85516867.378 6  20604632.523                    20604635.176
                        40.600
 128524728.797 6 100149273.15242  24457469.125                    24457476.113
        39.500          16.300
 112733992.405 8  87844556.47646  21452534.734                    21452538.609
        49.200          36.400
                                  22933677.055

                  84666430.844 6  20421266.852                    20421271.133
                        39.200
                  82626551.875 6  19880271.039                    19880272.965
                        41.900
 121650795.107 7  94792735.23744  23149356.969                    23149360.219
        42.900          27.400
                  87521625.471 7  21043264.289                    21043267.512
                        42.000
 116154442.907 8  90509993.77946  22103467.508                    22103470.750
        50.300          37.100
 123690511.136 7  96382193.19944  23537517.555                    23537518.852
        44.100          28.900
 122678341.856 5  95593601.83542  23344926.148                    23344934.488
        33.300          17.800
                  85777136.495 6  20616598.430                    20616598.809
                        41.400
 114700205.388 8  89376795.70246  21826723.734                    21826730.008
        49.200          37.700
 116512213.550 7  90788920.38746  22171537.484                    22171542.996
        46.000          37.200
                  91390249.005 6  21950274.859                    21950276.953
                        39.700
 112549158.561 7  87700826.68646  21417392.711                    21417394.172
        46.400          37.000
 18  3 15 14  8  9.0000000  0 17R01R02G25G12R12R10R11G14R20G17G22G01
                                R19G24G32R03G19
                  97859395.625 5  23537084.078                    23537088.711
                        34.300
                  85517927.626 6  20604888.313                    20604890.453
                        40.900
 128521156.477 6 100146489.47243  24456789.719                    24456796.367
        38.900          18.600
 112732017.379 8  87843017.50246  21452159.617                    21452162.535
        50.200          37.200
                                  22932936.820

                  84668926.826 6  20421869.094                    20421872.980
                        39.100
                  82625527.228 6  19880024.227                    19880026.742
                        41.700
 121648917.699 7  94791272.32344  23148999.141                    23149002.781
        42.700          28.800
                  87519655.246 6  21042789.953                    21042793.340
                        41.600
 116155835.334 8  90511078.78146  22103732.250                    22103735.691
        49.900          37.200
 123689572.100 7  96381461.46544  23537338.875                    23537340.160
        44.700          28.900
 122681153.706 5  95595792.90642  23345461.961                    23345469.621
        31.900          16.900
                  85778839.474 6  20617008.070                    20617007.488
                        41.100
 114702837.667 8  89378846.82946  21827225.719                    21827230.922
        49.600          38.100
 116512128.852 7  90788854.37746  22171520.633                    22171526.602
        47.000          37.700
                  91388100.046 6  21949758.516                    21949760.480
                        39.900
 112549098.192 7  87700779.63946  21417381.359                    21417382.707
        46.400          36.900
 18  3 15 14  8 10.0000000  0 17R01R02G25G12R12R10R11G14R20G17G22G01
                                R19G24G32R03G19
                  97863172.560 5  23537992.234                    23537996.785
                        30.100
                  85518988.670 6  20605144.234                    20605146.500
                        40.800
 128517584.439 6 100143706.06543  24456110.313                    24456116.578
        39.800          18.300
 112730043.017 8  87841479.04546  21451784.992                    21451786.598
        50.500          36.800
                                  22932198.477

                  84671423.359 6  20422471.461                    20422475.699
                        38.900
                  82624503.193 6  19879778.250                    19879779.633
                        41.800
 121647040.856 7  94789809.83644  23148641.758                    23148645.398
        42.000          26.700
                  87517685.579 7  21042316.508                    21042319.633
                        42.100
 116157228.412 8  90512164.29846  22103997.609                    22104000.875
        49.500          37.100
 123688633.735 7  96380730.23444  23537160.633                    23537161.867
        44.500          28.500
 122683966.073 5  95597984.38042  23345996.391                    23346004.457
        30.500          16.300
                  85780543.153 6  20617416.992                    20617417.570
                        41.300
 114705470.565 8  89380898.44046  21827725.578                    21827731.750
        49.400          38.200
 116512044.910 7  90788788.97346  22171504.883                    22171510.742
        45.800          37.000
                  91385951.668 6  21949243.188                    21949244.625
                        40.400
 112549038.666 7  87700733.24246  21417370.102                    21417371.273
        47.300          37.700
 18  3 15 14  8 11.0000000  0 17R01R02G25G12R12R10R11G14R20G17G22G01
                                R19G24G32R03G19
                  97866949.810 4  23538901.820                    23538905.426
                        29.000
                  85520050.490 6  20605399.578                    20605402.414
                        40.900
 128514012.668 6 100140922.83742  24455430.188                    24455437.172
        40.200          17.400
 112728069.235 8  87839941.04146  21451407.484                    21451411.309
        48.800          36.300
                                  22931458.891

                  84673920.422 6  20423072.813                    20423077.586
                        39.100
                  82623479.798 6  19879532.234                    19879533.910
                        41.500
 121645164.523 7  94788347.76444  23148284.867                    23148288.738
        43.300          28.700
                  87515716.510 6  21041843.125                    21041846.527
                        41.800
 116158622.141 8  90513250.31946  22104262.383                    22104266.238
        49.700          36.900
 123687695.947 7  96379999.46144  23536982.117                    23536983.352
        44.100          28.900
 122686779.106 5  95600176.34042  23346532.070                    23346540.113
        31.500          16.300
                  85782247.504 6  20617826.719                    20617827.480
                        41.500
 114708104.028 8  89382950.49146  21828227.344                    21828232.648
        49.600          38.400
 116511961.704 7  90788724.13446  22171488.461                    22171494.516
        46.100          37.200
                  91383803.777 6  21948727.469                    21948728.551
                        40.400
 112548979.907 7  87700687.44746  21417358.789                    21417360.688
        46.100          36.400
 18  3 15 14  8 12.0000000  0 17R01R02G25G12R12R10R11G14R20G17G22G01
                                R19G24G32R03G19
                  97870727.202 5  23539810.617                    23539814.293
                        30.000
                  85521113.040 6  20605656.875                    20605658.309
                        41.000
 128510441.013 6 100138139.64042  24454750.242                    24454757.508
        39.200          17.400
 112726096.021 8  87838403.47046  21451033.047                    21451035.316
        49.100          36.800
                                  22930717.930

                  84676418.021 6  20423676.922                    20423679.633
                        38.500
                  82622457.028 6  19879286.398                    19879287.809
                        41.600
 121643288.753 7  94786886.12344  23147928.102                    23147931.727
        43.300          28.300
                  87513748.014 6  21041370.078                    21041372.977
                        41.200
 116160016.505 8  90514336.84246  22104527.523                    22104531.770
        49.900          37.300
 123686758.850 7  96379269.23644  23536803.320                    23536804.949
        43.100          26.400
 122689592.798 5  95602368.76642  23347068.398                    23347075.250
        32.600          17.400
                  85783952.555 6  20618237.016                    20618237.047
                        41.200
 114710738.073 8  89385002.98946  21828728.320                    21828734.117
        49.200          38.500
 116511879.211 7  90788659.85846  22171472.703                    22171479.098
        45.400          36.200
                  91381656.403 6  21948212.250                    21948213.707
                        39.700
 112548921.953 7  87700642.27946  21417347.984                    21417348.969
        46.300          37.100
 18  3 15 14  8 13.0000000  0 17R01R02G25G12R12R10R11G14R20G17G22G01
                                R19G24G32R03G19
                  97874504.785 4  23540718.289                    23540722.574
                        29.600
                  85522176.275 6  20605912.141                    20605914.703
                        40.200
 128506869.549 6 100135356.60842  24454071.484                    24454077.836
        40.500          15.600
 112724123.387 8  87836866.34645  21450657.836                    21450660.648
        49.300          35.700
                                  22929977.539

                  84678916.104 6  20424278.641                    20424282.824
                        38.500
                  82621434.840 6  19879040.492                    19879042.008
                        41.200
 121641413.438 6  94785424.83644  23147571.063                    23147574.680
        40.500          26.500
                  87511780.076 6  21040897.211                    21040899.875
                        40.900
 116161411.442 8  90515423.80446  22104793.289                    22104797.176
        50.200          37.400
 123685822.399 7  96378539.55144  23536625.547                    23536626.660
        42.900          26.100
 122692406.916 6  95604561.53843  23347603.883                    23347610.707
        37.700          19.000
                  85785658.238 6  20618647.063                    20618646.770
                        40.500
 114713372.603 8  89387055.86746  21829229.273                    21829235.797
        48.600          37.300
 116511797.368 7  90788596.07845  22171457.625                    22171463.086
        45.200          34.700
                  91379509.517 6  21947695.781                    21947697.551
                        40.400
 112548864.744 7  87700597.69246  21417337.195                    21417338.441
        46.500          37.300
 18  3 15 14  8 14.0000000  0 17R01R02G25G12R12R10R11G14R20G17G22G01
                                R19G24G32R03G19
                  97878282.553 4  23541626.352                    23541631.348
                        29.900
                  85523240.248 6  20606167.953                    20606170.410
                        40.500
 128503298.249 6 100132573.82942  24453391.289                    24453398.266
        39.900          16.300
 112722151.334 8  87835329.67646  21450280.695                    21450284.957
        48.500          36.300
                                  22929240.305

                  84681414.725 6  20424881.492                    20424885.039
                        39.300
                  82620413.263 7  19878794.219                    19878795.945
                        42.300
 121639538.616 6  94783963.91744  23147214.094                    23147218.090
        41.700          26.200
                  87509812.705 6  21040422.969                    21040427.223
                        41.700
 116162807.027 8  90516511.28046  22105058.992                    22105062.742
        50.200          37.000
 123684886.452 7  96377810.26944  23536447.109                    23536448.918
        43.800          27.100
 122695221.585 6  95606754.79544  23348139.477                    23348146.422
        38.900          24.000
                  85787364.630 6  20619056.969                    20619057.613
                        41.200
 114716007.764 8  89389109.23746  21829731.906                    21829736.977
        49.500          37.900
 116511716.290 7  90788532.89445  22171442.133                    22171448.453
        45.200          35.400
                  91377363.153 6  21947179.500                    21947181.387
                        41.200
 112548808.309 7  87700553.70046  21417326.133                    21417327.902
        47.000          37.600
 18  3 15 14  8 15.0000000  0 17R01R02G25G12R12R10R11G14R20G17G22G01
                                R19G24G32R03G19
                  97882060.508 4  23542535.219                    23542539.742
                        29.300
                  85524304.937 6  20606424.383                    20606426.734
                        40.500
 128499727.145 6 100129791.18142  24452711.648                    24452718.570
        40.300          16.900
 112720179.886 8  87833793.48346  21449907.602                    21449909.461
        49.000          36.100
                                  22928499.836

                  84683913.858 6  20425484.703                    20425487.668
                        39.000
                  82619392.318 7  19878548.688                    19878550.023
                        42.100
 121637664.322 6  94782503.44344  23146858.273                    23146861.277
        39.300          25.600
                  87507845.930 6  21039950.422                    21039954.059
                        41.500
 116164203.224 8  90517599.23046  22105324.531                    22105328.348
        50.000          36.800
 123683951.061 7  96377081.38844  23536269.406                    23536270.750
        44.100          26.400
 122698036.758 5  95608948.42343  23348675.375                    23348682.109
        30.300          21.100
                  85789071.723 6  20619467.906                    20619467.313
                        41.300
 114718643.468 8  89391163.03646  21830231.875                    21830238.578
        48.900          38.300
 116511635.898 7  90788470.24445  22171426.945                    22171432.758
        45.100          35.800
                  91375217.294 6  21946664.383                    21946665.953
                        37.400
 112548752.679 7  87700510.33546  21417315.742                    21417317.215
        47.000          37.900
 18  3 15 14  8 16.0000000  0 17R01R02G25G12R12R10R11G14R20G17G22G01
                                R19G24G32R03G19
                  97885838.738 4  23543444.625                    23543449.109
                        28.300
                  85525370.377 6  20606681.633                    20606684.102
                        40.900
 128496156.294 6 100127008.75042  24452032.430                    24452039.203
        40.900          16.900
 112718209.002 8  87832257.72246  21449532.117                    21449535.027
        49.100          36.400
                                  22927760.711

                  84686413.476 6  20426087.070                    20426091.465
                        38.600
                  82618371.940 7  19878303.164                    19878305.340
                        42.400
 121635790.586 6  94781043.41944  23146501.523                    23146505.285
        41.400          26.800
                  87505879.735 6  21039479.273                    21039481.367
                        41.500
 116165600.060 8  90518687.67446  22105590.516                    22105594.281
        50.200          36.700
 123683016.388 7  96376353.04444  23536091.586                    23536092.824
        44.600          29.300
 122700852.590 6  95611142.60443  23349210.914                    23349218.148
        36.800          21.100
                  85790779.500 6  20619877.984                    20619877.754
                        40.900
 114721279.726 8  89393217.26346  21830734.797                    21830740.121
        49.300          38.600
 116511556.224 7  90788408.15546  22171411.938                    22171417.207
        45.600          36.600
                  91373072.006 6  21946149.563                    21946150.953
                        40.500
 112548697.794 7  87700467.55146  21417305.219                    21417306.613
        47.000          38.100
 18  3 15 14  8 17.0000000  0 17R01R02G25G12R12R10R11G14R20G17G22G01
                                R19G24G32R03G19
                  97889617.264 4  23544352.648                    23544357.625
                        26.200
                  85526436.615 6  20606938.258                    20606940.238
                        41.100
 128492585.771 6 100124226.55042  24451352.742                    24451359.699
        40.800          16.300
 112716238.730 8  87830722.44546  21449156.305                    21449159.691
        49.100          37.000
                                  22927020.656

                  84688913.653 6  20426689.445                    20426693.605
                        39.200
                  82617352.213 6  19878057.320                    19878059.457
                        41.800
 121633917.318 7  94779583.73344  23146145.422                    23146148.375
        43.600          29.500
                  87503914.131 6  21039005.961                    21039008.922
                        41.300
 116166997.561 8  90519776.63846  22105856.531                    22105860.297
        49.700          36.500
 123682082.288 7  96375625.16644  23535913.375                    23535914.949
        43.700          29.100
 122703669.022 6  95613337.23744  23349747.414                    23349754.223
        41.600          28.000
                  85792488.022 6  20620288.773                    20620288.977
                        41.400
 114723916.543 8  89395271.92346  21831236.508                    21831242.277
        49.500          38.600
 116511477.292 7  90788346.64645  22171396.797                    22171402.762
        46.400          35.800
                  91370927.223 6  21945634.094                    21945635.699
                        41.400
 112548643.751 7  87700425.43046  21417295.188                    21417296.750
        46.400          37.900
 18  3 15 14  8 18.0000000  0 15R02G25G12R10R11G14R20G17G22G01R19G24
                                G32R03G19
                  85527503.590 6  20607195.234                    20607197.703
                        41.100
 128489015.122 7 100121444.16742  24450672.672                    24450680.277
        44.600          17.400
 112714269.062 8  87829187.65146  21448782.703                    21448785.105
        49.300          36.600
                  84691414.329 6  20427293.625                    20427297.109
                        38.900
                  82616333.122 6  19877812.414                    19877813.852
                        41.700
 121632044.502 7  94778124.36445  23145788.906                    23145791.660
        45.000          30.100
                  87501949.113 6  21038532.281                    21038536.609
                        41.500
 116168395.683 8  90520866.08345  22106122.547                    22106126.148
        49.900          35.900
 123681148.788 7  96374897.75344  23535735.594                    23535737.340
        42.900          27.400
 122706486.052 7  95615532.29045  23350282.844                    23350290.305
        42.700          30.700
                  85794197.193 6  20620699.109                    20620698.871
                        41.200
 114726553.940 8  89397327.03646  21831737.992                    21831743.883
        49.600          39.000
 116511399.097 7  90788285.70545  22171381.844                    22171387.961
        45.200          35.100
                  91368782.937 7  21945119.492                    21945120.422
                        42.800
 112548590.499 7  87700383.92746  21417284.656                    21417286.238
        46.500          38.000
 18  3 15 14  8 19.0000000  0 15R02G25G12R10R11G14R20G17G22G01R19G24
                                G32R03G19
                  85528571.273 6  20607453.586                    20607454.727
                        41.900
 128485444.827 7 100118662.06643  24449993.750                    24450000.781
        45.300          22.600
 112712299.974 8  87827653.30746  21448406.836                    21448410.551
        49.300          37.100
                  84693915.526 6  20427895.867                    20427899.992
                        39.300
                  82615314.646 6  19877567.688                    19877568.805
                        41.900
 121630172.242 7  94776665.45944  23145432.086                    23145435.559
        44.700          29.100
                  87499984.671 6  21038061.133                    21038063.969
                        41.900
 116169794.396 8  90521955.99346  22106388.586                    22106392.340
        49.900          36.300
 123680215.836 7  96374170.77644  23535558.539                    23535559.824
        43.000          28.900
 122709303.615 7  95617727.73245  23350818.844                    23350825.898
        42.800          32.100
                  85795907.020 6  20621109.867                    20621110.730
                        41.000
 114729191.852 8  89399382.55046  21832240.828                    21832246.141
        50.200          39.000
 116511321.564 7  90788225.28146  22171366.859                    22171373.594
        45.500          36.100
                  91366639.155 7  21944604.609                    21944606.176
                        43.100
 112548538.006 7  87700343.00646  21417274.953                    21417276.355
        46.600          37.900
 18  3 15 14  8 20.0000000  0 16R01R02G25G12R10R11G14R20G17G22G01R19
                                G24G32R03G19
                  97900953.56415  23547079.336                    23547083.762
                        32.200
                  85529639.694 6  20607710.445                    20607712.020
                        41.600
 128481874.733 7 100115880.14344  24449314.250                    24449321.551
        44.600          25.600
 112710331.459 8  87826119.40746  21448032.508                    21448035.801
        49.400          36.200
                  84696417.238 6  20428500.117                    20428503.344
                        39.200
                  82614296.777 7  19877322.086                    19877324.336
                        42.500
 121628300.536 7  94775206.98544  23145076.367                    23145079.395
        44.100          27.300
                  87498020.778 6  21037589.180                    21037591.566
                        41.800
 116171193.738 8  90523046.40546  22106654.727                    22106658.695
        50.000          36.900
 123679283.518 7  96373444.30344  23535380.945                    23535382.539
        43.000          28.300
 122712121.759 7  95619923.66045  23351355.555                    23351362.754
        43.600          32.200
                  85797617.539 6  20621521.484                    20621521.027
                        41.300
 114731830.336 8  89401438.52046  21832741.875                    21832748.313
        49.500          38.800
 116511244.723 7  90788165.39645  22171352.648                    22171358.426
        45.400          35.200
                  91364495.896 7  21944089.867                    21944091.270
                        42.900
 112548486.294 7  87700302.70146  21417265.398                    21417266.520
        46.300          37.600
 18  3 15 14  8 21.0000000  0 16R01R02G25G12R10R11G14R20G17G22G01R19
                                G24G32R03G19
                  97904732.733 5  23547988.883                    23547992.594
                        30.600
                  85530708.809 6  20607967.859                    20607969.539
                        41.300
 128478304.831 7 100113098.40744  24448635.164                    24448641.969
        44.500          24.700
 112708363.535 8  87824585.95746  21447658.922                    21447661.199
        49.400          36.400
                  84698919.435 6  20429103.539                    20429106.879
                        39.100
                  82613279.471 7  19877077.297                    19877079.098
                        42.700
 121626429.351 7  94773748.92044  23144719.602                    23144723.254
        43.500          28.000
                  87496057.424 6  21037117.039                    21037119.922
                        41.700
 116172593.712 8  90524137.29446  22106921.648                    22106925.027
        50.000          36.200
 123678351.769 7  96372718.26144  23535203.836                    23535205.070
        42.700          27.600
 122714940.473 7  95622120.03445  23351891.992                    23351899.051
        44.300          32.200
                  85799328.722 6  20621932.836                    20621932.410
                        41.500
 114734469.365 8  89403494.91446  21833244.555                    21833250.301
        49.500          37.900
 116511168.605 7  90788106.07345  22171337.914                    22171343.594
        45.700          35.200
                  91362353.152 7  21943574.766                    21943576.676
                        43.000
 112548435.367 7  87700262.99546  21417255.117                    21417257.012
        46.700          37.700
 18  3 15 14  8 22.0000000  0 16R01R02G25G12R10R11G14R20G17G22G01R19
                                G24G32R03G19
                  97908512.123 5  23548897.648                    23548901.477
                        30.800
                  85531778.682 6  20608225.422                    20608228.031
                        41.300
 128474735.109 7 100110316.82144  24447955.445                    24447962.707
        44.600          25.800
 112706396.198 7  87823052.96146  21447283.359                    21447286.922
        47.900          36.300
                  84701422.196 6  20429706.094                    20429710.766
                        39.500
                  82612262.795 7  19876833.164                    19876835.406
                        42.800
 121624558.685 7  94772291.27644  23144363.852                    23144367.109
        42.800          28.500
                  87494094.672 6  21036645.359                    21036648.090
                        41.700
 116173994.318 8  90525228.67246  22107187.828                    22107191.273
        50.300          36.000
 123677420.660 7  96371992.71144  23535025.852                    23535027.836
        42.400          27.500
 122717759.767 7  95624316.87845  23352428.391                    23352435.246
        43.200          30.200
                  85801040.604 6  20622344.578                    20622343.910
                        41.600
 114737108.968 8  89405551.75646  21833746.492                    21833752.852
        49.500          38.300
 116511093.196 7  90788047.31145  22171323.813                    22171329.766
        45.800          35.800
                  91360210.915 7  21943059.727                    21943062.289
                        42.100
 112548385.220 7  87700223.89846  21417246.000                    21417247.402
        46.500          38.400
 18  3 15 14  8 23.0000000  0 16R01R02G25G12R10R11G14R20G17G22G01R19
                                G24G32R03G19
                  97912291.694 4  23549807.586                    23549811.109
                        29.700
                  85532849.256 6  20608482.727                    20608485.883
                        41.700
 128471165.602 7 100107535.41354  24447276.641                    24447283.668
        44.900          25.300
 112704429.427 8  87821520.41746  21446909.555                    21446912.203
        48.700          37.300
                  84703925.428 6  20430311.086                    20430313.906
                        38.600
                  82611246.754 7  19876588.289                    19876590.102
                        42.500
 121622688.517 7  94770834.01344  23144008.273                    23144011.738
        43.400          28.800
                  87492132.530 6  21036173.375                    21036175.844
                        41.700
 116175395.538 8  90526320.53046  22107454.555                    22107457.684
        49.500          36.600
 123676490.134 7  96371267.59744  23534849.141                    23534850.848
        42.700          26.800
 122720579.561 7  95626514.11645  23352965.172                    23352971.984
        43.400          30.200
                  85802753.180 6  20622755.078                    20622755.727
                        41.500
 114739749.122 8  89407609.02246  21834248.867                    21834254.750
        49.500          38.100
 116511018.507 7  90787989.09645  22171309.336                    22171315.578
        45.500          35.700
                  91358069.213 7  21942545.195                    21942547.918
                        42.400
 112548335.849 7  87700185.40646  21417236.875                    21417238.090
        47.200          37.700
 18  3 15 14  8 24.0000000  0 16R01R02G25G12R10R11G14R20G17G22G01R19
                                G24G32R03G19
                  97916071.478 4  23550715.391                    23550720.348
                        28.700
                  85533920.567 7  20608740.758                    20608743.043
                        42.100
 128467596.243 7 100104754.12044  24446597.094                    24446604.414
        45.800          27.200
 112702463.291 8  87819988.35946  21446536.188                    21446538.723
        49.700          36.300
                  84706429.188 6  20430914.750                    20430918.641
                        39.600
                  82610231.301 7  19876344.875                    19876346.008
                        43.000
 121620818.853 7  94769377.14145  23143652.688                    23143655.547
        44.500          30.400
                  87490170.911 6  21035701.563                    21035704.438
                        41.400
 116176797.390 8  90527412.87846  22107721.352                    22107724.918
        49.400          36.100
 123675560.203 7  96370542.95244  23534673.086                    23534674.141
        43.200          28.200
 122723399.962 7  95628711.83945  23353502.445                    23353508.801
        43.800          30.100
                  85804466.427 6  20623168.117                    20623167.621
                        41.400
 114742389.806 8  89409666.69046  21834751.758                    21834757.590
        49.700          38.200
 116510944.496 7  90787931.42545  22171294.406                    22171301.449
        44.700          34.500
                  91355928.041 7  21942030.961                    21942034.020
                        42.300
 112548287.274 7  87700147.53146  21417227.273                    21417228.652
        47.400          37.200
 18  3 15 14  8 25.0000000  0 16R01R02G25G12R10R11G14R20G17G22G01R19
                                G24G32R03G19
                  97919851.575 4  23551624.680                    23551629.355
                        29.200
                  85534992.595 7  20608999.258                    20609002.434
                        42.100
 128464027.185 7 100101973.04844  24445918.281                    24445924.762
        45.000          28.000
 112700497.676 8  87818456.70446  21446160.750                    21446164.563
        48.800          36.600
                  84708933.501 6  20431518.156                    20431522.488
                        39.100
                  82609216.460 7  19876099.906                    19876101.590
                        42.200
 121618949.695 7  94767920.65244  23143296.703                    23143299.855
        44.000          29.400
                  87488209.865 6  21035229.242                    21035232.973
                        41.900
 116178199.837 8  90528505.68746  22107988.367                    22107991.926
        49.500          36.900
 123674630.842 6  96369818.77044  23534495.570                    23534496.887
        41.900          26.400
 122726220.904 7  95630909.97344  23354038.688                    23354045.035
        43.500          29.600
                  85806180.396 6  20623579.336                    20623579.699
                        40.900
 114745031.055 8  89411724.79846  21835253.023                    21835259.531
        49.100          38.800
 116510871.190 7  90787874.30445  22171281.016                    22171287.703
        44.600          34.700
                  91353787.377 7  21941516.836                    21941519.688
                        42.000
 112548239.482 7  87700110.28246  21417218.172                    21417219.750
        47.300          37.700
 18  3 15 14  8 26.0000000  0 16R01R02G25G12R10R11G14R20G17G22G01R19
                                G24G32R03G19
                  97923631.750 3  23552533.734                    23552538.266
                        22.800
                  85536065.359 6  20609258.063                    20609260.301
                        41.500
 128460458.243 7 100099192.03544  24445239.281                    24445246.215
        45.300          26.700
 112698532.663 8  87816925.52546  21445787.063                    21445790.258
        49.100          36.500
                  84711438.290 6  20432123.023                    20432126.828
                        39.100
                  82608202.220 7  19875855.922                    19875857.926
                        42.200
 121617080.988 7  94766464.50944  23142941.344                    23142944.207
        43.500          28.800
                  87486249.431 6  21034758.445                    21034761.844
                        41.600
 116179602.947 8  90529599.01146  22108255.031                    22108258.617
        50.000          37.600
 123673702.051 6  96369095.02544  23534318.461                    23534320.465
        41.700          28.000
 122729042.394 7  95633108.51945  23354576.039                    23354582.375
        44.300          31.200
                  85807894.997 6  20623991.641                    20623991.660
                        41.200
 114747672.826 8  89413783.31046  21835757.203                    21835762.781
        49.500          37.700
 116510798.625 7  90787817.75845  22171267.797                    22171273.711
        44.300          34.900
                  91351647.244 7  21941003.797                    21941005.535
                        43.300
 112548192.496 7  87700073.66946  21417209.281                    21417210.891
        46.900          37.700
 18  3 15 14  8 27.0000000  0 16R01R02G25G12R10R11G14R20G17G22G01R19
                                G24G32R03G19
                  97927412.179 3  23553443.359                    23553447.930
                        21.400
                  85537138.824 6  20609516.664                    20609519.336
                        41.400
 128456889.431 7 100096411.14144  24444560.000                    24444566.625
        45.000          26.700
 112696568.219 8  87815394.78646  21445414.516                    21445416.969
        50.100          36.900
                  84713943.600 6  20432726.977                    20432730.824
                        39.300
                  82607188.570 7  19875611.844                    19875614.023
                        42.300
 121615212.792 7  94765008.75544  23142586.086                    23142589.262
        43.900          29.600
                  87484289.511 6  21034287.289                    21034290.332
                        41.700
 116181006.604 8  90530692.76946  22108522.203                    22108526.195
        49.800          36.900
 123672773.826 7  96368371.71544  23534142.297                    23534143.605
        43.900          29.600
 122731864.434 6  95635307.50144  23355112.648                    23355119.375
        40.600          24.400
                  85809610.263 6  20624404.023                    20624403.660
                        40.900
 114750315.133 8  89415842.25146  21836259.195                    21836265.770
        48.900          37.600
 116510726.729 7  90787761.75545  22171254.375                    22171260.273
        45.200          34.300
                  91349507.524 6  21940489.539                    21940491.527
                        41.000
 112548146.247 7  87700037.64146  21417200.008                    21417202.063
        47.300          37.500
 18  3 15 14  8 28.0000000  0 16R01R02G25G12R10R11G14R20G17G22G01R19
                                G24G32R03G19
                                  23554352.617

                  85538213.027 7  20609775.992                    20609777.844
                        42.600
 128453320.850 7 100093630.42644  24443880.625                    24443887.328
        46.000          28.800
 112694604.332 8  87813864.47946  21445039.086                    21445043.176
        49.200          37.400
                  84716449.424 6  20433330.750                    20433335.586
                        39.600
                  82606175.532 7  19875368.547                    19875370.371
                        42.200
 121613345.075 7  94763553.35744  23142230.031                    23142233.398
        43.400          29.900
                  87482330.165 7  21033815.258                    21033819.852
                        42.100
 116182410.893 8  90531787.01946  22108789.602                    22108793.441
        50.000          37.300
 123671846.321 7  96367648.95545  23533965.688                    23533966.711
        44.600          30.500
 122734687.182 6  95637507.05244  23355649.141                    23355656.504
        41.600          26.300
                  85811326.184 6  20624816.727                    20624816.078
                        41.500
 114752957.999 8  89417901.62646  21836763.320                    21836768.492
        49.400          37.400
 116510655.533 7  90787706.27445  22171240.797                    22171246.414
        46.000          35.400
                  91347368.335 6  21939976.008                    21939977.348
                        41.700
 112548100.788 7  87700002.22746  21417191.797                    21417193.070
        46.600          37.200
 18  3 15 14  8 29.0000000  0 16R01R02G25G12R10R11G14R20G17G22G01R19
                                G24G32R03G19
                                  23555261.586

                  85539287.952 7  20610034.891                    20610037.578
                        42.000
 128449752.402 7 100090849.82544  24443201.922                    24443208.688
        44.900          26.400
 112692641.040 8  87812334.65446  21444666.492                    21444668.973
        49.400          36.300
                  84718955.763 6  20433936.055                    20433940.602
                        39.600
                  82605163.119 7  19875124.891                    19875126.621
                        42.300
 121611477.944 7  94762098.41544  23141874.289                    23141878.117
        42.000          28.700
                  87480371.406 7  21033345.219                    21033347.949
                        42.500
 116183815.826 8  90532881.77746  22109057.164                    22109060.547
        49.900          37.300
 123670919.355 7  96366926.64645  23533789.242                    23533790.750
        45.400          31.800
 122737510.357 7  95639706.95044  23356186.492                    23356193.660
        43.000          29.000
                  85813042.806 6  20625228.867                    20625228.859
                        41.700
 114755601.401 8  89419961.43346  21837265.117                    21837271.844
        49.300          37.400
 116510585.092 7  90787651.39045  22171226.852                    22171232.895
        44.300          33.800
                  91345229.645 7  21939462.281                    21939463.273
                        42.300
 112548056.139 7  87699967.45146  21417183.570                    21417184.676
        46.100          36.400
 18  3 15 14  8 30.0000000  0 16R01R02G25G12R10R11G14R20G17G22G01R19
                                G24G32R03G19
                                  23556171.008

                  85540363.630 6  20610294.898                    20610296.336
                        40.900
 128446184.229 7 100088069.45144  24442522.742                    24442529.664
        45.800          27.500
 112690678.397 8  87810805.33246  21444293.883                    21444296.063
        49.200          37.200
                  84721462.615 6  20434540.766                    20434544.676
                        39.200
                  82604151.303 7  19874881.688                    19874883.605
                        42.300
 121609611.326 7  94760643.88645  23141519.078                    23141523.160
        42.800          30.400
                  87478413.273 7  21032875.234                    21032877.801
                        42.200
 116185221.404 8  90533977.03946  22109324.156                    22109327.746
        49.600          36.200
 123669993.012 7  96366204.82145  23533613.063                    23533614.691
        45.200          31.800
 122740334.156 7  95641907.33344  23356724.242                    23356731.109
        42.600          26.900
                  85814760.119 6  20625642.125                    20625641.469
                        40.800
 114758245.409 8  89422021.71046  21837768.820                    21837774.547
        49.400          37.800
 116510515.379 7  90787597.07745  22171213.828                    22171219.934
        45.100          34.100
                  91343091.513 6  21938947.836                    21938950.254
                        41.600
 112548012.290 7  87699933.30346  21417174.758                    21417176.477
        46.000          37.500
 18  3 15 14  8 31.0000000  0 17R01R02G25G12R12R10R11G14R20G17G22G01
                                R19G24G32R03G19
                                  23557080.750

                  85541440.016 6  20610552.563                    20610555.922
                        41.600
 128442616.248 7 100085289.22444  24441843.617                    24441850.652
        45.400          26.500
 112688716.255 8  87809276.39646  21443918.641                    21443922.609
        48.500          37.700
                                  22916670.828

                  84723969.952 6  20435144.711                    20435149.316
                        39.400
                  82603140.104 7  19874637.898                    19874639.953
                        42.100
 121607745.060 7  94759189.63645  23141163.242                    23141168.016
        42.100          30.000
                  87476455.625 7  21032403.992                    21032407.004
                        42.600
 116186627.557 8  90535072.73345  22109591.953                    22109595.594
        49.600          35.300
 123669067.216 7  96365483.43744  23533436.680                    23533438.043
        43.900          29.200
 122743158.528 6  95644108.14744  23357261.844                    23357268.348
        41.800          27.600
                  85816478.082 6  20626055.203                    20626055.102
                        41.600
 114760889.904 8  89424082.36346  21838272.336                    21838277.855
        50.000          37.800
 116510446.342 7  90787543.28845  22171201.125                    22171206.781
        45.700          35.000
                  91340953.855 6  21938434.789                    21938436.996
                        41.700
 112547969.162 7  87699899.70446  21417165.992                    21417168.102
        45.400          36.300
 18  3 15 14  8 32.0000000  0 17R01R02G25G12R12R10R11G14R20G17G22G01
                                R19G24G32R03G19
                                  23557989.766

                  85542517.168 6  20610812.406                    20610814.762
                        41.200
 128439048.404 7 100082509.09844  24441165.117                    24441171.746
        45.500          27.900
 112686754.729 8  87807747.94346  21443546.641                    21443549.156
        49.300          36.600
                                  22915931.680

                  84726477.811 6  20435750.813                    20435753.992
                        39.300
                  82602129.547 7  19874395.039                    19874396.363
                        42.200
 121605879.427 6  94757735.90044  23140808.164                    23140813.066
        40.200          29.000
                  87474498.632 6  21031932.789                    21031935.590
                        41.800
 116188034.354 8  90536168.93346  22109859.781                    22109863.090
        50.200          36.200
 123668142.099 7  96364762.56945  23533260.813                    23533262.055
        44.600          32.300
 122745983.464 7  95646309.36944  23357799.500                    23357806.262
        42.300          28.800
                  85818196.774 6  20626467.695                    20626467.918
                        41.200
 114763535.007 8  89426143.47646  21838774.250                    21838781.160
        49.000          36.800
 116510377.970 7  90787490.00445  22171188.117                    22171193.738
        46.300          35.500
                  91338816.788 7  21937921.906                    21937923.867
                        42.300
 112547926.868 7  87699866.76246  21417158.297                    21417159.945
        45.700          37.300
 18  3 15 14  8 33.0000000  0 17R01R02G25G12R12R10R11G14R20G17G22G01
                                R19G24G32R03G19
                                  23558900.320

                  85543595.074 6  20611072.563                    20611075.035
                        41.600
 128435480.802 7 100079729.17144  24440485.648                    24440492.590
        43.300          26.000
 112684793.822 8  87806219.97645  21443173.531                    21443175.895
        49.800          35.900
                                  22915193.078

                  84728986.205 6  20436354.781                    20436359.668
                        39.400
                  82601119.614 7  19874151.992                    19874154.090
                        42.000
 121604014.291 7  94756282.57844  23140454.555                    23140457.859
        42.900          28.700
                  87472542.191 6  21031463.586                    21031465.898
                        41.400
 116189441.794 8  90537265.64046  22110127.117                    22110130.656
        50.100          36.000
 123667217.604 7  96364042.18345  23533085.359                    23533086.441
        44.300          31.600
 122748808.987 7  95648511.05645  23358337.328                    23358344.176
        44.000          31.500
                  85819916.168 6  20626880.945                    20626880.531
                        41.000
 114766180.673 8  89428205.02446  21839279.352                    21839284.574
        50.000          37.900
 116510310.363 7  90787437.32945  22171174.945                    22171180.891
        45.700          35.000
                  91336680.228 7  21937408.563                    21937410.773
                        43.000
 112547885.358 7  87699834.42546  21417150.781                    21417152.121
        45.900          37.600
 18  3 15 14  8 34.0000000  0 17R01R02G25G12R12R10R11G14R20G17G22G01
                                R19G24G32R03G19
                  97953879.30014  23559809.859                    23559813.020
                        26.100
                  85544673.732 6  20611332.625                    20611334.738
                        41.000
 128431913.447 7 100076949.44644  24439807.125                    24439814.074
        42.100          25.500
 112682833.519 8  87804692.47146  21442799.875                    21442803.199
        49.500          37.300
                                  22914454.719

                  84731495.144 6  20436959.859                    20436964.129
                        39.300
                  82600110.271 7  19873908.805                    19873910.297
                        42.000
 121602149.779 7  94754829.75244  23140100.156                    23140103.457
        43.700          29.800
                  87470586.316 6  21030992.906                    21030995.723
                        41.100
 116190849.898 8  90538362.87045  22110395.539                    22110398.652
        50.000          35.800
 123666293.681 7  96363322.25445  23532908.961                    23532910.891
        44.300          32.300
 122751635.100 7  95650713.21644  23358875.031                    23358882.156
        44.100          29.700
                  85821636.216 6  20627294.102                    20627294.527
                        41.300
 114768826.907 8  89430267.02346  21839781.742                    21839788.395
        49.300          38.400
 116510243.489 7  90787385.21645  22171162.172                    22171167.848
        45.800          35.700
                  91334544.161 7  21936895.578                    21936897.594
                        42.800
 112547844.659 7  87699802.72846  21417143.031                    21417144.285
        45.800          37.500
 18  3 15 14  8 35.0000000  0 17R01R02G25G12R12R10R11G14R20G17G22G01
                                R19G24G32R03G19
                  97957661.24414  23560718.453                    23560722.492
                        25.100
                  85545753.090 6  20611592.914                    20611595.020
                        41.000
 128428346.231 7 100074169.78744  24439128.203                    24439135.293
        42.000          26.000
 112680873.730 8  87803165.35346  21442426.758                    21442430.004
        50.000          37.500
                                  22913717.570

                  84734004.522 6  20437566.094                    20437569.824
                        39.200
                  82599101.515 7  19873666.578                    19873668.363
                        42.300
 121600285.691 7  94753377.23745  23139745.242                    23139748.586
        42.900          30.100
                  87468630.970 6  21030522.688                    21030525.340
                        41.200
 116192258.537 8  90539460.50745  22110663.531                    22110666.570
        49.600          35.800
 123665370.277 7  96362602.73945  23532733.039                    23532735.105
        44.700          30.900
 122754461.719 7  95652915.78844  23359413.117                    23359419.984
        43.400          27.900
                  85823356.913 6  20627707.969                    20627707.715
                        41.500
 114771473.647 8  89432329.41346  21840286.375                    21840291.523
        49.900          38.200
 116510177.273 7  90787333.61245  22171149.141                    22171155.684
        45.900          35.900
                  91332408.591 7  21936382.813                    21936384.039
                        42.900
 112547804.697 7  87699771.61046  21417135.328                    21417136.730
        45.500          37.600
 18  3 15 14  8 36.0000000  0 17R01R02G25G12R12R10R11G14R20G17G22G01
                                R19G24G32R03G19
                  97961443.386 4  23561628.477                    23561632.570
                        26.500
                  85546833.171 6  20611852.484                    20611854.852
                        41.300
 128424779.159 7 100071390.22344  24438449.867                    24438456.344
        43.400          26.000
 112678914.537 8  87801638.70346  21442054.625                    21442056.754
        50.000          36.600
                                  22912980.781

                  84736514.475 6  20438170.117                    20438175.184
                        39.200
                  82598093.371 7  19873423.594                    19873425.852
                        42.400
 121598422.043 7  94751925.04044  23139390.930                    23139393.566
        43.600          29.300
                  87466676.287 6  21030052.570                    21030054.805
                        41.600
 116193667.846 8  90540558.66646  22110931.867                    22110935.027
        50.600          36.000
 123664447.503 7  96361883.70145  23532557.648                    23532559.539
        44.600          31.200
 122757288.862 6  95655118.77144  23359951.031                    23359957.980
        41.800          24.600
                  85825078.280 6  20628121.555                    20628121.805
                        41.100
 114774120.938 8  89434392.23046  21840790.047                    21840796.035
        49.300          38.100
 116510111.750 7  90787282.55045  22171136.633                    22171142.965
        46.200          35.800
                  91330273.545 6  21935870.328                    21935871.480
                        41.900
 112547765.532 7  87699741.11846  21417127.242                    21417129.148
        45.800          36.700
 18  3 15 14  8 37.0000000  0 16R01R02G25G12R10R11G14R20G17G22G01R19
                                G24G32R03G19
                  97965225.658 4  23562538.352                    23562542.340
                        28.000
                  85547913.953 6  20612113.656                    20612115.762
                        41.600
 128421212.319 7 100068610.84744  24437770.789                    24437777.355
        42.800          24.400
 112676955.940 8  87800112.52446  21441682.273                    21441684.633
        49.900          36.500
                  84739024.940 6  20438777.461                    20438780.316
                        39.300
                  82597085.891 7  19873181.961                    19873182.953
                        42.300
 121596558.961 7  94750473.26044  23139036.531                    23139039.063
        43.500          28.900
                  87464722.148 6  21029582.914                    21029585.391
                        41.500
 116195077.783 8  90541657.31746  22111200.117                    22111203.500
        50.600          36.500
 123663525.391 7  96361165.18545  23532382.523                    23532383.730
        44.500          30.300
 122760116.646 6  95657322.25744  23360488.242                    23360496.113
        41.000          25.200
                  85826800.341 6  20628535.406                    20628535.109
                        41.300
 114776768.834 8  89436455.53946  21841292.672                    21841299.707
        48.700          37.800
 116510046.973 7  90787232.06545  22171124.602                    22171130.742
        45.700          35.800
                  91328139.016 6  21935356.984                    21935359.082
                        41.600
 112547727.131 7  87699711.21846  21417120.039                    21417121.598
        45.600          36.500
 18  3 15 14  8 38.0000000  0 16R01R02G25G12R10R11G14R20G17G22G01R19
                                G24G32R03G19
                  97969008.251 4  23563449.117                    23563452.316
                        27.500
                  85548995.435 6  20612374.195                    20612376.359
                        41.900
 128417645.768 7 100065831.73943  24437091.953                    24437098.555
        42.800          23.200
 112674997.962 8  87798586.82946  21441308.180                    21441311.969
        48.800          36.000
                  84741535.921 6  20439382.211                    20439386.375
                        39.300
                  82596079.036 7  19872939.336                    19872940.461
                        42.100
 121594696.420 7  94749021.90244  23138682.477                    23138684.828
        44.800          28.900
                  87462768.599 6  21029112.656                    21029115.805
                        41.800
 116196488.381 8  90542756.49146  22111468.461                    22111471.680
        50.300          36.800
 123662603.850 7  96360447.10745  23532207.000                    23532208.582
        44.700          31.400
 122762945.048 6  95659526.22143  23361025.867                    23361034.043
        40.900          22.800
                  85828523.086 6  20628949.563                    20628949.688
                        41.500
 114779417.273 8  89438519.25946  21841798.461                    21841803.531
        50.000          38.300
 116509982.905 7  90787182.13446  22171112.125                    22171118.465
        46.100          36.200
                  91326005.057 6  21934845.109                    21934846.742
                        41.500
 112547689.567 7  87699681.97945  21417113.375                    21417114.840
        45.400          35.700
 18  3 15 14  8 39.0000000  0 16R01R02G25G12R10R11G14R20G17G22G01R19
                                G24G32R03G19
                  97972790.956 4  23564358.070                    23564361.953
                        29.500
                  85550077.632 6  20612634.039                    20612636.398
                        41.800
 128414079.299 6 100063052.67943  24436413.031                    24436420.438
        41.400          23.300
 112673040.526 8  87797061.57145  21440936.711                    21440939.305
        49.800          35.900
                  84744047.438 6  20439986.625                    20439992.293
                        39.000
                  82595072.748 7  19872696.875                    19872698.559
                        42.300
 121592834.366 7  94747570.91945  23138327.906                    23138330.652
        45.500          30.000
                  87460815.606 6  21028643.602                    21028645.547
                        41.400
 116197899.546 8  90543856.09746  22111736.914                    22111740.164
        50.000          36.700
 123661682.890 7  96359729.48845  23532031.797                    23532033.445
        44.300          30.800
 122765773.968 6  95661730.56643  23361564.984                    23361572.238
        40.500          22.600
                  85830246.503 6  20629363.891                    20629363.895
                        41.700
 114782066.293 8  89440583.43846  21842300.781                    21842307.648
        49.600          38.400
 116509919.509 7  90787132.73645  22171100.500                    22171106.145
        46.600          34.200
                  91323871.505 6  21934331.969                    21934333.484
                        41.600
 112547652.736 7  87699653.29946  21417106.430                    21417107.410
        46.000          37.300
 18  3 15 14  8 40.0000000  0 16R01R02G25G12R10R11G14R20G17G22G01R19
                                G24G32R03G19
                  97976573.929 5  23565268.023                    23565271.422
                        30.800
                  85551160.610 6  20612895.805                    20612898.129
                        41.600
 128410513.100 6 100060273.83443  24435734.383                    24435741.695
        41.400          22.500
 112671083.740 8  87795536.80146  21440564.664                    21440567.152
        50.700          36.600
                  84746559.438 6  20440594.609                    20440597.453
                        39.400
                  82594067.092 7  19872454.828                    19872456.773
                        42.200
 121590972.897 7  94746120.41345  23137972.969                    23137976.234
        44.600          30.400
                  87458863.227 6  21028173.586                    21028176.742
                        41.500
 116199311.373 8  90544956.22246  22112005.883                    22112008.727
        50.000          36.900
 123660762.566 7  96359012.35744  23531856.273                    23531857.879
        43.000          28.500
 122768603.469 6  95663935.38143  23362103.867                    23362110.699
        36.100          21.700
                  85831970.642 6  20629778.695                    20629778.805
                        41.600
 114784715.843 8  89442648.01546  21842806.547                    21842811.883
        50.300          38.000
 116509856.877 7  90787083.94146  22171088.750                    22171094.461
        47.300          37.400
                  91321738.484 6  21933819.633                    21933821.492
                        39.700
 112547616.737 7  87699625.26546  21417099.000                    21417100.688
        46.200          36.400
 18  3 15 14  8 41.0000000  0 16R01R02G25G12R10R11G14R20G17G22G01R19
                                G24G32R03G19
                  97980357.021 5  23566179.102                    23566181.738
                        30.100
                  85552244.365 6  20613156.016                    20613158.910
                        41.200
 128406947.089 6 100057495.12743  24435055.734                    24435063.016
        41.600          22.600
 112669127.513 8  87794012.46246  21440191.047                    21440194.625
        49.600          36.200
                  84749071.998 6  20441198.836                    20441204.074
                        39.600
                  82593062.048 7  19872213.367                    19872215.086
                        42.200
 121589111.983 7  94744670.34744  23137618.164                    23137622.555
        42.300          29.900
                  87456911.426 6  21027703.531                    21027707.246
                        41.400
 116200723.844 8  90546056.84346  22112274.211                    22112277.945
        49.500          36.400
 123659842.869 7  96358295.71544  23531681.633                    23531682.914
        44.800          29.800
 122771433.516 6  95666140.64643  23362642.359                    23362649.164
        38.800          22.000
                  85833695.451 6  20630193.047                    20630192.965
                        41.400
 114787365.967 8  89444713.04446  21843309.938                    21843316.004
        49.600          37.500
 116509794.974 7  90787035.71046  22171076.758                    22171082.859
        47.300          37.300
                  91319605.985 6  21933307.492                    21933309.773
                        41.000
 112547581.515 7  87699597.84446  21417092.813                    21417094.363
        45.700          36.900
 18  3 15 14  8 42.0000000  0 16R01R02G25G12R10R11G14R20G17G22G01R19
                                G24G32R03G19
                  97984140.399 5  23567089.586                    23567091.410
                        31.000
                  85553328.864 6  20613418.445                    20613420.551
                        41.800
 128403381.281 6 100054716.56844  24434377.219                    24434384.223
        41.300          25.000
 112667171.896 8  87792488.61446  21439820.000                    21439822.648
        50.000          36.700
                  84751585.071 6  20441805.563                    20441809.824
                        39.100
                  82592057.621 7  19871971.234                    19871973.207
                        42.100
 121587251.517 7  94743220.65645  23137263.516                    23137267.875
        43.800          31.500
                  87454960.200 6  21027236.141                    21027239.008
                        41.200
 116202136.915 8  90547157.92946  22112543.367                    22112546.879
        50.000          36.200
 123658923.768 7  96357579.52245  23531506.594                    23531507.992
        44.900          30.500
 122774264.206 6  95668346.35844  23363180.898                    23363187.910
        41.100          25.600
                  85835420.932 6  20630607.922                    20630607.496
                        41.400
 114790016.633 8  89446778.50546  21843814.047                    21843820.426
        49.600          37.900
 116509733.741 7  90786987.99546  22171065.273                    22171071.379
        46.700          36.900
                  91317474.089 6  21932795.852                    21932797.391
                        41.400
 112547547.054 7  87699570.99846  21417085.367                    21417087.398
        46.000          37.100
 18  3 15 14  8 43.0000000  0 16R01R02G25G12R10R11G14R20G17G22G01R19
                                G24G32R03G19
                  97987923.938 4  23567998.469                    23568001.891
                        29.700
                  85554414.094 6  20613679.555                    20613681.730
                        41.800
 128399815.658 6 100051938.16643  24433698.547                    24433705.910
        41.700          22.300
 112665216.846 8  87790965.19246  21439447.891                    21439451.102
        49.700          36.400
                  84754098.622 6  20442413.102                    20442417.000
                        39.100
                  82591053.829 6  19871730.539                    19871732.125
                        41.900
 121585391.538 7  94741771.34745  23136910.117                    23136914.211
        42.800          30.700
                  87453009.526 6  21026766.297                    21026769.715
                        41.300
 116203550.635 8  90548259.52246  22112812.164                    22112815.941
        49.800          36.500
 123658005.270 7  96356863.80844  23531331.711                    23531333.570
        44.800          29.900
 122777095.433 6  95670552.49344  23363720.242                    23363726.816
        40.700          26.400
                  85837147.111 6  20631022.359                    20631022.176
                        41.100
 114792667.829 8  89448844.36946  21844319.656                    21844325.090
        50.300          38.100
 116509673.268 7  90786940.85946  22171053.641                    22171059.688
        46.600          37.800
                  91315342.749 6  21932283.898                    21932285.672
                        41.200
 112547513.381 7  87699544.76246  21417079.344                    21417080.953
        45.900          36.900
 18  3 15 14  8 44.0000000  0 16R01R02G25G12R10R11G14R20G17G22G01R19
                                G24G32R03G19
                  97991707.697 4  23568908.727                    23568912.102
                        29.000
                  85555500.038 6  20613940.516                    20613943.004
                        41.400
 128396250.188 7 100049159.90243  24433020.141                    24433027.172
        42.700          22.500
 112663262.421 8  87789442.26146  21439075.516                    21439078.672
        49.500          36.500
                  84756612.739 6  20443017.664                    20443022.160
                        39.400
                  82590050.654 7  19871488.539                    19871491.215
                        42.400
 121583532.103 7  94740322.46545  23136556.953                    23136560.422
        43.800          31.300
                  87451059.471 6  21026297.297                    21026300.402
                        41.600
 116204964.982 8  90549361.60846  22113081.250                    22113084.605
        49.300          37.000
 123657087.368 7  96356148.57345  23531157.500                    23531158.934
        44.900          30.400
 122779927.285 7  95672759.11544  23364258.086                    23364265.441
        42.700          27.900
                  85838873.970 6  20631437.500                    20631437.418
                        41.500
 114795319.636 8  89450910.70946  21844823.141                    21844829.480
        49.600          37.700
 116509613.499 7  90786894.28445  22171042.477                    22171047.934
        45.900          35.200
                  91313211.971 7  21931771.391                    21931773.801
                        42.400
 112547480.481 7  87699519.12746  21417073.820                    21417074.828
        45.600          37.300
 18  3 15 14  8 45.0000000  0 17R01R02G25G12R12R10R11G14R20G17G22G01
                                R19G24G32R03G19
                  97995491.766 5  23569819.031                    23569821.816
                        31.000
                  85556586.690 6  20614202.406                    20614205.156
                        41.200
 128392684.960 6 100046381.85743  24432341.328                    24432349.016
        41.900          22.300
 112661308.555 8  87787919.77546  21438704.742                    21438707.191
        50.300          37.100
                                  22906328.297

                  84759127.326 6  20443626.727                    20443628.742
                        39.100
                  82589048.069 7  19871247.742                    19871249.504
                        42.000
 121581673.111 7  94738873.89945  23136203.211                    23136206.543
        44.500          31.200
                  87449109.973 6  21025828.570                    21025831.582
                        41.300
 116206379.962 8  90550464.20046  22113350.516                    22113354.301
        49.500          36.800
 123656170.110 7  96355433.82645  23530982.469                    23530984.059
        43.800          31.500
 122782759.701 7  95674966.18544  23364797.797                    23364804.703
        43.600          29.900
                  85840601.544 6  20631852.570                    20631853.027
                        41.800
 114797971.957 8  89452977.44446  21845328.789                    21845334.230
        50.100          38.100
 116509554.472 7  90786848.29845  22171031.266                    22171036.949
        45.500          34.700
                  91311081.728 7  21931260.156                    21931262.258
                        43.700
 112547448.358 7  87699494.09046  21417067.172                    21417068.996
        45.200          36.800
 18  3 15 14  8 46.0000000  0 17R01R02G25G12R12R10R11G14R20G17G22G01
                                R19G24G32R03G19
                  97999275.941 5  23570728.594                    23570732.012
                        30.800
                  85557674.073 6  20614465.063                    20614467.258
                        41.400
 128389119.967 7 100043603.96043  24431663.969                    24431670.426
        42.600          22.900
 112659355.299 8  87786397.76146  21438331.781                    21438335.012
        49.600          36.500
                                  22905588.422

                  84761642.434 6  20444232.289                    20444235.926
                        38.900
                  82588046.102 7  19871005.781                    19871008.500
                        42.300
 121579814.736 7  94737425.79445  23135849.813                    23135853.105
        44.300          30.400
                  87447161.064 6  21025360.672                    21025363.434
                        41.200
 116207795.552 8  90551567.25646  22113620.078                    22113623.621
        49.900          37.000
 123655253.400 7  96354719.50145  23530808.430                    23530809.637
        43.800          30.400
 122785592.627 7  95677173.64944  23365336.570                    23365343.754
        43.700          29.300
                  85842329.803 6  20632268.484                    20632268.297
                        41.500
 114800624.834 8  89455044.62046  21845832.844                    21845839.449
        50.300          38.000
 116509496.126 7  90786802.83745  22171020.328                    22171025.668
        46.200          34.800
                  91308951.938 7  21930748.586                    21930750.766
                        43.400
 112547417.011 7  87699469.65746  21417061.383                    21417062.688
        45.600          36.800
 18  3 15 14  8 47.0000000  0 17R01R02G25G12R12R10R11G14R20G17G22G01
                                R19G24G32R03G19
                  98003060.222 5  23571638.508                    23571642.273
                        33.700
                  85558762.224 6  20614726.266                    20614729.336
                        40.400
 128385555.091 6 100040826.11543  24430984.609                    24430992.285
        40.900          23.200
 112657402.596 8  87784876.17246  21437960.719                    21437963.246
        49.400          36.900
                                  22904851.375

                  84764158.063 6  20444838.172                    20444842.691
                        38.800
                  82587044.752 6  19870765.320                    19870767.559
                        41.800
 121577956.865 7  94735978.09344  23135496.227                    23135499.414
        43.600          29.400
                  87445212.692 6  21024891.469                    21024895.016
                        41.400
 116209211.770 8  90552670.80346  22113889.219                    22113893.047
        49.800          37.000
 123654337.283 7  96354005.65545  23530634.156                    23530635.555
        44.100          31.000
 122788426.141 6  95679381.59543  23365875.805                    23365883.105
        39.900          23.500
                  85844058.718 6  20632683.672                    20632683.977
                        41.500
 114803278.259 8  89457112.22846  21846338.102                    21846344.285
        50.100          37.700
 116509438.506 7  90786757.92945  22171009.203                    22171015.297
        46.100          34.900
                  91306822.600 6  21930237.422                    21930239.344
                        41.700
 112547386.423 7  87699445.81346  21417055.648                    21417057.016
        46.100          37.100
 18  3 15 14  8 48.0000000  0 17R01R02G25G12R12R10R11G14R20G17G22G01
                                R19G24G32R03G19
                  98006844.818 5  23572548.172                    23572552.195
                        31.500
                  85559851.133 6  20614989.398                    20614990.961
                        40.900
 128381990.496 7 100038048.51143  24430306.539                    24430313.594
        42.500          23.600
 112655450.496 8  87783355.05946  21437589.188                    21437592.250
        49.500          36.200
                                  22904114.352

                  84766674.190 6  20445446.086                    20445449.656
                        40.200
                  82586044.015 6  19870524.594                    19870526.500
                        41.900
 121576099.508 7  94734530.80845  23135143.180                    23135145.957
        44.500          30.700
                  87443264.953 6  21024423.680                    21024426.539
                        41.400
 116210628.604 8  90553774.82646  22114158.961                    22114162.891
        49.500          36.800
 123653421.795 7  96353292.29544  23530459.766                    23530461.180
        43.800          29.800
 122791260.232 6  95681590.00643  23366415.344                    23366422.078
        40.600          23.200
                  85845788.296 6  20633099.477                    20633099.531
                        41.900
 114805932.234 8  89459180.26046  21846843.352                    21846849.313
        49.800          37.900
 116509381.577 7  90786713.56846  22170997.820                    22171004.238
        47.300          37.500
                  91304693.832 6  21929725.953                    21929727.996
                        41.700
 112547356.624 7  87699422.57946  21417049.922                    21417051.336
        46.200          36.700
 18  3 15 14  8 49.0000000  0 17R01R02G25G12R12R10R11G14R20G17G22G01
                                R19G24G32R03G19
                  98010629.542 5  23573459.992                    23573462.645
                        31.000
                  85560940.743 6  20615252.828                    20615254.352
                        41.000
 128378426.013 7 100035270.98243  24429628.102                    24429635.352
        42.600          22.300
 112653498.969 8  87781834.38446  21437217.523                    21437221.121
        49.500          36.600
                                  22903377.734

                  84769190.826 6  20446052.352                    20446056.191
                        39.600
                  82585043.857 7  19870283.695                    19870285.469
                        42.300
 121574242.604 7  94733083.88344  23134788.891                    23134792.914
        42.000          27.000
                  87441317.766 6  21023955.672                    21023958.145
                        41.600
 116212046.051 8  90554879.33446  22114428.727                    22114432.453
        50.100          36.900
 123652506.874 7  96352579.39244  23530285.727                    23530287.301
        44.000          27.800
 122794094.808 6  95683798.79643  23366954.898                    23366962.262
        38.500          21.500
                  85847518.521 6  20633515.414                    20633515.723
                        41.200
 114808586.753 8  89461248.72746  21847348.164                    21847354.039
        50.000          38.200
 116509325.333 7  90786669.74646  22170987.563                    22170993.469
        47.300          36.600
                  91302565.548 6  21929214.789                    21929216.789
                        40.700
 112547327.600 7  87699399.95546  21417044.063                    21417045.816
        46.000          36.200
 18  3 15 14  8 50.0000000  0 17R01R02G25G12R12R10R11G14R20G17G22G01
                                R19G24G32R03G19
                  98014414.512 5  23574370.711                    23574373.215
                        33.200
                  85562031.121 6  20615515.188                    20615517.070
                        41.300
 128374861.819 6 100032493.69843  24428949.938                    24428956.988
        41.200          22.200
 112651548.076 8  87780314.21046  21436846.750                    21436849.605
        49.800          36.300
                                  22902640.680

                  84771708.020 6  20446659.781                    20446663.395
                        39.400
                  82584044.393 7  19870042.867                    19870044.863
                        42.200
 121572386.258 7  94731637.37944  23134435.172                    23134439.105
        43.000          29.500
                  87439371.167 6  21023487.414                    21023490.770
                        41.600
 116213464.190 8  90555984.38646  22114698.898                    22114702.289
        50.000          36.500
 123651592.648 7  96351867.03345  23530111.453                    23530113.137
        45.000          31.400
 122796930.048 7  95686008.07144  23367494.258                    23367501.266
        42.400          28.900
                  85849249.485 6  20633931.047                    20633931.285
                        41.500
 114811241.898 8  89463317.67446  21847853.945                    21847859.539
        49.900          37.600
 116509269.854 7  90786626.53146  22170976.750                    22170982.695
        47.000          36.000
                  91300437.810 7  21928703.945                    21928705.176
                        42.400
 112547299.418 7  87699377.98846  21417039.352                    21417040.684
        46.200          37.300
 18  3 15 14  8 51.0000000  0 17R01R02G25G12R12R10R11G14R20G17G22G01
                                R19G24G32R03G19
                  98018199.601 5  23575279.961                    23575283.977
                        35.000
                  85563122.177 6  20615777.055                    20615779.180
                        41.000
 128371297.748 7 100029716.50543  24428272.148                    24428278.887
        42.600          22.800
 112649597.742 8  87778794.47746  21436475.859                    21436478.773
        49.300          36.400
                                  22901902.180

                  84774225.677 6  20447267.383                    20447271.281
                        39.100
                  82583045.459 7  19869802.891                    19869804.875
                        42.300
 121570530.423 7  94730191.25445  23134081.664                    23134086.355
        43.000          30.200
                  87437425.097 6  21023017.969                    21023022.488
                        41.200
 116214882.902 8  90557089.87846  22114968.625                    22114972.250
        49.900          36.100
 123650678.941 7  96351155.06545  23529937.500                    23529939.422
        44.800          30.400
 122799765.785 6  95688217.71144  23368033.617                    23368040.730
        41.600          26.600
                  85850981.090 6  20634347.648                    20634347.555
                        41.700
 114813897.540 8  89465387.00846  21848358.789                    21848364.891
        49.800          37.600
 116509215.056 7  90786583.83546  22170966.680                    22170972.582
        46.300          36.600
                  91298310.558 7  21928193.039                    21928193.871
                        42.500
 112547271.982 7  87699356.61046  21417034.047                    21417035.195
        45.600          36.900
 18  3 15 14  8 52.0000000  0 17R01R02G25G12R12R10R11G14R20G17G22G01
                                R19G24G32R03G19
                  98021984.936 5  23576190.406                    23576194.211
                        32.500
                  85564213.934 6  20616040.359                    20616042.621
                        40.600
 128367733.870 7 100026939.47443  24427593.828                    24427601.008
        43.200          22.500
 112647647.959 8  87777275.16546  21436103.688                    21436107.313
        49.200          36.800
                                  22901165.000

                  84776743.854 6  20447873.711                    20447877.766
                        39.800
                  82582047.149 7  19869563.055                    19869564.949
                        42.400
 121568675.137 6  94728745.60244  23133730.016                    23133733.313
        40.800          28.600
                  87435479.646 6  21022551.500                    21022554.398
                        41.600
 116216302.231 8  90558195.85046  22115238.922                    22115242.043
        49.900          36.700
 123649765.815 7  96350443.52645  23529764.148                    23529765.293
        45.500          30.600
 122802602.157 6  95690427.88044  23368573.773                    23368580.633
        40.600          24.300
                  85852713.357 6  20634764.008                    20634763.961
                        41.500
 114816553.743 8  89467456.77046  21848864.422                    21848870.098
        50.000          38.100
 116509160.938 7  90786541.65346  22170955.539                    22170962.117
        45.700          36.500
                  91296183.809 7  21927682.156                    21927683.742
                        42.100
 112547245.298 7  87699335.81946  21417028.406                    21417030.184
        46.200          37.100
 18  3 15 14  8 53.0000000  0 17R01R02G25G12R12R10R11G14R20G17G22G01
                                R19G24G32R03G19
                  98025770.407 5  23577101.586                    23577104.926
                        32.800
                  85565306.412 6  20616303.359                    20616306.027
                        41.400
 128364170.153 7 100024162.57843  24426915.016                    24426922.344
        42.000          22.500
 112645698.771 8  87775756.32446  21435734.430                    21435736.781
        49.900          37.200
                                  22900427.313

                  84779262.522 6  20448482.070                    20448485.902
                        39.700
                  82581049.452 7  19869322.891                    19869324.695
                        42.400
 121566820.272 6  94727300.28144  23133376.688                    23133380.125
        41.900          28.900
                  87433534.715 6  21022085.125                    21022086.855
                        41.800
 116217722.194 8  90559302.31546  22115509.008                    22115512.508
        50.500          36.200
 123648853.297 7  96349732.46445  23529590.875                    23529591.836
        45.400          30.900
 122805439.024 6  95692638.43344  23369113.398                    23369120.285
        40.300          25.700
                  85854446.318 6  20635180.391                    20635180.469
                        41.800
 114819210.483 8  89469526.95546  21849370.328                    21849376.266
        49.800          37.500
 116509107.520 7  90786500.01746  22170945.805                    22170951.914
        46.000          36.400
                  91294057.575 6  21927170.578                    21927173.168
                        41.600
 112547219.380 7  87699315.61846  21417023.484                    21417025.102
        46.000          36.500
 18  3 15 14  8 54.0000000  0 17R01R02G25G12R12R10R11G14R20G17G22G01
                                R19G24G32R03G19
                  98029556.073 5  23578011.578                    23578015.277
                        34.000
                  85566399.599 6  20616567.164                    20616569.398
                        41.400
 128360606.753 7 100021385.92343  24426237.055                    24426244.340
        42.600          22.500
 112643750.189 8  87774237.94546  21435362.703                    21435365.945
        49.500          37.100
                                  22899689.320

                  84781781.714 6  20449088.992                    20449092.832
                        39.900
                  82580052.395 7  19869082.414                    19869085.145
                        42.600
 121564965.918 7  94725855.33744  23133023.828                    23133027.457
        42.500          29.000
                  87431590.366 6  21021616.203                    21021619.559
                        41.500
 116219142.764 8  90560409.24746  22115779.219                    22115782.809
        50.300          36.900
 123647941.355 7  96349021.84245  23529416.570                    23529418.113
        44.200          30.000
 122808276.483 6  95694849.47044  23369653.578                    23369660.375
        40.600          25.100
                  85856179.972 6  20635596.961                    20635596.480
                        41.600
 114821867.803 8  89471597.59546  21849875.086                    21849881.309
        49.200          38.300
 116509054.833 7  90786458.95846  22170935.680                    22170941.805
        46.400          36.600
                  91291931.869 7  21926660.617                    21926662.660
                        42.000
 112547194.262 7  87699296.03546  21417019.219                    21417020.418
        46.000          37.500
 18  3 15 14  8 55.0000000  0 17R01R02G25G12R12R10R11G14R20G17G22G01
                                R19G24G32R03G19
                  98033341.956 5  23578922.930                    23578925.738
                        32.800
                  85567493.598 6  20616830.594                    20616832.855
                        41.600
 128357043.467 7 100018609.32543  24425558.898                    24425566.191
        43.000          23.800
 112641802.164 8  87772719.99946  21434991.008                    21434994.285
        49.100          36.300
                                  22898953.164

                  84784301.418 6  20449697.313                    20449700.855
                        39.600
                  82579055.940 7  19868842.773                    19868845.301
                        42.200
 121563112.128 7  94724410.81144  23132671.797                    23132674.555
        42.900          27.600
                  87429646.644 6  21021147.828                    21021152.016
                        41.800
 116220563.979 8  90561516.68846  22116049.563                    22116053.199
        50.100          36.600
 123647030.043 7  96348311.72645  23529243.625                    23529245.016
        43.800          30.000
 122811114.516 6  95697060.94644  23370193.328                    23370200.477
        41.700          26.300
                  85857914.303 7  20636013.633                    20636013.613
                        42.000
 114824525.673 8  89473668.65946  21850381.836                    21850387.297
        50.000          39.000
 116509002.826 7  90786418.44446  22170925.922                    22170932.098
        45.700          36.300
                  91289806.672 7  21926150.219                    21926152.691
                        42.400
 112547169.924 7  87699277.05646  21417013.930                    21417015.762
        46.500          37.600
 18  3 15 14  8 56.0000000  0 17R01R02G25G12R12R10R11G14R20G17G22G01
                                R19G24G32R03G19
                  98037128.039 5  23579833.422                    23579836.605
                        33.400
                  85568588.304 6  20617095.273                    20617097.070
                        41.200
 128353480.409 7 100015832.91543  24424881.250                    24424888.574
        42.500          23.500
 112639854.795 8  87771202.57346  21434623.250                    21434624.254
        50.000          37.300
                                  22898217.078

                  84786821.652 6  20450305.234                    20450309.090
                        39.900
                  82578060.112 6  19868603.695                    19868605.344
                        41.900
 121561258.844 7  94722966.68344  23132318.719                    23132321.992
        43.900          28.700
                  87427703.517 6  21020682.039                    21020684.578
                        41.700
 116221985.814 8  90562624.60446  22116320.563                    22116323.898
        49.700          36.500
 123646119.347 7  96347602.08344  23529070.336                    23529071.645
        43.600          29.900
 122813953.115 6  95699272.83644  23370733.219                    23370740.871
        41.700          28.200
                  85859649.334 6  20636430.625                    20636430.641
                        41.400
 114827184.104 8  89475740.17046  21850886.914                    21850893.637
        49.300          37.600
 116508951.587 7  90786378.51645  22170916.555                    22170922.340
        46.400          35.900
                  91287682.055 7  21925639.953                    21925642.355
                        42.500
 112547146.377 7  87699258.70246  21417010.039                    21417011.352
        46.000          37.200
 18  3 15 14  8 57.0000000  0 17R01R02G25G12R12R10R11G14R20G17G22G01
                                R19G24G32R03G19
                  98040914.361 5  23580744.336                    23580747.043
                        32.900
                  85569683.777 6  20617358.844                    20617360.516
                        41.400
 128349917.543 7 100013056.62643  24424203.234                    24424210.141
        42.800          21.500
 112637908.000 8  87769685.58146  21434250.555                    21434254.121
        49.300          37.200
                                  22897478.102

                  84789342.378 6  20450912.945                    20450916.996
                        39.500
                  82577064.857 7  19868364.133                    19868365.863
                        42.100
 121559406.130 7  94721522.98344  23131965.469                    23131969.211
        42.100          27.200
                  87425760.956 6  21020213.578                    21020217.957
                        41.900
 116223408.279 8  90563733.01246  22116591.008                    22116594.406
        49.600          36.900
 123645209.219 7  96346892.89444  23528896.797                    23528898.539
        42.500          29.900
 122816792.352 6  95701485.21444  23371273.703                    23371280.730
        40.700          27.300
                  85861385.066 6  20636848.344                    20636848.840
                        41.200
 114829843.078 8  89477812.09246  21851393.797                    21851398.984
        49.900          37.900
 116508901.034 7  90786339.12546  22170906.930                    22170912.641
        47.200          36.700
                  91285557.952 7  21925129.633                    21925132.086
                        42.600
 112547123.633 7  87699240.97246  21417006.211                    21417007.488
        45.800          36.700
 18  3 15 14  8 58.0000000  0 17R01R02G25G12R12R10R11G14R20G17G22G01
                                R19G24G32R03G19
                  98044700.857 5  23581654.688                    23581658.043
                        32.200
                  85570779.981 6  20617622.688                    20617624.891
                        41.400
 128346354.885 7 100010280.49543  24423525.563                    24423532.617
        42.600          21.800
 112635961.771 8  87768169.04146  21433880.359                    21433883.285
        49.100          37.200
                                  22896737.258

                  84791863.647 6  20451521.805                    20451525.016
                        39.300
                  82576070.236 6  19868125.375                    19868126.438
                        41.800
 121557553.961 7  94720079.74044  23131613.953                    23131616.996
        42.400          28.000
                  87423819.014 6  21019746.914                    21019750.902
                        41.800
 116224831.366 8  90564841.91046  22116861.758                    22116865.441
        49.400          36.300
 123644299.736 7  96346184.21244  23528724.117                    23528725.438
        42.600          28.400
 122819632.154 6  95703698.03244  23371813.883                    23371821.215
        40.900          25.300
                  85863121.477 6  20637265.016                    20637265.262
                        41.000
 114832502.611 8  89479884.45346  21851899.352                    21851905.094
        49.900          37.400
 116508851.218 7  90786300.29846  22170897.305                    22170903.082
        46.700          36.100
                  91283434.362 6  21924618.930                    21924621.547
                        41.700
 112547101.703 7  87699223.87246  21417001.289                    21417003.066
        45.600          36.600
 18  3 15 14  8 59.0000000  0 17R01R02G25G12R12R10R11G14R20G17G22G01
                                R19G24G32R03G19
                  98048487.604 5  23582565.547                    23582568.566
                        34.200
                  85571876.916 6  20617887.313                    20617889.051
                        41.500
 128342792.459 7 100007504.61743  24422848.094                    24422854.227
        43.900          22.200
 112634016.189 8  87766653.01046  21433511.852                    21433513.426
        49.900          36.600
                                  22895999.594

                  84794385.453 6  20452129.203                    20452133.492
                        39.600
                  82575076.250 7  19867885.266                    19867887.648
                        42.100
 121555702.317 6  94718636.93644  23131261.609                    23131264.809
        41.300          25.600
                  87421877.652 7  21019281.383                    21019284.129
                        42.300
 116226255.117 8  90565951.33646  22117132.656                    22117136.254
        49.700          36.900
 123643390.902 7  96345476.03745  23528550.500                    23528552.215
        44.300          30.500
 122822472.492 6  95705911.30843  23372354.711                    23372362.023
        40.000          22.900
                  85864858.572 6  20637683.414                    20637682.512
                        41.400
 114835162.727 8  89481957.27046  21852405.633                    21852410.965
        49.400          37.500
 116508802.156 7  90786262.05746  22170888.063                    22170893.809
        46.500          36.500
                  91281311.316 6  21924109.664                    21924111.668
                        41.600
 112547080.555 7  87699207.38046  21416997.203                    21416998.668
        45.400          37.600
 18  3 15 14  9  0.0000000  0 17R01R02G25G12R12R10R11G14R20G17G22G01
                                R19G24G32R03G19
                  98052274.459 5  23583475.945                    23583479.703
                        33.200
                  85572974.573 6  20618151.070                    20618153.465
                        41.400
 128339230.164 7 100004728.81843  24422170.430                    24422176.855
        43.900          22.600
 112632071.139 8  87765137.38146  21433139.766                    21433143.391
        48.800          36.800
                                  22895261.656

                  84796907.735 6  20452738.734                    20452741.563
                        39.600
                  82574082.843 7  19867646.664                    19867648.492
                        42.100
 121553851.115 6  94717194.45044  23130908.305                    23130912.531
        39.400          25.000
                  87419936.871 7  21018815.406                    21018818.090
                        42.300
 116227679.422 8  90567061.18946  22117404.000                    22117407.457
        50.500          36.900
 123642482.607 7  96344768.27945  23528377.805                    23528379.043
        44.700          30.500
 122825313.420 6  95708125.04144  23372895.773                    23372902.508
        41.100          26.000
                  85866596.309 6  20638100.688                    20638100.836
                        41.400
 114837823.302 8  89484030.45646  21852912.172                    21852917.758
        49.900          37.400
 116508753.717 7  90786224.30346  22170878.789                    22170884.762
        45.900          36.300
                  91279188.749 6  21923600.383                    21923601.488
                        41.800
 112547060.180 7  87699191.50046  21416993.570                    21416995.328
        45.800          36.900
 18  3 15 14  9  1.0000000  0 17R01R02G25G12R12R10R11G14R20G17G22G01
                                R19G24G32R03G19
                  98056061.511 5  23584387.180                    23584390.602
                        32.900
                  85574072.982 6  20618415.727                    20618418.008
                        41.500
 128335668.112 7 100001953.18943  24421492.320                    24421498.496
        43.900          23.400
 112630126.653 8  87763622.19146  21432769.711                    21432773.121
        48.800          36.600
                                  22894521.141

                  84799430.532 6  20453346.117                    20453350.469
                        39.500
                  82573090.099 7  19867407.805                    19867409.715
                        42.000
 121552000.400 6  94715752.35444  23130555.344                    23130560.129
        38.900          24.500
                  87417996.644 6  21018347.180                    21018351.184
                        41.900
 116229104.378 8  90568171.54746  22117675.070                    22117678.359
        50.300          37.600
 123641574.962 7  96344061.02445  23528205.133                    23528206.547
        44.500          30.400
 122828154.918 6  95710339.23844  23373436.969                    23373443.203
        41.600          24.700
                  85868334.730 6  20638519.031                    20638519.109
                        41.100
 114840484.496 8  89486104.11546  21853417.680                    21853424.059
        49.400          37.400
 116508706.040 7  90786187.14746  22170869.391                    22170875.863
        45.800          36.100
                  91277066.673 6  21923090.734                    21923091.758
                        41.200
 112547040.597 7  87699176.23946  21416989.516                    21416991.195
        45.600          37.100
 18  3 15 14  9  2.0000000  0 17R01R02G25G12R12R10R11G14R20G17G22G01
                                R19G24G32R03G19
                  98059848.786 5  23585297.445                    23585301.461
                        33.400
                  85575172.070 6  20618680.492                    20618683.496
                        41.800
 128332106.266 7  99999177.71543  24420814.961                    24420821.355
        43.700          22.200
 112628182.801 8  87762107.50846  21432401.297                    21432403.410
        49.600          37.300
                                  22893781.844

                  84801953.851 6  20453953.906                    20453958.699
                        39.100
                  82572097.923 7  19867169.133                    19867170.902
                        42.100
 121550150.188 6  94714310.66944  23130203.430                    23130208.344
        38.100          24.700
                  87416057.011 6  21017881.781                    21017884.629
                        41.600
 116230529.946 8  90569282.38846  22117946.328                    22117949.523
        50.600          36.700
 123640667.818 7  96343354.16845  23528032.570                    23528033.652
        44.100          30.800
 122830996.899 6  95712553.80744  23373977.813                    23373983.859
        41.800          25.600
                  85870073.800 6  20638936.406                    20638935.988
                        40.900
 114843146.175 8  89488178.14546  21853925.125                    21853930.527
        49.100          37.400
 116508659.035 7  90786150.52146  22170860.820                    22170866.660
        46.000          36.500
                  91274945.087 7  21922580.398                    21922582.492
                        42.100
 112547021.795 7  87699161.60946  21416986.500                    21416987.430
        45.800          37.300
 18  3 15 14  9  3.0000000  0 17R01R02G25G12R12R10R11G14R20G17G22G01
                                R19G24G32R03G19
                  98063636.273 5  23586208.781                    23586212.738
                        32.000
                  85576271.865 6  20618945.492                    20618948.543
                        41.000
 128328544.512 7  99996402.31143  24420136.766                    24420143.168
        42.700          22.300
 112626239.514 8  87760593.25646  21432029.820                    21432033.629
        48.800          36.900
                                  22893044.516

                  84804477.668 6  20454563.945                    20454567.723
                        40.000
                  82571106.341 7  19866930.305                    19866932.684
                        42.300
 121548300.523 6  94712869.38344  23129852.430                    23129855.707
        41.600          28.000
                  87414117.945 7  21017415.305                    21017418.629
                        42.300
 116231956.138 8  90570393.70446  22118217.852                    22118220.961
        50.800          36.900
 123639761.319 7  96342647.81145  23527860.086                    23527861.387
        44.300          30.200
 122833839.459 7  95714768.82244  23374518.234                    23374524.867
        42.300          27.800
                  85871813.533 6  20639354.523                    20639354.477
                        41.000
 114845808.434 8  89490252.63546  21854431.039                    21854437.238
        49.500          37.100
 116508612.756 7  90786114.46446  22170851.656                    22170857.824
        46.500          36.500
                  91272824.038 7  21922071.055                    21922073.078
                        42.200
 112547003.738 7  87699147.55546  21416982.867                    21416984.422
        46.700          37.900
 18  3 15 14  9  4.0000000  0 17R01R02G25G12R12R10R11G14R20G17G22G01
                                R19G24G32R03G19
                  98067423.981 4  23587120.102                    23587123.465
                        29.900
                  85577372.331 6  20619209.570                    20619212.656
                        40.600
 128324983.086 6  99993627.19343  24419458.523                    24419465.641
        40.800          21.100
 112624296.780 8  87759079.44546  21431661.313                    21431663.727
        49.000          37.000
                                  22892308.953

                  84807001.978 6  20455172.375                    20455177.156
                        39.100
                  82570115.386 6  19866691.828                    19866693.781
                        41.700
 121546451.353 6  94711428.49544  23129501.188                    23129504.070
        41.800          28.100
                  87412179.370 6  21016948.477                    21016952.465
                        41.900
 116233382.928 8  90571505.47846  22118489.383                    22118492.461
        50.100          36.800
 123638855.413 7  96341941.90745  23527687.750                    23527689.047
        44.400          30.500
 122836682.588 7  95716984.26344  23375059.141                    23375065.668
        42.600          27.000
                  85873553.967 6  20639772.102                    20639773.105
                        41.500
 114848471.195 8  89492327.50846  21854938.469                    21854943.793
        49.300          36.900
 116508567.154 7  90786078.94546  22170843.289                    22170849.250
        46.400          36.900
                  91270703.452 6  21921562.008                    21921564.121
                        41.700
 112546986.464 7  87699134.10446  21416979.078                    21416980.887
        46.400          37.200
 18  3 15 14  9  5.0000000  0 17R01R02G25G12R12R10R11G14R20G17G22G01
                                R19G24G32R03G19
                  98071211.778 5  23588031.734                    23588034.840
                        34.700
                  85578473.542 6  20619476.555                    20619478.559
                        41.600
 128321421.751 7  99990852.12243  24418781.203                    24418787.922
        44.700          20.900
 112622354.679 8  87757566.11846  21431291.922                    21431294.328
        49.800          36.300
                                  22891574.898

                  84809526.793 6  20455781.336                    20455784.980
                        39.000
                  82569125.079 7  19866453.977                    19866455.832
                        42.400
 121544602.738 7  94709988.02344  23129148.633                    23129152.203
        42.400          28.700
                  87410241.429 6  21016483.203                    21016486.426
                        41.300
 116234810.350 8  90572617.74846  22118761.094                    22118764.047
        50.300          37.000
 123637950.144 7  96341236.50845  23527515.523                    23527516.594
        44.600          30.900
 122839526.254 7  95719200.10844  23375600.180                    23375607.020
        42.900          25.800
                  85875295.085 6  20640191.500                    20640191.645
                        40.800
 114851134.542 8  89494402.84146  21855444.883                    21855450.781
        49.300          37.400
 116508522.274 7  90786043.97746  22170834.594                    22170840.816
        46.900          37.500
                  91268583.440 7  21921052.398                    21921054.816
                        42.500
 112546969.980 7  87699121.26446  21416976.813                    21416977.895
        46.500          37.900
 18  3 15 14  9  6.0000000  0 17R01R02G25G12R12R10R11G14R20G17G22G01
                                R19G24G32R03G19
                  98074999.743 5  23588941.930                    23588946.090
                        30.700
                  85579575.476 6  20619742.328                    20619743.953
                        41.100
 128317860.649 6  99988077.24343  24418103.914                    24418110.258
        40.600          20.400
 112620413.113 8  87756053.21545  21430921.266                    21430925.000
        49.300          35.800
                                  22890837.391

                  84812052.094 6  20456391.531                    20456394.805
                        39.200
                  82568135.374 7  19866216.313                    19866217.727
                        42.200
 121542754.522 7  94708547.85444  23128797.563                    23128800.457
        42.700          26.400
                  87408304.091 6  21016018.438                    21016020.496
                        41.900
 116236238.377 8  90573730.50346  22119032.633                    22119035.699
        49.800          36.300
 123637045.455 7  96340531.58145  23527343.281                    23527344.742
        43.700          30.900
 122842370.497 7  95721416.38744  23376141.086                    23376147.820
        42.800          26.700
                  85877036.904 6  20640610.250                    20640609.867
                        41.700
 114853798.440 8  89496478.60646  21855951.977                    21855957.484
        49.300          37.800
 116508478.094 7  90786009.55046  22170826.625                    22170832.434
        47.600          37.600
                  91266463.948 6  21920544.344                    21920545.844
                        41.900
 112546954.257 7  87699109.01346  21416973.344                    21416974.832
        46.200          37.400
 18  3 15 14  9  7.0000000  0 17R01R02G25G12R12R10R11G14R20G17G22G01
                                R19G24G32R03G19
                  98078787.876 5  23589853.148                    23589857.188
                        30.700
                  85580678.146 6  20620007.695                    20620009.297
                        41.200
 128314299.652 6  99985302.45443  24417425.992                    24417432.465
        41.700          20.400
 112618472.152 8  87754540.78246  21430553.070                    21430555.078
        49.100          37.500
                                  22890100.078

                  84814577.960 6  20456998.102                    20457004.090
                        39.700
                  82567146.273 6  19865977.469                    19865980.023
                        41.900
 121540906.892 7  94707108.15044  23128446.305                    23128448.820
        42.400          28.200
                  87406367.274 6  21015552.602                    21015554.941
                        41.400
 116237667.048 8  90574843.75745  22119304.148                    22119307.734
        49.500          35.400
 123636141.359 7  96339827.12445  23527171.344                    23527172.941
        43.800          31.200
 122845215.292 7  95723633.09944  23376682.281                    23376689.492
        43.000          28.300
                  85878779.356 6  20641028.859                    20641028.500
                        41.400
 114856462.867 8  89498554.79046  21856458.781                    21856464.844
        49.300          37.100
 116508434.635 7  90785975.68046  22170818.086                    22170824.328
        47.000          37.700
                  91264344.979 6  21920034.063                    21920036.613
                        41.400
 112546939.307 7  87699097.37146  21416969.969                    21416972.023
        45.700          37.300
 18  3 15 14  9  8.0000000  0 17R01R02G25G12R12R10R11G14R20G17G22G01
                                R19G24G32R03G19
                  98082576.361 4  23590764.695                    23590768.250
                        29.800
                  85581781.645 6  20620273.602                    20620275.965
                        41.500
 128310738.944 7  99982527.93043  24416748.055                    24416754.547
        42.100          20.100
 112616531.794 8  87753028.81146  21430183.344                    21430186.066
        48.900          36.300
                                  22889362.086

                  84817104.304 6  20457609.859                    20457612.809
                        39.300
                  82566157.785 6  19865739.859                    19865741.820
                        41.700
 121539059.813 7  94705668.86544  23128094.570                    23128097.418
        43.200          27.900
                  87404431.047 6  21015086.406                    21015088.984
                        41.900
 116239096.371 8  90575957.52545  22119576.414                    22119579.699
        49.600          35.600
 123635237.849 7  96339123.10245  23526999.625                    23527000.691
        43.700          32.000
 122848060.686 7  95725850.27744  23377223.438                    23377230.902
        42.100          26.000
                  85880522.510 6  20641447.695                    20641447.773
                        41.600
 114859127.907 8  89500631.46446  21856965.484                    21856971.762
        49.500          36.800
 116508391.863 8  90785942.33546  22170809.664                    22170815.727
        48.000          38.600
                  91262226.539 6  21919526.453                    21919527.840
                        41.800
 112546925.184 7  87699086.37146  21416967.984                    21416969.063
        46.600          38.100
 18  3 15 14  9  9.0000000  0 17R01R02G25G12R12R10R11G14R20G17G22G01
                                R19G24G32R03G19
                  98086365.026 5  23591674.961                    23591679.621
                        32.300
                  85582885.844 6  20620539.648                    20620541.426
                        41.500
 128307178.467 7  99979753.53343  24416071.367                    24416077.742
        44.300          21.700
 112614592.062 8  87751517.31646  21429814.063                    21429817.102
        48.200          37.100
                                  22888625.758

                  84819631.168 6  20458218.508                    20458222.504
                        39.800
                  82565169.951 7  19865502.180                    19865504.125
                        42.300
 121537213.209 7  94704229.93144  23127742.297                    23127746.402
        42.900          27.300
                  87402495.438 7  21014621.195                    21014624.531
                        42.300
 116240526.291 8  90577071.75745  22119848.727                    22119851.754
        49.900          35.800
 123634335.005 7  96338419.58045  23526827.758                    23526828.855
        44.000          31.700
 122850906.627 6  95728067.84144  23377765.586                    23377772.059
        41.400          25.400
                  85882266.386 7  20641866.750                    20641866.477
                        42.000
 114861793.496 8  89502708.52646  21857473.367                    21857478.574
        49.600          37.300
 116508349.852 7  90785909.57746  22170802.164                    22170807.883
        47.600          38.300
                  91260108.710 6  21919017.266                    21919019.355
                        41.200
 112546911.902 7  87699076.04246  21416965.273                    21416966.922
        46.500          37.500
 18  3 15 14  9 10.0000000  0 17R01R02G25G12R12R10R11G14R20G17G22G01
                                R19G24G32R03G19
                  98090153.875 5  23592586.313                    23592591.035
                        33.600
                  85583990.757 6  20620805.570                    20620807.684
                        41.900
 128303618.181 7  99976979.25444  24415392.953                    24415399.875
        43.600          25.500
 112612652.904 8  87750006.28446  21429445.422                    21429448.066
        48.800          37.000
                                  22887889.891

                  84822158.606 6  20458827.586                    20458832.023
                        39.100
                  82564182.729 6  19865264.813                    19865266.180
                        41.900
 121535367.109 7  94702791.39344  23127390.586                    23127394.672
        43.900          29.100
                  87400560.409 6  21014156.461                    21014158.773
                        41.600
 116241956.842 8  90578186.46546  22120121.047                    22120123.906
        50.400          36.400
 123633432.753 7  96337716.52644  23526655.898                    23526657.355
        43.500          29.100
 122853753.128 7  95730285.86744  23378307.492                    23378313.551
        42.600          26.400
                  85884010.924 7  20642286.336                    20642286.387
                        42.100
 114864459.603 8  89504786.00046  21857980.281                    21857986.195
        49.300          37.000
 116508308.547 8  90785877.38046  22170793.711                    22170800.238
        48.500          37.900
                  91257991.357 6  21918508.211                    21918510.453
                        40.500
 112546899.367 7  87699066.29246  21416962.836                    21416964.449
        45.100          36.600
 18  3 15 14  9 11.0000000  0 17R01R02G25G12R12R10R11G14R20G17G22G01
                                R19G24G32R03G19
                  98093942.882 5  23593497.102                    23593501.832
                        33.300
                  85585096.394 6  20621071.914                    20621073.672
                        41.000
 128300058.107 7  99974205.13544  24414715.203                    24414722.566
        44.500          25.300
 112610714.356 7  87748495.73445  21429075.961                    21429079.074
        47.700          35.900
                                  22887152.625

                  84824686.492 6  20459438.359                    20459442.281
                        39.600
                  82563196.088 6  19865026.773                    19865029.191
                        41.800
 121533521.541 7  94701353.28244  23127039.164                    23127043.527
        43.400          29.600
                  87398625.925 6  21013691.438                    21013694.023
                        41.800
 116243388.041 8  90579301.68546  22120393.258                    22120396.047
        49.800          36.000
 123632531.093 7  96337013.93245  23526483.883                    23526485.691
        44.100          31.800
 122856600.209 7  95732504.37644  23378849.031                    23378855.680
        42.700          28.100
                  85885756.133 6  20642705.398                    20642705.598
                        41.900
 114867126.295 8  89506863.94146  21858488.266                    21858493.395
        49.800          36.800
 116508267.933 7  90785845.72146  22170786.203                    22170792.508
        47.900          38.100
                  91255874.511 6  21917999.664                    21918002.016
                        41.700
 112546887.630 7  87699057.14846  21416960.523                    21416962.387
        45.700          36.500
 18  3 15 14  9 12.0000000  0 17R01R02G25G12R12R10R11G14R20G17G22G01
                                R19G24G32R03G19
                  98097732.140 5  23594408.813                    23594413.297
                        32.400
                  85586202.827 6  20621338.734                    20621341.137
                        39.900
 128296498.261 7  99971431.18844  24414038.313                    24414045.441
        44.900          26.400
 112608776.427 8  87746985.66446  21428707.953                    21428710.223
        49.000          36.100
                                  22886415.891

                  84827214.967 6  20460047.055                    20460051.676
                        39.000
                  82562210.102 7  19864790.023                    19864792.488
                        42.100
 121531676.538 7  94699915.63345  23126688.516                    23126692.289
        44.500          30.900
                  87396692.111 6  21013225.836                    21013228.703
                        41.900
 116244819.902 8  90580417.39845  22120665.719                    22120668.871
        50.000          35.600
 123631630.115 7  96336311.88145  23526312.789                    23526314.387
        44.400          31.300
 122859447.895 7  95734723.37544  23379391.336                    23379397.574
        42.600          26.700
                  85887502.050 6  20643125.188                    20643125.254
                        41.300
 114869793.554 8  89508942.33646  21858996.219                    21859001.184
        49.900          37.500
 116508228.102 7  90785814.68946  22170778.531                    22170784.684
        47.700          37.900
                  91253758.192 6  21917491.703                    21917493.949
                        41.500
 112546876.702 7  87699048.64546  21416958.391                    21416960.004
        46.000          36.800
 18  3 15 14  9 13.0000000  0 17R01R02G25G12R12R10R11G14R20G17G22G01
                                R19G24G32R03G19
                  98101521.575 5  23595321.039                    23595325.012
                        32.700
                  85587309.977 6  20621605.742                    20621608.074
                        41.100
 128292938.570 7  99968657.41044  24413360.852                    24413368.016
        45.400          26.800
 112606839.078 8  87745476.03946  21428338.773                    21428341.789
        48.800          36.800
                                  22885679.094

                  84829743.954 6  20460657.883                    20460661.844
                        39.100
                  82561224.741 7  19864552.938                    19864555.387
                        42.300
 121529832.045 7  94698478.37745  23126337.875                    23126341.527
        43.000          30.100
                  87394758.856 7  21012761.188                    21012764.293
                        42.300
 116246252.348 8  90581533.58245  22120938.281                    22120941.203
        49.700          34.400
 123630729.688 7  96335610.25945  23526141.453                    23526143.121
        45.600          33.500
 122862296.153 7  95736942.81544  23379933.094                    23379939.840
        43.100          27.700
                  85889248.630 6  20643545.211                    20643545.336
                        41.200
 114872461.387 8  89511021.16446  21859502.719                    21859508.328
        49.500          37.500
 116508188.980 8  90785784.20646  22170771.227                    22170777.336
        48.400          38.000
                  91251642.330 6  21916983.320                    21916985.664
                        41.800
 112546866.566 7  87699040.75246  21416956.477                    21416957.824
        47.000          38.100
 18  3 15 14  9 14.0000000  0 17R01R02G25G12R12R10R11G14R20G17G22G01
                                R19G24G32R03G19
                  98105311.194 5  23596231.859                    23596236.383
                        32.100
                  85588417.893 6  20621872.594                    20621875.055
                        41.700
 128289379.068 7  99965883.79644  24412683.469                    24412690.672
        45.000          25.800
 112604902.290 8  87743966.85446  21427969.766                    21427973.105
        48.600          36.600
                                  22884942.406

                  84832273.397 6  20461268.555                    20461271.566
                        39.100
                  82560239.963 7  19864315.516                    19864317.840
                        42.400
 121527988.038 7  94697041.51044  23125987.055                    23125990.195
        42.200          28.000
                  87392826.146 6  21012296.664                    21012299.504
                        41.900
 116247685.425 8  90582650.25545  22121210.961                    22121213.883
        48.900          34.000
 123629829.889 7  96334909.14045  23525970.148                    23525971.469
        45.900          33.000
 122865144.945 7  95739162.66344  23380475.609                    23380482.020
        43.000          26.200
                  85890995.873 6  20643965.133                    20643965.449
                        41.500
 114875129.741 8  89513100.40246  21860011.602                    21860016.711
        50.000          38.400
 116508150.500 7  90785754.21246  22170763.781                    22170770.141
        47.900          37.700
                  91249526.997 6  21916475.359                    21916478.047
                        40.800
 112546857.160 7  87699033.43846  21416954.586                    21416956.145
        46.400          37.200
 18  3 15 14  9 15.0000000  0 17R01R02G25G12R12R10R11G14R20G17G22G01
                                R19G24G32R03G19
                  98109101.029 5  23597144.664                    23597147.762
                        32.800
                  85589526.569 6  20622139.469                    20622141.664
                        41.400
 128285819.823 7  99963110.36344  24412006.039                    24412013.344
        44.300          25.500
 112602966.148 8  87742458.18446  21427602.602                    21427604.617
        49.500          37.600
                                  22884205.750

                  84834803.398 6  20461877.070                    20461882.137
                        39.700
                  82559255.832 7  19864079.211                    19864081.148
                        42.600
 121526144.609 6  94695605.09644  23125636.391                    23125639.539
        41.900          27.800
                  87390894.030 6  21011830.414                    21011834.227
                        41.300
 116249119.149 8  90583767.45945  22121483.945                    22121486.898
        49.700          35.400
 123628930.710 7  96334208.49345  23525799.383                    23525800.688
        46.000          32.700
 122867994.317 7  95741382.95744  23381017.594                    23381024.484
        42.800          26.200
                  85892743.869 6  20644385.414                    20644385.219
                        41.200
 114877798.655 8  89515180.08746  21860518.305                    21860524.703
        48.700          36.800
 116508112.782 7  90785724.81846  22170756.820                    22170762.813
        47.200          37.300
                  91247412.251 6  21915967.414                    21915970.402
                        40.300
 112546848.580 7  87699026.76146  21416953.047                    21416954.512
        46.500          37.700
 18  3 15 14  9 16.0000000  0 17R01R02G25G12R12R10R11G14R20G17G22G01
                                R19G24G32R03G19
                  98112890.998 5  23598055.094                    23598059.535
                        32.900
                  85590635.901 6  20622407.375                    20622409.082
                        41.400
 128282260.773 7  99960337.07244  24411329.305                    24411335.715
        45.100          27.600
 112601030.537 8  87740949.90846  21427233.195                    21427236.586
        49.200          36.900
                                  22883466.180

                  84837333.877 6  20462489.313                    20462492.418
                        39.500
                  82558272.298 7  19863842.289                    19863844.418
                        42.100
 121524301.712 7  94694169.10145  23125286.586                    23125288.715
        44.600          30.500
                  87388962.504 6  21011367.102                    21011370.449
                        41.400
 116250553.494 8  90584885.15446  22121756.719                    22121760.105
        50.000          36.400
 123628032.098 7  96333508.28645  23525628.109                    23525629.543
        45.900          32.300
 122870844.283 7  95743603.72244  23381559.617                    23381566.598
        43.200          25.300
                  85894492.483 6  20644806.180                    20644805.559
                        40.700
 114880468.120 8  89517260.19746  21861027.586                    21861032.375
        48.800          37.300
 116508075.689 7  90785695.90646  22170749.703                    22170755.867
        46.800          36.300
                  91245298.006 6  21915459.961                    21915462.039
                        40.400
 112546840.747 7  87699020.67246  21416951.914                    21416952.926
        47.600          37.000
 18  3 15 14  9 17.0000000  0 17R01R02G25G12R12R10R11G14R20G17G22G01
                                R19G24G32R03G19
                  98116681.209 5  23598967.828                    23598971.234
                        30.600
                  85591746.001 6  20622674.805                    20622676.125
                        41.200
 128278701.886 7  99957563.91544  24410651.797                    24410658.680
        44.200          24.700
 112599095.528 8  87739442.10846  21426865.000                    21426868.242
        49.900          37.500
                                  22882729.078

                  84839864.899 6  20463098.766                    20463102.621
                        39.300
                  82557289.396 7  19863605.758                    19863607.527
                        42.400
 121522459.216 7  94692733.35445  23124935.398                    23124938.211
        44.900          30.800
                  87387031.573 6  21010903.047                    21010905.957
                        41.400
 116251988.450 8  90586003.29946  22122029.906                    22122033.121
        50.600          37.100
 123627134.122 7  96332808.58245  23525457.328                    23525458.680
        46.300          33.600
 122873694.777 7  95745824.88444  23382102.000                    23382109.145
        44.000          27.800
                  85896241.775 6  20645226.156                    20645225.430
                        40.900
 114883138.105 8  89519340.70946  21861534.773                    21861540.668
        48.900          36.900
 116508039.383 8  90785667.59746  22170742.836                    22170748.770
        48.800          37.700
                  91243184.260 6  21914951.703                    21914954.301
                        41.100
 112546833.738 7  87699015.23546  21416950.313                    21416951.273
        46.600          36.200
 18  3 15 14  9 18.0000000  0 17R01R02G25G12R12R10R11G14R20G17G22G01
                                R19G24G32R03G19
                  98120471.562 4  23599879.891                    23599883.047
                        28.400
                  85592856.726 6  20622941.266                    20622944.035
                        40.900
 128275143.188 7  99954790.92743  24409974.430                    24409981.520
        43.000          22.900
 112597161.123 8  87737934.77946  21426497.984                    21426500.090
        50.200          36.900
                                  22881994.281

                  84842396.398 6  20463709.547                    20463713.543
                        39.400
                  82556307.076 7  19863369.352                    19863371.879
                        42.200
 121520617.335 7  94691298.09345  23124584.688                    23124587.828
        44.700          30.000
                  87385101.209 7  21010439.805                    21010442.254
                        42.400
 116253424.008 8  90587121.90946  22122303.281                    22122306.449
        49.900          36.500
 123626236.665 7  96332109.28145  23525286.609                    23525288.410
        45.000          30.500
 122876545.848 7  95748046.49644  23382644.539                    23382651.090
        43.100          26.700
                  85897991.768 6  20645646.602                    20645646.523
                        41.600
 114885808.649 8  89521421.64546  21862042.789                    21862048.953
        49.600          37.900
 116508003.748 8  90785639.81546  22170735.914                    22170742.469
        48.100          37.600
                  91241071.078 6  21914444.398                    21914446.664
                        41.100
 112546827.470 7  87699010.35346  21416948.773                    21416950.168
        47.000          36.300
 18  3 15 14  9 19.0000000  0 17R01R02G25G12R12R10R11G14R20G17G22G01
                                R19G24G32R03G19
                  98124262.182 5  23600790.484                    23600794.664
                        30.200
                  85593968.271 6  20623209.742                    20623211.906
                        41.800
 128271584.740 7  99952018.14343  24409297.602                    24409304.172
        44.700          22.900
 112595227.307 8  87736427.91946  21426128.875                    21426132.133
        49.500          36.500
                                  22881254.875

                  84844928.411 6  20464320.703                    20464324.563
                        39.300
                  82555325.374 7  19863133.891                    19863135.680
                        42.600
 121518775.864 7  94689863.14745  23124233.977                    23124237.465
        45.100          30.500
                  87383171.382 6  21009974.734                    21009978.012
                        41.900
 116254860.213 8  90588241.02746  22122575.898                    22122579.754
        50.000          37.000
 123625339.773 7  96331410.41945  23525116.109                    23525117.055
        45.200          31.500
 122879397.504 6  95750268.56744  23383186.734                    23383193.656
        41.600          26.500
                  85899742.408 6  20646067.180                    20646067.047
                        41.600
 114888479.746 8  89523503.02246  21862551.367                    21862556.988
        49.100          37.000
 116507968.859 8  90785612.61646  22170729.313                    22170735.820
        48.900          36.900
                  91238958.389 6  21913937.641                    21913938.895
                        40.700
 112546821.968 7  87699006.05146  21416947.906                    21416949.508
        45.900          37.100
 18  3 15 14  9 20.0000000  0 16R01R02G25G12R10R11G14R20G17G22G01R19
                                G24G32R03G19
                  98128053.004 4  23601701.820                    23601706.223
                        27.600
                  85595080.575 6  20623478.516                    20623479.953
                        41.200
 128268026.448 7  99949245.43944  24408620.438                    24408627.250
        45.100          25.300
 112593294.079 8  87734921.50646  21425761.055                    21425764.246
        48.800          37.100
                  84847460.946 6  20464931.031                    20464934.785
                        39.800
                  82554344.300 6  19862897.500                    19862899.496
                        41.400
 121516935.003 7  94688428.70844  23123883.641                    23123886.957
        43.100          27.200
                  87381242.194 6  21009510.477                    21009513.992
                        41.800
 116256297.067 8  90589360.64246  22122850.125                    22122852.996
        50.200          36.900
 123624443.478 6  96330711.99643  23524945.625                    23524946.402
        41.700          23.900
 122882249.803 5  95752491.13243  23383730.063                    23383736.672
        31.600          20.900
                  85901493.749 6  20646488.422                    20646488.000
                        41.200
 114891151.410 8  89525584.83846  21863059.414                    21863065.180
        48.800          37.300
 116507934.700 7  90785585.97045  22170723.219                    22170729.051
        47.900          35.500
                  91236846.334 6  21913429.648                    21913431.621
                        38.000
 112546817.284 7  87699002.41246  21416947.070                    21416948.832
        46.400          37.500
 18  3 15 14  9 21.0000000  0 16R01R02G25G12R10R11G14R20G17G22G01R19
                                G24G32R03G19
                  98131843.945 4  23602614.273                    23602617.711
                        28.100
                  85596193.618 6  20623745.375                    20623748.398
                        41.800
 128264468.406 7  99946472.90543  24407943.336                    24407949.785
        44.400          23.500
 112591361.418 8  87733415.53246  21425393.648                    21425396.563
        49.400          37.800
                  84849994.002 6  20465541.508                    20465545.629
                        39.400
                  82553363.872 7  19862661.578                    19862663.969
                        42.400
 121515094.596 7  94686994.64244  23123533.578                    23123536.852
        43.300          28.800
                  87379313.574 7  21009047.711                    21009050.344
                        42.000
 116257734.524 8  90590480.73646  22123123.164                    22123126.559
        50.300          37.800
 123623547.865 7  96330014.09944  23524775.117                    23524776.277
        43.200          26.300
 122885102.420 6                  23384272.781
        36.200
                  85903245.724 6  20646909.586                    20646909.090
                        41.100
 114893823.601 8  89527667.06146  21863569.109                    21863573.730
        49.400          37.600
 116507901.227 7  90785559.85746  22170716.852                    22170722.766
        47.700          36.000
                  91234734.649 6  21912923.070                    21912924.520
                        39.500
 112546813.361 7  87698999.35446  21416946.805                    21416948.184
        46.900          37.200
 18  3 15 14  9 22.0000000  0 16R01R02G25G12R10R11G14R20G17G22G01R19
                                G24G32R03G19
                  98135635.132 4  23603526.469                    23603529.457
                        28.200
                  85597307.413 6  20624013.695                    20624015.980
                        41.500
 128260910.487 7  99943700.47944  24407266.719                    24407272.773
        44.600          24.700
 112589429.375 8  87731910.04446  21425026.273                    21425028.996
        49.900          37.200
                  84852527.543 6  20466153.102                    20466156.891
                        39.700
                  82552384.033 6  19862425.969                    19862427.480
                        41.900
 121513254.754 7  94685561.02745  23123183.430                    23123186.547
        44.200          30.400
                  87377385.489 6  21008583.648                    21008587.289
                        41.800
 116259172.594 8  90591601.30846  22123396.570                    22123400.223
        49.700          36.700
 123622652.934 7  96329316.71245  23524604.609                    23524606.109
        44.600          32.100
 122887955.826 7                  23384815.883
        43.800
                  85904998.398 6  20647330.281                    20647330.254
                        41.100
 114896496.378 8  89529749.74146  21864076.094                    21864082.500
        49.200          37.400
 116507868.499 7  90785534.35146  22170710.750                    22170716.668
        47.600          37.200
                  91232623.571 6  21912415.500                    21912417.758
                        41.700
 112546810.221 7  87698996.89946  21416946.352                    21416947.352
        46.700          36.900
 18  3 15 14  9 23.0000000  0 16R01R02G25G12R10R11G14R20G17G22G01R19
                                G24G32R03G19
                  98139426.476 4  23604438.492                    23604441.461
                        28.000
                  85598421.855 6  20624283.781                    20624284.953
                        41.700
 128257352.793 7  99940928.26043  24406589.047                    24406595.758
        44.600          23.800
 112587497.898 8  87730405.00146  21424657.773                    21424661.672
        48.800          36.200
                  84855061.598 6  20466764.250                    20466768.273
                        40.100
                  82551404.789 6  19862190.961                    19862192.414
                        41.800
 121511415.376 7  94684127.76345  23122833.617                    23122836.469
        44.700          30.900
                  87375457.942 7  21008119.750                    21008123.152
                        42.100
 116260611.237 8  90592722.32646  22123670.359                    22123674.035
        49.800          36.500
 123621758.493 7  96328619.73145  23524434.641                    23524435.523
        44.300          31.200
 122890809.707 7                  23385359.016
        44.400
                  85906751.722 6  20647751.594                    20647751.867
                        41.500
 114899169.681 8  89531832.83746  21864586.211                    21864591.266
        49.500          37.400
 116507836.440 8  90785509.39446  22170704.711                    22170710.262
        48.000          37.300
                  91230512.991 7  21911908.398                    21911910.988
                        42.000
 112546807.841 7  87698995.02746  21416945.078                    21416946.898
        46.400          36.700
 18  3 15 14  9 24.0000000  0 17R01R02G25G12R12R10R11G14R20G17G22G01
                                R19G24G32R03G19
                  98143218.020 5  23605349.422                    23605352.973
                        30.500
                  85599537.021 6  20624550.742                    20624553.660
                        41.800
 128253795.312 7  99938156.21944  24405912.281                    24405919.129
        44.300          26.000
 112585566.987 8  87728900.39146  21424290.508                    21424293.555
        49.200          36.600
                                  22877574.328

                  84857596.166 6  20467376.648                    20467379.215
                        39.700
                  82550426.150 6  19861954.375                    19861956.984
                        41.800
 121509576.565 7  94682694.93445  23122483.680                    23122486.887
        44.800          30.200
                  87373531.035 6  21007656.703                    21007660.406
                        41.900
 116262050.537 8  90593843.85946  22123944.445                    22123947.785
        50.000          37.200
 123620864.653 7  96327923.23945  23524264.461                    23524265.730
        44.300          30.700
 122893664.202 7                  23385902.445
        44.400
                  85908505.744 6  20648173.258                    20648173.609
                        40.700
 114901843.551 8  89533916.37646  21865094.578                    21865100.621
        49.300          37.700
 116507805.115 8  90785485.01246  22170698.664                    22170704.723
        48.400          37.600
                  91228402.963 6  21911401.703                    21911404.738
                        41.400
 112546806.265 7  87698993.78046  21416944.773                    21416946.672
        46.100          36.400
 18  3 15 14  9 25.0000000  0 17R01R02G25G12R12R10R11G14R20G17G22G01
                                R19G24G32R03G19
                  98147009.695 5  23606262.109                    23606265.477
                        30.000
                  85600652.940 6  20624818.914                    20624822.395
                        41.100
 128250237.995 7  99935384.29344  24405235.250                    24405242.324
        43.900          24.100
 112583636.703 8  87727396.28046  21423924.531                    21423926.637
        49.200          36.700
                                  22876838.094

                  84860131.271 6  20467987.078                    20467991.453
                        40.000
                  82549448.174 7  19861719.773                    19861721.586
                        42.100
 121507738.247 7  94681262.50144  23122133.375                    23122137.223
        44.100          28.900
                  87371604.709 7  21007194.523                    21007196.848
                        42.200
 116263490.468 8  90594965.87446  22124218.500                    22124221.766
        50.200          36.600
 123619971.438 7  96327227.24945  23524094.320                    23524095.895
        43.800          31.300
 122896519.256 7                  23386444.805
        43.200
                  85910260.476 6  20648595.969                    20648595.723
                        40.800
 114904517.978 8  89536000.34646  21865603.516                    21865608.711
        49.300          37.200
 116507774.508 7  90785461.18046  22170692.586                    22170698.660
        47.200          36.800
                  91226293.455 6  21910895.438                    21910897.867
                        41.900
 112546805.449 7  87698993.14346  21416944.477                    21416946.363
        44.800          36.400
 18  3 15 14  9 26.0000000  0 17R01R02G25G12R12R10R11G14R20G17G22G01
                                R19G24G32R03G19
                  98150801.672 4  23607175.055                    23607177.879
                        26.800
                  85601769.581 6  20625090.438                    20625091.707
                        40.700
 128246680.986 6  99932612.63343  24404558.352                    24404565.566
        41.400          22.600
 112581707.044 8  87725892.65246  21423555.430                    21423559.859
        48.600          36.400
                                  22876102.273

                  84862666.920 6  20468599.078                    20468602.547
                        39.600
                  82548470.829 7  19861484.281                    19861486.754
                        42.000
 121505900.531 7  94679830.52544  23121783.703                    23121787.660
        43.400          26.800
                  87369678.986 7  21006730.008                    21006734.188
                        42.100
 116264931.040 8  90596088.39746  22124492.781                    22124496.148
        50.200          37.600
 123619078.832 7  96326531.71445  23523924.203                    23523925.875
        43.700          31.300
 122899374.891 7                  23386988.844
        43.200
                  85912015.907 6  20649017.367                    20649017.055
                        40.200
 114907192.938 8  89538084.73146  21866113.211                    21866118.074
        49.200          37.100
 116507744.646 7  90785437.92145  22170686.594                    22170692.789
        46.700          35.800
                  91224184.468 7  21910388.695                    21910391.105
                        42.100
 112546805.468 7  87698993.15546  21416945.422                    21416946.313
        45.900          36.500
 18  3 15 14  9 27.0000000  0 17R01R02G25G12R12R10R11G14R20G17G22G01
                                R19G24G32R03G19
                  98154593.746 4  23608085.734                    23608089.773
                        29.900
                  85602886.938 6  20625359.141                    20625360.719
                        41.400
 128243124.021 7  99929840.96644  24403881.000                    24403888.852
        45.400          26.100
 112579777.899 8  87724389.43046  21423189.117                    21423192.008
        49.800          37.000
                                  22875367.656

                  84865203.031 6  20469210.859                    20469214.305
                        39.500
                  82547494.068 7  19861249.375                    19861250.949
                        42.000
 121504063.251 7  94678398.87744  23121433.406                    23121437.754
        43.400          27.200
                  87367753.846 6  21006267.078                    21006270.547
                        41.800
 116266372.231 8  90597211.42146  22124766.719                    22124770.621
        49.900          37.500
 123618186.791 7  96325836.61445  23523754.945                    23523756.289
        44.000          30.700
 122902231.047 7  95768064.03755  23387532.117                    23387539.754
        43.300          30.600
                  85913771.972 6  20649439.156                    20649439.559
                        41.500
 114909868.433 8  89540169.53546  21866620.750                    21866627.434
        48.600          38.100
 116507715.451 7  90785415.16246  22170681.133                    22170687.258
        47.800          37.100
                  91222075.938 6  21909882.289                    21909883.887
                        41.500
 112546806.239 7  87698993.74046  21416945.453                    21416946.797
        46.500          36.400
 18  3 15 14  9 28.0000000  0 17R01R02G25G12R12R10R11G14R20G17G22G01
                                R19G24G32R03G19
                  98158386.114 4  23608997.680                    23609001.645
                        28.900
                  85604005.054 6  20625627.953                    20625630.098
                        41.200
 128239567.358 7  99927069.53643  24403204.000                    24403211.691
        42.000          22.800
 112577849.388 8  87722886.70346  21422823.313                    21422825.508
        50.200          36.600
                                  22874631.578

                  84867739.663 6  20469822.406                    20469825.621
                        39.600
                  82546517.902 7  19861014.234                    19861016.137
                        42.200
 121502226.480 7  94676967.62345  23121084.836                    23121088.605
        45.500          30.300
                  87365829.322 6  21005806.047                    21005808.488
                        41.900
 116267814.040 8  90598334.91246  22125041.758                    22125045.172
        50.500          38.400
 123617295.421 7  96325142.01845  23523584.797                    23523586.527
        44.000          30.900
 122905087.695 7  95770289.98744  23388076.242                    23388082.840
        43.700          29.000
                  85915528.722 6  20649861.242                    20649861.242
                        41.200
 114912544.504 8  89542254.78446  21867131.484                    21867136.762
        49.200          38.100
 116507686.962 7  90785392.95646  22170675.391                    22170681.656
        46.400          36.700
                  91219967.884 6  21909375.648                    21909377.488
                        41.700
 112546807.741 7  87698994.89346  21416944.781                    21416947.105
        46.300          36.700
 18  3 15 14  9 29.0000000  0 17R01R02G25G12R12R10R11G14R20G17G22G01
                                R19G24G32R03G19
                  98162178.496 4  23609910.508                    23609913.977
                        28.400
                  85605123.833 6  20625898.789                    20625899.547
                        41.200
 128236010.874 6  99924298.27643  24402527.000                    24402535.184
        40.200          21.300
 112575921.442 8  87721384.41146  21422454.453                    21422458.480
        50.000          37.000
                                  22873895.844

                  84870276.803 6  20470434.500                    20470438.043
                        40.000
                  82545542.325 6  19860780.078                    19860781.461
                        41.900
 121500390.235 7  94675536.79945  23120735.734                    23120739.105
        45.600          30.400
                  87363905.314 6  21005343.188                    21005345.945
                        41.900
 116269256.468 8  90599458.88046  22125315.781                    22125319.195
        50.200          37.500
 123616404.550 7  96324447.82045  23523415.461                    23523416.781
        44.300          32.400
 122907944.925 7  95772516.39545  23388620.086                    23388626.445
        44.700          30.100
                  85917286.128 6  20650283.602                    20650283.512
                        41.200
 114915221.122 8  89544340.46746  21867639.734                    21867646.586
        48.900          37.600
 116507659.175 7  90785371.30245  22170670.047                    22170676.285
        46.300          35.400
                  91217860.401 6  21908869.555                    21908872.000
                        41.700
 112546810.062 7  87698996.69346  21416945.461                    21416946.988
        46.800          36.800
 18  3 15 14  9 30.0000000  0 17R01R02G25G12R12R10R11G14R20G17G22G01
                                R19G24G32R03G19
                  98165971.233 4  23610822.313                    23610826.758
                        27.500
                  85606243.186 6  20626168.664                    20626169.027
                        40.300
 128232454.492 6  99921527.08443  24401850.641                    24401858.680
        38.900          20.900
 112573994.061 8  87719882.54745  21422088.492                    21422090.891
        49.600          35.100
                                  22873159.656

                  84872814.567 6  20471046.391                    20471049.785
                        39.800
                  82544567.317 6  19860545.125                    19860547.309
                        41.500
 121498554.361 7  94674106.26744  23120385.266                    23120389.758
        43.800          26.000
                  87361982.013 6  21004879.094                    21004883.988
                        41.600
 116270699.654 8  90600583.43545  22125590.250                    22125593.637
        50.500          35.600
 123615514.403 7  96323754.20445  23523246.195                    23523247.727
        43.200          31.400
 122910802.675 7  95774743.20844  23389163.734                    23389169.820
        44.100          26.200
                  85919044.289 6  20650706.430                    20650706.699
                        41.000
 114917898.390 8  89546426.64546  21868149.516                    21868155.277
        49.300          37.100
 116507631.972 7  90785350.10845  22170664.977                    22170671.418
        47.300          34.700
                  91215753.440 6  21908363.023                    21908365.098
                        41.100
 112546813.330 7  87698999.23845  21416947.133                    21416948.270
        46.800          34.100
 18  3 15 14  9 31.0000000  0 17R01R02G25G12R12R10R11G14R20G17G22G01
                                R19G24G32R03G19
                                  23611737.172

                  85607363.724 6  20626436.727                    20626439.199
                        39.800
 128228898.616 6  99918756.28543  24401174.227                    24401181.980
        41.200          20.600
 112572067.547 8  87718381.36646  21421723.023                    21421725.488
        50.300          36.000
                                  22872423.602

                  84875352.615 6  20471659.336                    20471661.879
                        38.900
                  82543593.231 6  19860312.031                    19860314.426
                        41.600
 121496719.480 7  94672676.52244  23120036.156                    23120040.500
        44.700          27.900
                  87360059.056 6  21004418.297                    21004421.223
                        40.200
 116272143.182 8  90601708.26745  22125865.438                    22125869.207
        50.500          35.400
 123614624.769 7  96323060.99045  23523077.492                    23523079.395
        43.900          31.100
 122913661.203 7  95776970.62544  23389707.609                    23389714.121
        43.800          27.000
                  85920803.010 6  20651128.305                    20651130.129
                        40.600
 114920576.100 8  89548513.17346  21868659.938                    21868665.285
        49.700          37.400
 116507605.930 7  90785329.82745  22170659.398                    22170665.992
        47.200          34.300
                  91213647.135 6  21907857.547                    21907860.012
                        40.200
 112546817.085 7  87699002.16045  21416947.445                    21416948.895
        46.800          34.700
 18  3 15 14  9 32.0000000  0 16R02G25G12R12R10R11G14R20G17G22G01R19
                                G24G32R03G19
                  85608484.642 6  20626705.594                    20626709.492
                        41.100
 128225342.692 7  99915985.41743  24400497.938                    24400504.773
        43.000          22.500
 112570141.324 8  87716880.40746  21421355.102                    21421358.309
        49.600          36.300
                                  22871686.336

                  84877891.350 6  20472271.258                    20472274.383
                        39.200
                  82542619.527 7  19860076.383                    19860078.578
                        42.400
 121494884.750 7  94671246.89044  23119686.406                    23119691.285
        42.600          27.700
                  87358136.901 6  21003957.859                    21003958.676
                        40.900
 116273587.617 8  90602833.81046  22126139.766                    22126143.398
        49.900          36.900
 123613735.814 7  96322368.31445  23522908.203                    23522908.941
        43.300          31.900
 122916520.160 7  95779198.38244  23390251.867                    23390258.070
        43.200          25.600
                  85922562.502 6  20651551.445                    20651551.680
                        41.000
 114923254.453 8  89550600.20546  21869168.211                    21869174.270
        49.100          37.100
 116507580.228 7  90785309.80045  22170655.516                    22170661.527
        47.800          35.400
                  91211541.223 6  21907350.336                    21907353.430
                        39.000
 112546821.889 7  87699005.90046  21416948.672                    21416949.797
        47.300          36.300
 18  3 15 14  9 33.0000000  0 16R02G25G12R12R10R11G14R20G17G22G01R19
                                G24G32R03G19
                  85609606.431 6  20626978.141                    20626980.211
                        40.000
 128221787.041 7  99913214.76444  24399821.438                    24399828.258
        43.800          25.100
 112568215.785 8  87715379.98446  21420989.164                    21420991.656
        50.000          36.200
                                  22870952.188

                  84880430.567 6  20472883.289                    20472887.109
                        39.400
                  82541646.490 7  19859841.828                    19859844.348
                        42.300
 121493050.606 6  94669817.67044  23119338.219                    23119342.027
        38.800          24.400
                  87356215.210 6  21003492.961                    21003497.320
                        41.400
 116275032.561 8  90603959.74446  22126415.031                    22126418.563
        50.000          36.900
 123612847.469 7  96321676.09144  23522738.469                    23522739.902
        42.200          28.600
 122919379.769 6  95781426.71843  23390795.781                    23390802.016
        38.800          21.100
                  85924322.657 6  20651974.938                    20651975.188
                        40.700
 114925933.291 8  89552687.60146  21869679.656                    21869684.227
        50.200          37.700
 116507555.324 8  90785290.37546  22170650.977                    22170656.719
        48.800          37.900
                  91209435.902 6  21906846.125                    21906848.016
                        37.800
 112546827.393 7  87699010.19046  21416949.664                    21416950.492
        47.600          37.000
 18  3 15 14  9 34.0000000  0 16R02G25G12R12R10R11G14R20G17G22G01R19
                                G24G32R03G19
                  85610728.973 6  20627247.453                    20627250.332
                        39.600
 128218231.553 7  99910444.24043  24399144.695                    24399151.809
        43.300          22.800
 112566290.872 8  87713880.05446  21420623.266                    21420625.957
        50.300          37.000
                                  22870216.992

                  84882970.292 6  20473495.578                    20473499.848
                        39.400
                  82540674.094 6  19859608.570                    19859610.398
                        41.800
 121491216.962 6  94668388.84943  23118988.500                    23118993.266
        38.800          23.500
                  87354294.181 6  21003031.883                    21003034.938
                        41.200
 116276478.148 8  90605086.17946  22126690.141                    22126693.660
        50.000          37.100
 123611959.730 7  96320984.35544  23522569.750                    23522571.117
        42.600          28.000
 122922239.875 6  95783655.44043  23391339.953                    23391346.590
        36.500          20.100
                  85926083.445 6  20652398.148                    20652398.133
                        40.900
 114928612.717 8  89554775.46746  21870188.117                    21870194.473
        49.600          38.100
 116507531.125 8  90785271.49346  22170646.063                    22170652.070
        48.400          37.200
                  91207331.068 6  21906339.750                    21906342.867
                        37.200
 112546833.734 7  87699015.13246  21416950.789                    21416951.996
        46.400          36.700
 18  3 15 14  9 35.0000000  0 17R01R02G25G12R12R10R11G14R20G17G22G01
                                R19G24G32R03G19
                  98184937.69214  23615384.414                    23615388.109
                        27.500
                  85611852.192 6  20627518.141                    20627520.379
                        40.000
 128214676.317 6  99907673.93843  24398468.461                    24398475.055
        41.700          22.900
 112564366.467 8  87712380.51846  21420256.273                    21420259.594
        49.700          37.000
                                  22869481.500

                  84885510.456 6  20474108.594                    20474112.324
                        39.100
                  82539702.271 6  19859373.828                    19859376.664
                        41.800
 121489383.844 6  94666960.45943  23118640.445                    23118644.406
        40.400          23.000
                  87352373.688 6  21002570.969                    21002573.055
                        41.100
 116277924.290 8  90606213.04846  22126965.516                    22126968.660
        50.300          37.700
 123611072.559 7  96320293.07844  23522401.039                    23522402.398
        43.400          29.000
 122925100.519 6  95785884.52843  23391883.695                    23391891.023
        36.400          18.300
                  85927844.927 6  20652821.305                    20652821.563
                        40.800
 114931292.665 8  89556863.74246  21870698.711                    21870704.148
        49.800          38.000
 116507507.649 8  90785253.19146  22170641.836                    22170647.641
        48.400          37.000
                  91205226.753 6  21905834.844                    21905837.250
                        38.300
 112546840.751 7  87699020.59146  21416951.305                    21416953.172
        46.400          36.400
 18  3 15 14  9 36.0000000  0 17R01R02G25G12R12R10R11G14R20G17G22G01
                                R19G24G32R03G19
                  98188731.584 4  23616296.781                    23616300.375
                        29.300
                  85612976.120 6  20627789.273                    20627791.172
                        40.900
 128211121.237 7  99904903.74743  24397790.625                    24397798.902
        43.300          23.300
 112562442.724 8  87710881.50346  21419890.586                    21419893.520
        49.600          37.000
                                  22868745.695

                  84888051.193 6  20474721.539                    20474724.949
                        39.400
                  82538731.046 6  19859140.945                    19859142.695
                        41.600
 121487551.219 7  94665532.47044  23118291.414                    23118295.320
        42.000          27.900
                  87350453.741 7  21002108.180                    21002111.410
                        42.300
 116279371.110 8  90607340.44046  22127240.344                    22127244.086
        50.200          36.900
 123610185.990 7  96319602.26045  23522232.094                    23522233.445
        45.900          33.600
 122927961.691 6  95788114.00742  23392428.664                    23392435.480
        39.700          17.400
                  85929607.071 6  20653244.781                    20653245.406
                        40.700
 114933973.186 8  89558952.46446  21871209.086                    21871214.477
        49.400          37.300
 116507484.864 7  90785235.43046  22170637.813                    22170643.191
        47.500          36.400
                  91203122.949 6  21905330.031                    21905331.691
                        41.100
 112546848.607 7  87699026.71346  21416952.406                    21416954.609
        46.600          36.900
 18  3 15 14  9 37.0000000  0 17R01R02G25G12R12R10R11G14R20G17G22G01
                                R19G24G32R03G19
                  98192525.572 4  23617208.531                    23617212.520
                        26.300
                  85614100.771 6  20628061.313                    20628062.340
                        40.700
 128207566.399 7  99902133.74644  24397114.242                    24397122.332
        42.600          24.300
 112560519.576 8  87709382.94346  21419524.914                    21419527.559
        49.600          36.900
                                  22868009.633

                  84890592.400 6  20475334.477                    20475338.078
                        38.700
                  82537760.454 6  19858906.148                    19858909.043
                        41.700
 121485719.146 7  94664104.87044  23117943.734                    23117947.098
        43.500          29.100
                  87348534.426 6  21001646.336                    21001650.277
                        41.700
 116280818.568 8  90608468.32346  22127516.234                    22127519.609
        49.700          36.600
 123609300.100 7  96318911.95445  23522063.234                    23522065.004
        44.900          32.400
 122930823.517 7  95790343.91943  23392973.344                    23392980.332
        42.200          22.200
                  85931369.953 6  20653668.773                    20653668.582
                        40.800
 114936654.272 8  89561041.61846  21871718.070                    21871724.516
        48.300          37.000
 116507462.803 7  90785218.23446  22170633.445                    22170638.957
        46.900          36.300
                  91201019.741 7  21904824.766                    21904826.711
                        42.400
 112546857.275 7  87699033.47446  21416955.102                    21416956.375
        47.300          38.100
 18  3 15 14  9 38.0000000  0 17R01R02G25G12R12R10R11G14R20G17G22G01
                                R19G24G32R03G19
                  98196319.854 3  23618120.938                    23618125.754
                        21.400
                  85615226.173 6  20628331.633                    20628333.516
                        40.700
 128204011.761 7  99899363.87544  24396438.250                    24396445.758
        43.400          25.500
 112558597.003 8  87707884.82846  21419158.336                    21419161.848
        49.000          37.000
                                  22867272.984

                  84893134.196 6  20475946.492                    20475950.883
                        38.000
                  82536790.501 7  19858674.078                    19858675.969
                        42.200
 121483887.610 7  94662677.69844  23117595.289                    23117597.832
        43.800          28.100
                  87346615.781 6  21001186.578                    21001188.781
                        40.300
 116282266.627 8  90609596.67146  22127791.836                    22127794.875
        49.800          36.900
 123608414.775 7  96318222.08945  23521895.445                    23521896.777
        44.600          33.200
 122933685.917 7  95792574.25344  23393517.969                    23393524.824
        42.300          26.600
                  85933133.506 6  20654092.828                    20654091.840
                        41.800
 114939335.902 8  89563131.19646  21872229.828                    21872235.172
        49.400          36.900
 116507441.481 7  90785201.60646  22170629.695                    22170634.820
        46.700          36.200
                  91198917.029 7  21904319.609                    21904322.215
                        42.300
 112546866.742 7  87699040.84946  21416956.938                    21416958.277
        47.500          37.700
 18  3 15 14  9 39.0000000  0 17R01R02G25G12R12R10R11G14R20G17G22G01
                                R19G24G32R03G19
                  98200114.290 4  23619033.984                    23619038.781
                        24.300
                  85616352.321 6  20628602.016                    20628605.469
                        41.000
 128200457.353 7  99896594.20944  24395762.203                    24395769.605
        43.800          26.300
 112556675.063 8  87706387.20746  21418792.789                    21418795.715
        49.500          36.600
                                  22866536.180

                  84895676.469 6  20476560.875                    20476564.539
                        37.900
                  82535821.175 7  19858440.234                    19858442.645
                        42.000
 121482056.566 7  94661250.90244  23117246.500                    23117249.570
        44.300          29.900
                  87344697.644 6  21000724.883                    21000727.766
                        40.900
 116283715.358 8  90610725.55046  22128067.617                    22128070.887
        50.700          37.600
 123607530.097 7  96317532.72345  23521726.672                    23521728.340
        43.600          31.900
 122936548.891 7  95794805.07544  23394062.500                    23394069.848
        42.700          28.900
                  85934897.736 6  20654516.609                    20654517.102
                        41.400
 114942018.078 8  89565221.20046  21872739.156                    21872745.668
        48.900          37.100
 116507420.888 7  90785185.54646  22170625.273                    22170631.219
        47.600          37.100
                  91196814.839 6  21903814.883                    21903817.309
                        41.900
 112546876.989 7  87699048.83146  21416958.016                    21416960.035
        47.200          37.100
 18  3 15 14  9 40.0000000  0 17R01R02G25G12R12R10R11G14R20G17G22G01
                                R19G24G32R03G19
                  98203908.986 4  23619946.789                    23619951.105
                        26.400
                  85617479.154 6  20628873.305                    20628876.203
                        40.900
 128196903.132 7  99893824.69844  24395085.898                    24395092.945
        43.900          25.400
 112554753.704 8  87704890.04846  21418427.500                    21418430.426
        49.700          36.100
                                  22865798.453

                  84898219.293 6  20477172.875                    20477177.863
                        37.900
                  82534852.453 7  19858207.594                    19858208.996
                        42.200
 121480226.055 7  94659824.51244  23116898.000                    23116901.563
        43.500          27.500
                  87342780.088 6  21000261.961                    21000266.242
                        40.900
 116285164.692 8  90611854.89646  22128343.445                    22128346.422
        51.100          37.400
 123606645.979 7  96316843.80445  23521558.734                    23521560.297
        44.300          32.000
 122939412.390 7  95797036.36344  23394607.469                    23394614.605
        43.400          27.700
                  85936662.675 6  20654940.805                    20654941.297
                        41.100
 114944700.843 8  89567311.66046  21873250.148                    21873255.336
        49.500          38.100
 116507401.014 7  90785170.04546  22170621.586                    22170627.570
        47.200          37.000
                  91194713.190 6  21903310.047                    21903311.824
                        41.600
 112546888.021 7  87699057.42746  21416960.289                    21416961.770
        46.900          36.800
 18  3 15 14  9 41.0000000  0 17R01R02G25G12R12R10R11G14R20G17G22G01
                                R19G24G32R03G19
                  98207703.765 4  23620859.719                    23620864.066
                        28.400
                  85618606.711 6  20629146.438                    20629148.000
                        40.600
 128193349.088 7  99891055.32144  24394410.164                    24394416.984
        43.300          25.500
 112552832.889 8  87703393.29946  21418061.531                    21418064.926
        49.500          36.100
                                  22865063.008

                  84900762.571 6  20477787.445                    20477790.668
                        37.600
                  82533884.333 7  19857974.398                    19857976.859
                        42.100
 121478396.046 7  94658398.55144  23116549.750                    23116553.297
        42.600          26.300
                  87340863.142 6  20999802.336                    20999805.406
                        41.200
 116286614.614 8  90612984.71446  22128618.938                    22128622.203
        50.400          36.400
 123605762.432 7  96316155.32045  23521390.430                    23521391.547
        44.900          33.600
 122942276.418 7  95799268.09844  23395153.133                    23395159.727
        42.600          26.200
                  85938428.246 6  20655364.992                    20655365.254
                        40.400
 114947384.069 8  89569402.48546  21873761.156                    21873766.375
        49.700          38.200
 116507381.823 7  90785155.08846  22170617.727                    22170623.746
        47.500          37.600
                  91192612.050 6  21902805.602                    21902807.836
                        40.700
 112546899.781 7  87699066.59646  21416963.063                    21416964.203
        47.100          37.000
 18  3 15 14  9 42.0000000  0 17R01R02G25G12R12R10R11G14R20G17G22G01
                                R19G24G32R03G19
                  98211498.759 4  23621772.516                    23621776.613
                        28.300
                  85619735.004 6  20629417.797                    20629420.469
                        41.400
 128189795.235 7  99888286.07844  24393733.297                    24393740.227
        44.300          25.300
 112550912.677 8  87701897.03346  21417696.453                    21417699.031
        49.200          36.500
                                  22864326.742

                  84903306.349 6  20478401.133                    20478404.602
                        38.300
                  82532916.825 7  19857741.797                    19857743.723
                        42.100
 121476566.523 6  94656972.96643  23116201.398                    23116205.254
        39.600          23.600
                  87338946.732 6  20999343.438                    20999344.711
                        41.400
 116288065.151 8  90614115.01146  22128895.234                    22128898.320
        50.800          37.600
 123604879.488 7  96315467.31045  23521222.695                    23521224.047
        44.400          32.500
 122945141.005 7  95801500.26844  23395698.039                    23395704.578
        42.500          25.800
                  85940194.480 6  20655789.961                    20655789.820
                        41.200
 114950067.874 8  89571493.76946  21874271.211                    21874276.906
        49.200          37.600
 116507363.311 7  90785140.65946  22170614.133                    22170620.121
        47.600          36.200
                  91190511.424 6  21902300.563                    21902303.180
                        41.600
 112546912.361 7  87699076.39646  21416966.031                    21416967.039
        46.700          37.600
 18  3 15 14  9 43.0000000  0 17R01R02G25G12R12R10R11G14R20G17G22G01
                                R19G24G32R03G19
                  98215293.988 4  23622685.992                    23622689.441
                        26.600
                  85620864.125 6  20629690.031                    20629692.180
                        41.700
 128186241.624 7  99885517.02844  24393057.039                    24393064.090
        44.300          24.700
 112548993.076 8  87700401.23746  21417331.063                    21417334.094
        48.700          36.600
                                  22863589.359

                  84905850.670 6  20479013.484                    20479018.371
                        38.600
                  82531949.949 7  19857509.391                    19857511.188
                        42.100
 121474737.522 7  94655547.77145  23115853.180                    23115857.359
        44.500          30.800
                  87337030.875 6  20998880.305                    20998884.441
                        41.700
 116289516.348 8  90615245.81046  22129171.141                    22129174.746
        50.200          36.300
 123603997.174 7  96314779.79945  23521055.070                    23521055.836
        44.500          33.200
 122948006.247 7  95803732.94144  23396242.977                    23396250.047
        43.400          29.100
                  85941961.416 6  20656213.961                    20656214.609
                        40.900
 114952752.240 8  89573585.48646  21874782.680                    21874787.918
        50.000          37.500
 116507345.535 7  90785126.79846  22170611.070                    22170617.059
        47.800          37.500
                  91188411.381 6  21901797.008                    21901798.840
                        41.300
 112546925.701 7  87699086.78746  21416968.148                    21416969.559
        46.200          37.300
 18  3 15 14  9 44.0000000  0 17R01R02G25G12R12R10R11G14R20G17G22G01
                                R19G24G32R03G19
                  98219089.392 4  23623598.320                    23623602.066
                        28.200
                  85621993.938 7  20629962.922                    20629964.594
                        42.100
 128182688.189 7  99882748.11144  24392380.570                    24392387.996
        44.500          24.900
 112547074.071 8  87698905.91046  21416965.750                    21416968.652
        48.800          36.500
                                  22862856.258

                  84908395.499 6  20479628.227                    20479632.496
                        38.700
                  82530983.670 7  19857276.180                    19857278.277
                        42.600
 121472909.021 7  94654122.95745  23115505.539                    23115509.375
        44.300          30.000
                  87335115.658 7  20998420.859                    20998423.359
                        42.000
 116290968.180 8  90616377.10346  22129447.578                    22129450.953
        50.000          36.500
 123603115.508 7  96314092.77945  23520887.000                    23520887.953
        44.300          32.600
 122950871.974 7  95805965.97344  23396788.516                    23396795.348
        43.600          28.900
                  85943728.999 6  20656639.773                    20656639.117
                        41.700
 114955437.142 8  89575677.62146  21875292.766                    21875299.418
        49.300          37.700
 116507328.496 8  90785113.51446  22170607.516                    22170613.652
        48.100          37.800
                  91186311.862 6  21901291.625                    21901294.633
                        41.800
 112546939.854 7  87699097.80446  21416970.969                    21416971.875
        46.600          36.500
 18  3 15 14  9 45.0000000  0 17R01R02G25G12R12R10R11G14R20G17G22G01
                                R19G24G32R03G19
                  98222884.904 5  23624511.344                    23624515.117
                        30.400
                  85623124.460 6  20630234.938                    20630237.246
                        40.900
 128179134.885 7  99879979.32043  24391704.625                    24391711.680
        44.500          22.300
 112545155.618 8  87697411.01646  21416601.117                    21416603.668
        49.400          36.700
                                  22862120.578

                  84910940.781 6  20480243.039                    20480246.254
                        38.700
                  82530017.979 7  19857044.305                    19857046.141
                        42.400
 121471081.011 7  94652698.52245  23115157.578                    23115161.090
        44.700          31.700
                  87333201.021 7  20997962.281                    20997963.055
                        42.100
 116292420.588 8  90617508.84146  22129723.852                    22129727.285
        50.300          36.800
 123602234.390 7  96313406.19245  23520719.188                    23520720.379
        45.000          32.700
 122953738.263 7  95808199.45045  23397333.617                    23397340.289
        43.900          30.100
                  85945497.230 6  20657064.656                    20657064.715
                        41.500
 114958122.553 8  89577770.15046  21875804.383                    21875809.875
        50.000          37.900
 116507312.121 8  90785100.75546  22170604.242                    22170610.668
        48.300          37.100
                  91184212.816 7  21900788.016                    21900789.559
                        42.100
 112546954.744 7  87699109.39446  21416973.133                    21416974.766
        46.200          36.200
 18  3 15 14  9 46.0000000  0 17R01R02G25G12R12R10R11G14R20G17G22G01
                                R19G24G32R03G19
                  98226680.703 5  23625423.773                    23625428.047
                        30.800
                  85624255.689 6  20630507.023                    20630509.410
                        40.900
 128175581.851 7  99877210.74243  24391028.102                    24391035.438
        44.600          22.600
 112543237.776 8  87695916.59146  21416235.516                    21416238.766
        49.100          37.100
                                  22861387.023

                  84913486.645 6  20480854.789                    20480859.762
                        38.700
                  82529052.945 7  19856812.133                    19856814.414
                        42.600
 121469253.483 7  94651274.44444  23114810.336                    23114813.656
        44.600          29.900
                  87331286.923 6  20997500.039                    20997503.711
                        41.300
 116293873.597 8  90618641.05846  22130000.297                    22130003.637
        50.200          36.700
 123601353.875 7  96312720.08645  23520551.266                    23520553.164
        45.300          32.800
 122956605.093 7  95810433.36144  23397879.180                    23397885.762
        43.000          28.400
                  85947266.140 6  20657489.344                    20657490.145
                        41.400
 114960808.513 8  89579863.10546  21876315.313                    21876321.113
        49.400          37.000
 116507296.464 8  90785088.56346  22170600.984                    22170607.512
        48.200          37.600
                  91182114.292 6  21900284.391                    21900285.945
                        41.500
 112546970.395 7  87699121.58246  21416975.961                    21416978.098
        46.900          36.500
 18  3 15 14  9 47.0000000  0 17R01R02G25G12R12R10R11G14R20G17G22G01
                                R19G24G32R03G19
                  98230476.588 5  23626337.703                    23626341.297
                        31.700
                  85625387.545 6  20630779.648                    20630781.543
                        41.100
 128172028.954 7  99874442.25943  24390352.117                    24390359.406
        44.500          22.800
 112541320.449 8  87694422.56946  21415871.398                    21415874.031
        49.700          37.000
                                  22860652.438

                  84916032.903 6  20481471.867                    20481474.207
                        39.600
                  82528088.505 7  19856580.234                    19856582.566
                        42.400
 121467426.477 7  94649850.78545  23114463.461                    23114466.008
        45.200          30.900
                  87329373.390 6  20997039.133                    20997042.711
                        41.600
 116295327.192 8  90619773.73445  22130277.031                    22130280.496
        50.000          35.700
 123600473.882 7  96312034.38545  23520383.953                    23520385.859
        45.000          32.600
 122959472.488 7  95812667.70344  23398424.953                    23398431.438
        42.700          28.500
                  85949035.713 6  20657914.094                    20657914.332
                        41.100
 114963494.987 8  89581956.46246  21876826.242                    21876832.266
        49.300          37.700
 116507281.478 7  90785076.89446  22170598.188                    22170604.973
        47.900          37.100
                  91180016.182 6  21899780.016                    21899782.207
                        41.500
 112546986.813 7  87699134.38646  21416979.578                    21416980.941
        46.900          36.500
 18  3 15 14  9 48.0000000  0 17R01R02G25G12R12R10R11G14R20G17G22G01
                                R19G24G32R03G19
                  98234272.647 5  23627251.789                    23627254.402
                        32.500
                  85626520.115 6  20631053.203                    20631054.895
                        41.500
 128168476.257 7  99871673.91743  24389676.453                    24389683.563
        44.200          22.000
 112539403.730 8  87692929.02146  21415506.609                    21415509.488
        49.600          37.100
                                  22859919.305

                  84918579.684 6  20482083.953                    20482089.500
                        39.200
                  82527124.641 7  19856347.781                    19856349.523
                        42.600
 121465599.995 7  94648427.53445  23114115.500                    23114118.133
        45.300          30.800
                  87327460.474 6  20996581.422                    20996583.453
                        41.200
 116296781.371 8  90620906.86146  22130553.672                    22130557.098
        50.200          36.300
 123599594.507 7  96311349.15045  23520216.453                    23520217.797
        44.500          32.300
 122962340.416 7  95814902.46744  23398970.492                    23398977.500
        43.400          28.900
                  85950805.940 6  20658340.578                    20658340.242
                        41.300
 114966181.991 8  89584050.22946  21877338.414                    21877343.723
        50.100          38.600
 116507267.167 7  90785065.74746  22170595.617                    22170602.195
        47.600          36.600
                  91177918.591 6  21899277.328                    21899278.785
                        41.400
 112547003.988 7  87699147.77146  21416983.297                    21416984.402
        46.700          36.300
 18  3 15 14  9 49.0000000  0 17R01R02G25G12R12R10R11G14R20G17G22G01
                                R19G24G32R03G19
                  98238068.923 5  23628163.266                    23628167.109
                        33.400
                  85627653.475 6  20631326.289                    20631327.754
                        41.300
 128164923.727 7  99868905.71043  24389000.094                    24389006.949
        44.400          22.900
 112537487.564 8  87691435.89946  21415141.109                    21415144.902
        49.800          36.800
                                  22859183.797

                  84921126.985 6  20482699.273                    20482702.508
                        39.300
                  82526161.409 7  19856116.141                    19856118.691
                        42.600
 121463774.043 7  94647004.71445  23113767.578                    23113770.820
        44.700          30.400
                  87325548.081 6  20996120.445                    20996123.379
                        41.800
 116298236.195 8  90622040.49445  22130830.359                    22130833.805
        49.900          35.700
 123598715.721 7  96310664.37845  23520049.492                    23520050.688
        44.800          33.100
 122965208.881 7  95817137.63644  23399516.711                    23399523.305
        43.300          28.900
                  85952576.832 6  20658765.820                    20658765.426
                        40.900
 114968869.551 8  89586144.43546  21877848.539                    21877855.387
        49.300          38.100
 116507253.547 7  90785055.13346  22170593.508                    22170599.477
        47.700          36.600
                  91175821.561 6  21898772.945                    21898774.734
                        41.700
 112547021.942 7  87699161.75446  21416985.859                    21416987.953
        46.600          36.200
 18  3 15 14  9 50.0000000  0 17R01R02G25G12R12R10R11G14R20G17G22G01
                                R19G24G32R03G19
                  98241865.393 5  23629076.320                    23629080.738
                        31.400
                  85628787.609 6  20631599.305                    20631601.203
                        41.200
 128161371.458 7  99866137.72444  24388324.852                    24388331.039
        45.400          24.400
 112535572.040 8  87689943.27846  21414776.836                    21414779.609
        50.100          36.300
                                  22858449.141

                  84923674.778 6  20483314.664                    20483317.426
                        39.600
                  82525198.796 7  19855885.125                    19855887.902
                        42.600
 121461948.536 7  94645582.23145  23113419.859                    23113423.648
        44.300          30.300
                  87323636.321 6  20995660.359                    20995663.715
                        41.800
 116299691.669 8  90623174.62446  22131107.250                    22131110.793
        49.800          36.100
 123597837.568 7  96309980.09345  23519882.586                    23519883.730
        44.800          33.300
 122968077.928 7  95819373.24144  23400062.563                    23400069.043
        43.900          29.900
                  85954348.416 6  20659191.688                    20659191.832
                        40.900
 114971557.645 8  89588239.05146  21878361.281                    21878366.773
        50.200          37.900
 116507240.697 7  90785045.11646  22170591.156                    22170597.254
        47.600          36.200
                  91173725.064 6  21898268.961                    21898271.160
                        41.800
 112547040.713 7  87699176.36846  21416989.898                    21416991.555
        47.100          36.400
 18  3 15 14  9 51.0000000  0 17R01R02G25G12R12R10R11G14R20G17G22G01
                                R19G24G32R03G19
                  98245662.085 5  23629989.578                    23629993.750
                        31.900
                  85629922.497 6  20631873.656                    20631874.707
                        41.000
 128157819.372 7  99863369.86444  24387648.781                    24387655.211
        45.500          26.200
 112533657.140 8  87688451.14746  21414413.320                    21414415.852
        50.000          36.400
                                  22857713.766

                  84926223.161 6  20483927.523                    20483932.316
                        39.400
                  82524236.830 7  19855653.859                    19855655.527
                        42.400
 121460123.653 7  94644160.22045  23113073.484                    23113076.215
        44.500          31.100
                  87321725.164 6  20995201.461                    20995204.324
                        41.900
 116301147.773 8  90624309.24346  22131384.539                    22131387.672
        50.000          36.200
 123596960.074 7  96309296.34145  23519715.898                    23519716.996
        43.600          33.600
 122970947.566 7  95821609.30144  23400609.070                    23400615.453
        44.000          28.800
                  85956120.686 6  20659618.008                    20659617.977
                        41.100
 114974246.336 8  89590334.14146  21878872.141                    21878878.523
        49.900          37.900
 116507228.606 7  90785035.69346  22170588.898                    22170594.762
        47.200          36.000
                  91171629.115 6  21897765.859                    21897767.727
                        41.300
 112547060.275 7  87699191.60346  21416993.070                    21416994.902
        47.300          36.300
 18  3 15 14  9 52.0000000  0 17R01R02G25G12R12R10R11G14R20G17G22G01
                                R19G24G32R03G19
                  98249459.039 5  23630903.305                    23630907.160
                        33.100
                  85631058.189 6  20632146.820                    20632148.680
                        41.200
 128154267.656 7  99860602.29344  24386972.758                    24386979.305
        45.500          25.800
 112531742.896 8  87686959.53146  21414047.844                    21414051.531
        49.100          36.500
                                  22856979.133

                  84928772.057 6  20484543.461                    20484546.594
                        39.600
                  82523275.515 7  19855421.438                    19855424.582
                        42.300
 121458299.321 7  94642738.64745  23112725.516                    23112729.113
        45.000          31.300
                  87319814.619 6  20994741.664                    20994744.609
                        41.800
 116302604.525 8  90625444.37046  22131661.789                    22131665.020
        49.600          36.000
 123596083.243 7  96308613.09545  23519548.680                    23519549.727
        43.600          33.700
 122973817.890 7  95823845.91644  23401155.094                    23401162.023
        43.200          28.300
                  85957893.693 6  20660043.836                    20660043.551
                        41.100
 114976935.644 8  89592429.70446  21879384.109                    21879390.203
        50.100          38.100
 116507217.344 7  90785026.92646  22170586.672                    22170592.734
        46.900          36.100
                  91169533.771 6  21897261.938                    21897264.453
                        41.900
 112547080.656 7  87699207.46946  21416997.500                    21416998.652
        46.800          36.600
 18  3 15 14  9 53.0000000  0 17R01R02G25G12R12R10R11G14R20G17G22G01
                                R19G24G32R03G19
                  98253256.209 5  23631815.727                    23631820.027
                        32.900
                  85632194.545 6  20632419.477                    20632422.418
                        41.300
 128150716.117 7  99857834.84644  24386297.047                    24386303.883
        45.600          26.700
 112529829.294 8  87685468.42246  21413684.633                    21413687.430
        49.300          36.600
                                  22856245.102

                  84931321.550 6  20485159.094                    20485162.262
                        39.200
                  82522314.838 7  19855191.055                    19855192.973
                        42.300
 121456475.489 7  94641317.45245  23112378.266                    23112381.613
        45.200          31.400
                  87317904.766 6  20994282.914                    20994286.090
                        41.900
 116304062.044 8  90626580.09245  22131939.109                    22131942.719
        49.600          35.500
 123595207.051 7  96307930.34545  23519382.219                    23519383.254
        44.000          33.300
 122976688.705 7  95826082.91444  23401701.398                    23401707.867
        43.400          26.800
                  85959667.408 6  20660470.047                    20660469.883
                        41.600
 114979625.603 8  89594525.77346  21879896.133                    21879902.176
        50.200          38.200
 116507206.714 7  90785018.64646  22170584.578                    22170590.668
        47.700          36.600
                  91167438.935 6  21896759.406                    21896760.992
                        41.100
 112547101.996 7  87699224.08746  21417001.492                    21417003.418
        46.200          36.500
 18  3 15 14  9 54.0000000  0 17R01R02G25G12R12R10R11G14R20G17G22G01
                                R19G24G32R03G19
                  98257053.554 5  23632729.219                    23632733.969
                        32.900
                  85633331.689 6  20632692.930                    20632696.566
                        41.300
 128147164.794 7  99855067.58144  24385621.188                    24385628.145
        45.600          25.900
 112527916.287 8  87683977.76846  21413320.203                    21413323.695
        49.500          36.500
                                  22855510.992

                  84933871.525 6  20485772.164                    20485777.152
                        39.100
                  82521354.877 7  19854959.898                    19854961.836
                        42.300
 121454652.284 7  94639896.74245  23112032.047                    23112035.254
        44.200          30.700
                  87315995.398 6  20993823.305                    20993826.074
                        41.900
 116305520.165 8  90627716.28145  22132216.664                    22132220.016
        50.000          35.700
 123594331.575 7  96307248.17645  23519215.188                    23519216.375
        43.800          32.600
 122979560.214 7  95828320.45744  23402247.867                    23402254.797
        43.600          27.500
                  85961441.846 6  20660895.664                    20660896.531
                        41.800
 114982316.086 8  89596622.26046  21880407.586                    21880413.641
        49.400          38.000
 116507196.910 7  90785011.00346  22170582.633                    22170588.883
        47.500          36.600
                  91165344.691 6  21896256.617                    21896258.293
                        41.500
 112547124.049 7  87699241.26746  21417005.805                    21417007.297
        46.500          36.300
 18  3 15 14  9 55.0000000  0 17R01R02G25G12R12R10R11G14R20G17G22G01
                                R19G24G32R03G19
                  98260851.100 5  23633642.055                    23633647.109
                        33.400
                  85634469.558 6  20632968.141                    20632969.645
                        41.400
 128143613.704 7  99852300.48944  24384945.195                    24384952.141
        45.400          26.500
 112526003.897 8  87682487.59546  21412956.320                    21412959.211
        49.300          36.700
                                  22854775.656

                  84936421.993 6  20486388.727                    20486392.012
                        39.900
                  82520395.505 7  19854729.477                    19854731.273
                        42.600
 121452829.642 7  94638476.49245  23111684.781                    23111688.340
        45.000          30.600
                  87314086.692 6  20993365.016                    20993366.887
                        41.800
 116306978.907 8  90628852.96745  22132494.070                    22132497.898
        50.000          35.400
 123593456.607 7  96306566.41745  23519048.891                    23519050.148
        44.000          33.000
 122982432.239 7  95830558.41244  23402793.766                    23402800.828
        43.300          27.500
                  85963216.932 6  20661323.266                    20661323.086
                        41.500
 114985007.104 8  89598719.16146  21880920.844                    21880925.563
        50.000          38.300
 116507187.795 7  90785003.89446  22170580.586                    22170587.348
        47.400          36.900
                  91163250.938 6  21895753.539                    21895755.543
                        41.500
 112547146.888 7  87699259.05546  21417009.773                    21417011.656
        46.800          36.400
 18  3 15 14  9 56.0000000  0 17R01R02G25G12R12R10R11G14R20G17G22G01
                                R19G24G32R03G19
                  98264648.844 5  23634557.703                    23634560.266
                        33.300
                  85635608.147 6  20633243.141                    20633244.625
                        41.100
 128140062.803 7  99849533.55444  24384269.234                    24384276.238
        45.100          24.200
 112524092.069 8  87680997.85746  21412592.750                    21412595.617
        49.500          37.100
                                  22854041.336

                  84938972.938 6  20487004.695                    20487007.934
                        38.900
                  82519436.721 7  19854498.563                    19854500.891
                        42.400
 121451007.492 7  94637056.64445  23111338.375                    23111341.938
        45.800          31.300
                  87312178.547 6  20992905.844                    20992909.031
                        41.600
 116308438.277 8  90629990.13746  22132771.688                    22132775.059
        50.600          36.000
 123592582.329 7  96305885.19445  23518882.367                    23518883.609
        44.800          32.300
 122985304.820 7  95832796.80144  23403340.813                    23403347.488
        43.000          27.600
                  85964992.711 6  20661750.055                    20661750.355
                        41.900
 114987698.676 8  89600816.49746  21881431.656                    21881438.379
        49.300          37.600
 116507179.385 7  90784997.34046  22170579.008                    22170585.152
        47.500          36.200
                  91161157.716 6  21895251.234                    21895253.066
                        41.500
 112547170.546 7  87699277.49045  21417014.125                    21417016.082
        46.700          35.900
 18  3 15 14  9 57.0000000  0 17R01R02G25G12R12R10R11G14R20G17G22G01
                                R19G24G32R03G19
                  98268446.766 5  23635469.836                    23635473.852
                        33.100
                  85636747.528 6  20633516.141                    20633519.414
                        41.100
 128136512.078 7  99846766.74644  24383594.000                    24383600.504
        45.100          26.000
 112522180.844 8  87679508.58246  21412228.914                    21412232.207
        49.400          36.900
                                  22853306.453

                  84941524.449 6  20487617.344                    20487622.051
                        39.400
                  82518478.547 7  19854267.688                    19854269.535
                        42.500
 121449185.826 7  94635637.17645  23110992.086                    23110995.152
        45.900          32.300
                  87310270.939 7  20992445.875                    20992449.988
                        42.300
 116309898.239 8  90631127.77146  22133049.359                    22133053.184
        50.300          36.400
 123591708.521 7  96305204.32945  23518716.016                    23518717.367
        44.700          33.400
 122988177.945 7  95835035.60944  23403887.453                    23403894.297
        43.000          26.000
                  85966769.146 6  20662176.461                    20662177.059
                        41.600
 114990390.784 8  89602914.23646  21881944.484                    21881949.969
        49.500          38.100
 116507171.653 7  90784991.30746  22170577.172                    22170583.879
        46.700          36.600
                  91159064.999 6  21894748.195                    21894750.660
                        41.200
 112547194.967 7  87699296.51946  21417018.992                    21417020.313
        47.000          37.000
 18  3 15 14  9 58.0000000  0 17R01R02G25G12R12R10R11G14R20G17G22G01
                                R19G24G32R03G19
                  98272244.845 5  23636384.242                    23636387.383
                        33.800
                  85637887.594 6  20633792.648                    20633794.027
                        41.000
 128132961.567 7  99844000.11943  24382918.313                    24382924.980
        44.600          23.000
 112520270.205 8  87678019.77246  21411865.648                    21411868.195
        49.300          36.900
                                  22852572.289

                  84944076.408 6  20488236.047                    20488238.891
                        39.200
                  82517521.003 7  19854037.773                    19854039.980
                        42.600
 121447364.703 7  94634218.12344  23110644.938                    23110648.613
        45.200          29.900
                  87308363.997 6  20991988.711                    20991991.484
                        41.600
 116311358.838 8  90632265.90246  22133327.570                    22133330.988
        50.200          37.000
 123590835.303 7  96304523.89345  23518550.039                    23518551.277
        43.400          30.700
 122991051.604 6  95837274.82843  23404434.359                    23404440.645
        40.000          21.800
                  85968546.258 6  20662604.453                    20662603.934
                        41.000
 114993083.455 8  89605012.41946  21882457.008                    21882462.504
        49.400          38.600
 116507164.651 7  90784985.85546  22170575.531                    22170582.410
        45.800          36.200
                  91156972.810 6  21894244.898                    21894247.586
                        38.600
 112547220.152 7  87699316.16146  21417024.828                    21417025.371
        47.600          37.500
 18  3 15 14  9 59.0000000  0 17R01R02G25G12R12R10R11G14R20G17G22G01
                                R19G24G32R03G19
                  98276043.109 5  23637297.023                    23637301.113
                        34.300
                  85639028.419 6  20634067.930                    20634068.910
                        41.200
 128129411.289 7  99841233.66044  24382243.086                    24382249.363
        44.700          26.700
 112518360.193 8  87676531.45646  21411501.258                    21411505.063
        49.500          37.400
                                  22851836.719

                  84946628.926 6  20488849.555                    20488854.215
                        39.700
                  82516564.118 7  19853807.375                    19853809.664
                        42.300
 121445544.094 7  94632799.46444  23110298.672                    23110301.953
        43.900          26.900
                  87306457.624 6  20991531.352                    20991533.117
                        41.800
 116312820.077 8  90633404.53446  22133605.680                    22133609.164
        50.500          36.500
 123589962.778 7  96303843.97844  23518384.016                    23518385.258
        43.200          29.100
 122993925.951 6  95839514.60643  23404981.219                    23404987.699
        38.400          20.100
                  85970324.108 6  20663031.164                    20663031.617
                        40.900
 114995776.688 8  89607111.03646  21882969.484                    21882975.047
        49.700          38.200
 116507158.402 7  90784980.98846  22170574.766                    22170581.180
        45.600          37.200
                  91154881.262 6  21893742.992                    21893745.281
                        38.700
 112547246.167 7  87699336.43846  21417029.422                    21417030.402
        47.600          37.500
 18  3 15 14 10  0.0000000  0 17R01R02G25G12R12R10R11G14R20G17G22G01
                                R19G24G32R03G19
                  98279841.628 5  23638210.898                    23638214.387
                        34.300
                  85640169.982 6  20634341.656                    20634344.160
                        41.600
 128125861.237 7  99838467.36944  24381566.906                    24381574.023
        44.500          24.000
 112516450.793 8  87675043.61146  21411139.109                    21411141.563
        50.500          37.600
                                  22851100.758

                  84949182.009 6  20489466.031                    20489469.570
                        39.400
                  82515607.845 7  19853577.453                    19853579.660
                        42.400
 121443724.063 7  94631381.25044  23109951.719                    23109955.996
        43.900          28.900
                  87304551.839 6  20991071.594                    20991075.059
                        41.700
 116314281.995 8  90634543.69446  22133883.859                    22133887.383
        50.600          36.700
 123589090.877 7  96303164.55845  23518218.180                    23518219.023
        44.400          30.200
 122996800.774 6  95841754.74543  23405528.203                    23405534.652
        39.700          18.600
                  85972102.637 6  20663458.867                    20663459.355
                        41.500
 114998470.478 8  89609210.09346  21883482.586                    21883487.871
        49.700          37.800
 116507152.824 7  90784976.64746  22170573.797                    22170580.117
        46.200          36.600
                  91152790.198 6  21893241.148                    21893243.293
                        40.000
 112547272.992 7  87699357.33546  21417033.664                    21417035.625
        47.900          37.300
 18  3 15 14 10  1.0000000  0 17R01R02G25G12R12R10R11G14R20G17G22G01
                                R19G24G32R03G19
                  98283640.348 5  23639124.859                    23639127.793
                        34.300
                  85641312.269 6  20634615.789                    20634618.605
                        41.900
 128122311.369 7  99835701.24344  24380891.383                    24380898.258
        43.900          24.700
 112514542.032 8  87673556.26446  21410775.430                    21410778.035
        50.000          37.400
                                  22850366.602

                  84951735.591 6  20490082.594                    20490085.773
                        39.900
                  82514652.176 7  19853347.602                    19853349.609
                        42.100
 121441904.558 7  94629963.45845  23109605.234                    23109609.859
        45.300          30.000
                  87302646.673 6  20990613.797                    20990617.527
                        41.500
 116315744.496 8  90635683.31046  22134162.086                    22134166.051
        49.800          36.500
 123588219.608 7  96302485.65245  23518052.266                    23518053.430
        43.300          32.400
 122999676.210 7  95843995.30945  23406075.375                    23406081.582
        43.900          30.000
                  85973881.790 6  20663886.672                    20663886.473
                        41.500
 115001164.879 8  89611309.62546  21883994.086                    21884001.039
        49.100          37.900
 116507148.028 7  90784972.92445  22170573.781                    22170579.074
        45.800          35.900
                  91150699.615 7  21892738.633                    21892740.727
                        42.400
 112547300.587 7  87699378.83546  21417038.930                    21417040.730
        47.600          37.300
 18  3 15 14 10  2.0000000  0 17R01R02G25G12R12R10R11G14R20G17G22G01
                                R19G24G32R03G19
                  98287439.224 5  23640038.148                    23640042.355
                        33.900
                  85642455.202 6  20634892.250                    20634893.996
                        41.600
 128118761.636 7  99832935.24344  24380216.094                    24380222.777
        44.100          26.200
 112512633.712 8  87672069.25946  21410411.258                    21410415.102
        49.400          37.600
                                  22849630.961

                  84954289.621 6  20490697.539                    20490702.617
                        39.900
                  82513697.065 7  19853117.320                    19853119.551
                        42.400
 121440085.510 7  94628546.02045  23109259.594                    23109263.297
        44.300          31.100
                  87300742.028 6  20990156.039                    20990159.141
                        41.400
 116317207.546 8  90636823.36346  22134440.602                    22134444.293
        50.600          36.600
 123587348.828 7  96301807.12345  23517886.273                    23517888.063
        42.900          31.600
 123002552.069 7  95846236.18844  23406622.734                    23406628.816
        43.700          27.200
                  85975661.577 6  20664314.797                    20664314.000
                        41.400
 115003859.685 8  89613409.46546  21884508.211                    21884513.387
        49.800          38.300
 116507143.837 7  90784969.66546  22170572.992                    22170578.672
        46.400          37.100
                  91148609.509 7  21892236.633                    21892238.676
                        42.200
 112547328.886 7  87699400.88546  21417044.633                    21417046.223
        47.300          37.200
 18  3 15 14 10  3.0000000  0 17R01R02G25G12R12R10R11G14R20G17G22G01
                                R19G24G32R03G19
                  98291238.237 5  23640951.539                    23640955.355
                        33.100
                  85643598.837 6  20635167.125                    20635170.199
                        41.400
 128115212.103 7  99830169.39344  24379540.328                    24379547.547
        44.000          24.600
 112510726.024 8  87670582.74746  21410050.000                    21410052.148
        50.000          37.500
                                  22848895.422

                  84956844.149 6  20491314.313                    20491317.711
                        39.900
                  82512742.572 7  19852887.852                    19852889.605
                        42.300
 121438266.930 7  94627128.94745  23108913.719                    23108917.391
        43.800          30.000
                  87298837.928 6  20989698.047                    20989700.977
                        41.800
 116318671.237 8  90637963.90946  22134718.906                    22134722.527
        50.300          36.400
 123586478.695 7  96301129.10745  23517721.250                    23517722.297
        42.600          32.900
 123005428.491 7  95848477.50844  23407170.398                    23407176.195
        43.600          28.700
                  85977442.006 6  20664742.258                    20664743.012
                        41.900
 115006555.033 8  89615509.73646  21885020.297                    21885025.934
        49.200          37.900
 116507140.365 7  90784966.96346  22170572.508                    22170577.750
        46.900          36.900
                  91146519.938 7  21891735.297                    21891737.273
                        42.200
 112547357.963 7  87699423.54746  21417050.398                    21417051.676
        47.000          37.000
 18  3 15 14 10  4.0000000  0 17R01R02G25G12R12R10R11G14R20G17G22G01
                                R19G24G32R03G19
                  98295037.426 5  23641865.047                    23641869.074
                        34.400
                  85644743.254 6  20635442.664                    20635445.570
                        41.800
 128111662.759 7  99827403.67944  24378864.805                    24378871.602
        44.400          26.000
 112508818.912 8  87669096.68246  21409686.039                    21409689.570
        49.100          37.100
                                  22848159.391

                  84959399.170 6  20491930.734                    20491934.180
                        39.700
                  82511788.690 7  19852658.258                    19852660.516
                        42.100
 121436448.871 7  94625712.29445  23108567.086                    23108571.324
        43.000          30.100
                  87296934.430 7  20989240.461                    20989243.453
                        42.100
 116320135.535 8  90639104.91246  22134997.898                    22135001.164
        50.800          36.300
 123585609.100 7  96300451.51445  23517555.445                    23517556.457
        43.000          32.300
 123008305.505 7  95850719.30945  23407717.445                    23407723.941
        43.900          30.000
                  85979223.111 6  20665169.938                    20665171.430
                        41.600
 115009250.962 8  89617610.46246  21885533.695                    21885539.152
        49.600          38.100
 116507137.582 7  90784964.79346  22170572.148                    22170577.383
        47.300          36.500
                  91144430.887 7  21891232.609                    21891234.898
                        42.300
 112547387.821 7  87699446.81246  21417055.813                    21417057.277
        47.200          37.200
 18  3 15 14 10  5.0000000  0 17R01R02G25G12R12R10R11G14R20G17G22G01
                                R19G24G32R03G19
                  98298836.753 5  23642779.539                    23642782.949
                        34.700
                  85645888.386 7  20635719.953                    20635721.254
                        42.100
 128108113.602 7  99824638.10044  24378189.344                    24378196.813
        43.900          24.800
 112506912.350 8  87667611.04746  21409322.984                    21409326.383
        49.100          37.100
                                  22847427.383

                  84961954.697 6  20492546.117                    20492550.906
                        39.400
                  82510835.428 7  19852428.961                    19852430.566
                        42.300
 121434631.301 7  94624296.03744  23108221.797                    23108225.480
        43.800          29.900
                  87295031.514 6  20988782.773                    20988785.922
                        41.800
 116321600.432 8  90640246.37946  22135276.602                    22135279.805
        50.200          36.200
 123584740.122 7  96299774.39645  23517390.078                    23517391.461
        43.300          32.300
 123011183.045 7  95852961.53344  23408265.172                    23408271.578
        44.100          29.300
                  85981004.910 6  20665598.570                    20665598.828
                        41.600
 115011947.425 8  89619711.60846  21886046.664                    21886052.828
        49.700          38.800
 116507135.498 7  90784963.16346  22170571.344                    22170576.934
        47.600          36.500
                  91142342.366 7  21890731.195                    21890733.996
                        42.300
 112547418.425 7  87699470.65146  21417061.492                    21417063.305
        47.500          36.900
 18  3 15 14 10  6.0000000  0 17R01R02G25G12R12R10R11G14R20G17G22G01
                                R19G24G32R03G19
                  98302636.358 5  23643694.141                    23643696.848
                        34.700
                  85647034.263 6  20635996.813                    20635997.586
                        41.500
 128104564.712 7  99821872.72144  24377513.547                    24377520.984
        43.100          24.200
 112505006.466 8  87666125.94346  21408961.766                    21408964.066
        50.000          37.100
                                  22846694.063

                  84964510.753 6  20493163.742                    20493167.059
                        39.400
                  82509882.821 7  19852199.688                    19852202.039
                        42.400
 121432814.319 7  94622880.22944  23107875.914                    23107879.863
        44.000          29.800
                  87293129.254 6  20988326.281                    20988328.793
                        41.500
 116323066.002 8  90641388.37846  22135555.563                    22135558.945
        50.200          36.600
 123583871.785 7  96299097.77745  23517225.188                    23517226.223
        44.100          32.300
 123014061.210 7  95855204.26644  23408812.594                    23408819.684
        43.600          27.900
                  85982787.433 6  20666027.578                    20666026.996
                        41.800
 115014644.502 8  89621813.22946  21886559.438                    21886565.668
        49.300          38.300
 116507134.227 7  90784962.16946  22170571.422                    22170576.949
        47.500          36.900
                  91140254.442 7  21890229.633                    21890232.207
                        42.100
 112547449.884 7  87699495.15246  21417067.680                    21417069.055
        46.800          36.500
 18  3 15 14 10  7.0000000  0 17R01R02G25G12R12R10R11G14R20G17G22G01
                                R19G24G32R03G19
                  98306436.141 5  23644608.172                    23644610.816
                        35.800
                  85648180.833 6  20636272.469                    20636273.707
                        41.500
 128101016.017 7  99819107.48843  24376838.789                    24376845.941
        42.800          23.900
 112503101.155 8  87664641.27846  21408597.141                    21408601.449
        49.400          36.500
                                  22845960.000

                  84967067.309 6  20493780.031                    20493783.570
                        39.600
                  82508930.842 7  19851970.750                    19851972.707
                        42.100
 121430997.823 7  94621464.77444  23107531.031                    23107533.969
        44.600          29.900
                  87291227.529 6  20987867.594                    20987871.496
                        41.200
 116324532.209 8  90642530.87546  22135834.094                    22135838.070
        49.600          36.200
 123583004.048 7  96298421.60645  23517059.750                    23517060.973
        43.700          31.700
 123016939.920 7  95857447.43044  23409360.414                    23409367.441
        43.900          29.100
                  85984570.595 6  20666455.445                    20666455.246
                        41.400
 115017342.093 8  89623915.24446  21887073.883                    21887079.313
        50.000          38.300
 116507133.652 7  90784961.71546  22170570.711                    22170576.746
        47.600          37.000
                  91138167.039 6  21889728.625                    21889730.504
                        41.600
 112547482.112 7  87699520.25946  21417073.766                    21417075.547
        47.000          37.100
 18  3 15 14 10  8.0000000  0 17R01R02G25G12R12R10R11G14R20G17G22G01
                                R19G24G32R03G19
                  98310236.074 5  23645522.305                    23645524.957
                        35.100
                  85649328.096 6  20636548.305                    20636550.008
                        41.900
 128097467.497 7  99816342.41343  24376162.727                    24376170.742
        42.100          21.700
 112501196.402 8  87663157.06746  21408235.742                    21408238.766
        49.700          36.900
                                  22845225.883

                  84969624.363 6  20494395.875                    20494400.367
                        39.100
                  82507979.448 7  19851741.586                    19851743.414
                        42.100
 121429181.824 7  94620049.69144  23107186.281                    23107188.340
        44.600          28.700
                  87289326.387 6  20987411.156                    20987414.227
                        41.200
 116325998.986 8  90643673.82846  22136113.781                    22136116.918
        49.600          36.700
 123582136.881 7  96297745.89345  23516894.625                    23516896.102
        43.200          31.700
 123019819.136 7  95859690.98045  23409908.867                    23409915.375
        44.500          30.000
                  85986354.436 6  20666884.852                    20666884.590
                        40.800
 115020040.221 8  89626017.68446  21887586.188                    21887592.402
        49.000          38.400
 116507133.724 7  90784961.77146  22170570.813                    22170576.641
        47.600          37.300
                  91136080.096 6  21889227.867                    21889230.113
                        41.300
 112547515.069 7  87699545.93046  21417079.664                    21417081.844
        46.600          36.300
 18  3 15 14 10  9.0000000  0 17R01R02G25G12R12R10R11G14R20G17G22G01
                                R19G24G32R03G19
                  98314036.149 5  23646437.047                    23646439.047
                        34.900
                  85650476.051 6  20636825.891                    20636826.973
                        41.500
 128093919.156 6  99813577.50143  24375487.234                    24375495.602
        41.500          22.500
 112499292.240 8  87661673.31246  21407873.938                    21407876.652
        50.200          37.600
                                  22844491.547

                  84972181.902 6  20495014.453                    20495017.434
                        39.300
                  82507028.675 7  19851513.016                    19851515.164
                        42.400
 121427366.445 7  94618635.10944  23106839.695                    23106843.074
        45.400          29.300
                  87287425.825 6  20986954.078                    20986956.746
                        41.600
 116327466.365 8  90644817.24346  22136392.789                    22136396.242
        49.600          36.000
 123581270.325 7  96297070.67245  23516729.992                    23516731.008
        44.200          32.100
 123022698.926 7  95861934.97244  23410457.250                    23410463.719
        43.700          27.700
                  85988138.916 6  20667312.391                    20667313.203
                        41.200
 115022738.861 8  89628120.51846  21888100.820                    21888105.902
        49.300          38.100
 116507134.516 7  90784962.39446  22170570.297                    22170576.996
        46.900          36.200
                  91133993.672 6  21888727.055                    21888728.160
                        40.900
 112547548.817 7  87699572.22946  21417087.258                    21417088.199
        47.000          36.800
 18  3 15 14 10 10.0000000  0 17R01R02G25G12R12R10R11G14R20G17G22G01
                                R19G24G32R03G19
                  98317836.489 5  23647351.055                    23647352.953
                        35.300
                  85651624.774 6  20637100.742                    20637103.789
                        41.400
 128090371.007 7  99810812.73643  24374812.539                    24374820.191
        42.000          22.200
 112497388.666 8  87660190.00346  21407510.164                    21407514.465
        49.300          37.300
                                  22843758.008

                  84974739.970 6  20495630.922                    20495634.254
                        39.000
                  82506078.519 7  19851284.680                    19851286.258
                        42.600
 121425551.569 7  94617220.93044  23106494.008                    23106497.535
        45.300          29.000
                  87285525.822 6  20986497.031                    20986500.641
                        41.600
 116328934.407 8  90645961.17846  22136672.109                    22136675.684
        49.900          36.700
 123580404.379 7  96296395.92045  23516565.148                    23516566.266
        43.800          32.100
 123025579.363 7  95864179.47744  23411005.359                    23411011.234
        44.100          26.400
                  85989924.090 6  20667741.664                    20667742.613
                        41.000
 115025438.067 8  89630223.79746  21888613.852                    21888619.973
        48.800          38.100
 116507136.050 7  90784963.60246  22170570.586                    22170577.145
        47.100          36.700
                  91131907.794 6  21888225.148                    21888227.586
                        41.100
 112547583.414 7  87699599.18146  21417093.289                    21417094.559
        46.400          37.100
 18  3 15 14 10 11.0000000  0 17R01R02G25G12R12R10R11G14R20G17G22G01
                                R19G24G32R03G19
                  98321637.023 5  23648264.031                    23648267.191
                        35.500
                  85652774.265 6  20637376.102                    20637380.582
                        41.000
 128086823.101 6  99808048.13143  24374136.945                    24374145.195
        41.000          22.300
 112495485.725 8  87658707.20046  21407150.258                    21407151.918
        50.100          36.800
                                  22843025.086

                  84977298.581 6  20496246.492                    20496251.098
                        39.300
                  82505128.966 7  19851055.938                    19851057.852
                        42.200
 121423737.240 7  94615807.18845  23106148.727                    23106152.516
        45.500          30.400
                  87283626.444 6  20986040.141                    20986043.246
                        41.700
 116330403.063 8  90647105.59146  22136951.461                    22136954.941
        50.100          36.400
 123579539.053 7  96295721.62645  23516400.617                    23516401.371
        43.600          32.300
 123028460.338 7  95866424.40644  23411552.828                    23411559.660
        44.200          28.300
                  85991709.942 6  20668172.086                    20668171.512
                        40.700
 115028137.813 8  89632327.48946  21889127.094                    21889132.902
        48.400          38.000
 116507138.267 7  90784965.34946  22170570.938                    22170577.750
        47.400          36.800
                  91129822.494 6  21887725.023                    21887726.574
                        41.900
 112547618.771 7  87699626.73046  21417099.617                    21417101.582
        46.600          36.900
 18  3 15 14 10 12.0000000  0 17R01R02G25G12R12R10R11G14R20G17G22G01
                                R19G24G32R03G19
                  98325437.777 5  23649177.930                    23649181.672
                        35.600
                  85653924.479 6  20637655.602                    20637657.832
                        41.200
 128083275.350 7  99805283.66543  24373462.898                    24373470.004
        42.200          22.600
 112493583.372 8  87657224.84646  21406786.570                    21406790.141
        49.600          36.700
                                  22842290.609

                  84979857.640 6  20496866.289                    20496868.980
                        39.300
                  82504180.053 7  19850828.227                    19850829.520
                        42.400
 121421923.396 7  94614393.82844  23105803.289                    23105807.316
        44.000          28.900
                  87281727.627 6  20985584.805                    20985586.789
                        41.600
 116331872.343 8  90648250.49046  22137231.391                    22137234.410
        50.100          37.000
 123578674.333 7  96295047.81045  23516236.078                    23516236.840
        43.100          32.700
 123031341.859 7  95868669.76844  23412100.930                    23412107.738
        44.500          29.100
                  85993496.473 6  20668601.484                    20668600.980
                        41.300
 115030838.121 8  89634431.62546  21889641.969                    21889647.477
        49.500          38.700
 116507141.212 7  90784967.66146  22170571.703                    22170578.281
        46.400          36.700
                  91127737.721 6  21887224.211                    21887225.566
                        41.900
 112547654.918 7  87699654.89946  21417106.063                    21417107.961
        47.200          36.500
 18  3 15 14 10 13.0000000  0 17R01R02G25G12R12R10R11G14R20G17G22G01
                                R19G24G32R03G19
                  98329238.631 5  23650091.641                    23650095.934
                        33.800
                  85655075.377 6  20637933.781                    20637935.137
                        41.400
 128079727.920 6  99802519.44143  24372787.680                    24372795.074
        41.800          22.600
 112491681.595 8  87655742.94446  21406424.930                    21406427.656
        49.500          36.700
                                  22841556.688

                  84982417.235 6  20497482.336                    20497486.613
                        39.500
                  82503231.760 7  19850599.320                    19850601.746
                        42.300
 121420110.042 7  94612980.84644  23105457.922                    23105462.098
        43.300          29.700
                  87279829.412 6  20985127.055                    20985131.133
                        41.500
 116333342.246 8  90649395.86946  22137510.820                    22137514.266
        50.300          37.000
 123577810.213 7  96294374.46245  23516071.484                    23516072.480
        43.700          33.200
 123034223.966 7  95870915.58844  23412649.734                    23412656.293
        44.500          28.900
                  85995283.695 6  20669030.531                    20669030.223
                        41.200
 115033538.998 8  89636536.21046  21890155.023                    21890161.422
        48.900          38.100
 116507144.895 7  90784970.54145  22170572.094                    22170578.492
        46.900          35.900
                  91125653.436 7  21886723.195                    21886725.234
                        42.000
 112547691.868 7  87699683.70646  21417113.141                    21417115.016
        47.400          36.900
 18  3 15 14 10 14.0000000  0 17R01R02G25G12R12R10R11G14R20G17G22G01
                                R19G24G32R03G19
                  98333039.709 5  23651004.938                    23651009.711
                        34.000
                  85656227.006 6  20638210.789                    20638212.738
                        41.400
 128076180.617 7  99799755.29844  24372112.969                    24372120.094
        43.000          26.400
 112489780.440 8  87654261.53546  21406064.219                    21406066.332
        50.800          37.500
                                  22840823.836

                  84984977.345 6  20498099.313                    20498103.457
                        39.400
                  82502284.077 7  19850371.398                    19850373.605
                        42.200
 121418297.193 7  94611568.24544  23105112.797                    23105117.066
        42.800          29.500
                  87277931.741 7  20984671.156                    20984674.492
                        42.100
 116334812.749 8  90650541.70746  22137790.766                    22137794.230
        50.200          36.800
 123576946.689 7  96293701.58845  23515906.977                    23515908.336
        43.400          32.200
 123037106.584 7  95873161.79245  23413198.242                    23413204.773
        44.600          30.200
                  85997071.559 6  20669460.375                    20669460.379
                        40.900
 115036240.374 8  89638641.17546  21890670.125                    21890675.008
        49.300          38.400
 116507149.255 7  90784973.94246  22170573.125                    22170579.277
        47.200          36.200
                  91123569.642 6  21886222.781                    21886224.684
                        41.800
 112547729.580 7  87699713.09746  21417121.016                    21417122.223
        47.500          37.500
 18  3 15 14 10 15.0000000  0 17R01R02G25G12R12R10R11G14R20G17G22G01
                                R19G24G32R03G19
                  98336840.958 5  23651919.813                    23651924.441
                        35.100
                  85657379.380 6  20638488.961                    20638490.512
                        41.500
 128072633.527 7  99796991.30644  24371437.867                    24371445.172
        43.400          25.600
 112487879.816 8  87652780.52146  21405700.836                    21405704.695
        50.200          36.600
                                  22840089.766

                  84987537.931 6  20498718.828                    20498721.316
                        38.900
                  82501336.977 6  19850143.813                    19850145.832
                        41.900
 121416484.859 7  94610156.03944  23104768.203                    23104772.020
        42.300          29.600
                  87276034.674 6  20984216.039                    20984218.094
                        41.900
 116336283.860 8  90651688.02546  22138070.641                    22138074.156
        50.600          37.100
 123576083.799 7  96293029.20545  23515742.672                    23515744.359
        44.000          32.700
 123039989.729 7  95875408.39445  23413747.250                    23413753.715
        44.700          30.100
                  85998860.094 6  20669890.914                    20669890.250
                        41.400
 115038942.277 8  89640746.55646  21891183.453                    21891189.473
        49.300          38.300
 116507154.303 7  90784977.88846  22170574.578                    22170580.535
        47.500          36.600
                  91121486.396 6  21885722.539                    21885724.555
                        41.500
 112547768.059 7  87699743.08946  21417128.703                    21417129.883
        47.400          36.700
 18  3 15 14 10 16.0000000  0 17R01R02G25G12R12R10R11G14R20G17G22G01
                                R19G24G32R03G19
                  98340642.393 5  23652834.469                    23652838.707
                        35.000
                  85658532.499 6  20638767.000                    20638768.133
                        41.100
 128069086.608 7  99794227.47044  24370762.938                    24370770.086
        43.200          24.800
 112485979.804 8  87651299.99246  21405340.391                    21405342.539
        50.700          36.400
                                  22839355.352

                  84990099.030 6  20499334.453                    20499339.105
                        38.900
                  82500390.509 6  19849915.875                    19849917.473
                        41.800
 121414673.013 7  94608744.22144  23104423.523                    23104427.055
        43.200          29.700
                  87274138.187 6  20983758.992                    20983762.391
                        41.900
 116337755.607 8  90652834.84646  22138350.789                    22138354.348
        50.400          36.700
 123575221.448 7  96292357.24345  23515579.063                    23515580.090
        44.100          32.400
 123042873.479 7  95877655.46944  23414295.477                    23414302.547
        45.100          28.800
                  86000649.313 6  20670319.813                    20670320.371
                        41.100
 115041644.734 8  89642852.36446  21891697.844                    21891703.406
        49.300          38.400
 116507160.059 8  90784982.37746  22170575.672                    22170581.242
        48.100          36.300
                  91119403.637 6  21885222.148                    21885223.430
                        41.100
 112547807.342 7  87699773.70846  21417136.086                    21417136.965
        47.800          37.300
 18  3 15 14 10 17.0000000  0 17R01R02G25G12R12R10R11G14R20G17G22G01
                                R19G24G32R03G19
                  98344443.992 5  23653748.711                    23653752.656
                        35.400
                  85659686.341 6  20639044.492                    20639046.563
                        41.000
 128065539.929 7  99791463.82444  24370087.875                    24370094.934
        43.900          24.700
 112484080.395 8  87649819.92546  21404978.586                    21404981.633
        50.500          36.600
                                  22838622.414

                  84992660.638 6  20499952.805                    20499956.875
                        39.200
                  82499444.667 6  19849688.250                    19849689.945
                        41.900
 121412861.712 7  94607332.81845  23104079.820                    23104082.754
        44.000          30.600
                  87272242.282 7  20983303.961                    20983306.277
                        42.100
 116339227.940 8  90653982.11846  22138630.820                    22138634.480
        50.300          36.900
 123574359.721 7  96291685.77045  23515414.719                    23515416.094
        42.900          32.600
 123045757.750 7  95879902.93944  23414844.508                    23414851.395
        45.200          29.300
                  86002439.203 6  20670749.602                    20670750.938
                        41.200
 115044347.704 8  89644958.57346  21892212.453                    21892218.270
        49.600          38.100
 116507166.533 8  90784987.42446  22170577.047                    22170582.789
        48.000          36.200
                  91117321.442 6  21884721.578                    21884724.262
                        41.800
 112547847.399 7  87699804.92346  21417142.945                    21417144.410
        46.800          37.100
 18  3 15 14 10 18.0000000  0 17R01R02G25G12R12R10R11G14R20G17G22G01
                                R19G24G32R03G19
                  98348245.826 5  23654663.828                    23654667.313
                        35.000
                  85660840.950 6  20639320.422                    20639324.379
                        41.400
 128061993.432 7  99788700.32344  24369413.492                    24369420.289
        44.400          26.700
 112482181.596 8  87648340.34046  21404616.859                    21404619.867
        49.900          36.500
                                  22837888.188

                  84995222.743 6  20500572.406                    20500575.063
                        39.200
                  82498499.480 7  19849460.656                    19849462.617
                        42.300
 121411050.956 7  94605921.84744  23103734.570                    23103738.230
        43.900          29.900
                  87270347.025 7  20982848.102                    20982850.836
                        42.300
 116340700.938 8  90655129.90646  22138911.297                    22138914.555
        50.200          36.300
 123573498.614 7  96291014.77245  23515251.422                    23515252.180
        42.600          33.100
 123048642.600 7  95882150.86444  23415393.492                    23415400.543
        45.000          29.400
                  86004229.771 6  20671180.680                    20671181.063
                        41.500
 115047051.270 8  89647065.24246  21892726.531                    21892732.402
        49.200          37.600
 116507173.730 8  90784993.02146  22170578.859                    22170584.199
        48.800          36.900
                  91115239.776 6  21884221.828                    21884224.449
                        41.600
 112547888.262 7  87699836.77146  21417150.797                    21417152.371
        46.400          36.900
 18  3 15 14 10 19.0000000  0 17R01R02G25G12R12R10R11G14R20G17G22G01
                                R19G24G32R03G19
                  98352047.790 5  23655577.602                    23655581.621
                        34.300
                  85661996.244 6  20639599.961                    20639602.258
                        41.200
 128058447.112 7  99785936.95644  24368738.445                    24368745.371
        44.500          26.500
 112480283.335 8  87646861.17546  21404256.563                    21404258.895
        49.800          37.200
                                  22837154.086

                  84997785.363 6  20501187.477                    20501192.906
                        39.300
                  82497554.874 7  19849234.250                    19849235.730
                        42.300
 121409240.672 7  94604511.23445  23103390.203                    23103393.465
        44.300          30.800
                  87268452.282 6  20982391.922                    20982395.555
                        41.800
 116342174.524 8  90656278.15746  22139191.664                    22139195.168
        50.000          36.900
 123572638.053 7  96290344.20945  23515087.195                    23515088.125
        43.200          32.200
 123051527.984 7  95884399.20244  23415942.555                    23415949.844
        44.500          28.100
                  86006020.988 6  20671610.469                    20671611.070
                        41.100
 115049755.343 8  89649172.30946  21893241.992                    21893246.848
        49.400          37.600
 116507181.623 7  90784999.15546  22170580.500                    22170585.668
        47.900          36.900
                  91113158.606 6  21883721.813                    21883724.605
                        41.500
 112547929.870 7  87699869.20046  21417158.766                    21417160.543
        45.900          37.100
 18  3 15 14 10 20.0000000  0 17R01R02G25G12R12R10R11G14R20G17G22G01
                                R19G24G32R03G19
                  98355849.978 5  23656491.836                    23656495.551
                        35.100
                  85663152.247 6  20639878.625                    20639881.418
                        41.600
 128054901.062 7  99783173.79544  24368064.180                    24368070.621
        45.100          27.300
 112478385.697 8  87645382.49946  21403894.695                    21403897.844
        49.500          37.300
                                  22836420.391

                  85000348.490 6  20501807.898                    20501810.477
                        39.300
                  82496610.873 7  19849005.922                    19849008.348
                        42.400
 121407430.979 7  94603101.08845  23103045.734                    23103049.359
        44.200          30.000
                  87266558.195 7  20981937.305                    20981939.906
                        42.200
 116343648.727 8  90657426.89745  22139472.055                    22139475.742
        49.700          35.900
 123571778.112 7  96289674.11345  23514923.570                    23514923.855
        44.500          31.600
 123054413.951 7  95886648.01444  23416492.109                    23416498.609
        43.100          24.400
                  86007812.883 6  20672041.977                    20672041.871
                        41.700
 115052459.995 8  89651279.82946  21893756.078                    21893761.828
        49.500          37.900
 116507190.247 8  90785005.87245  22170581.836                    22170587.418
        48.000          35.900
                  91111077.961 6  21883222.742                    21883224.945
                        39.700
 112547972.274 7  87699902.25646  21417166.938                    21417168.422
        45.900          37.300
 18  3 15 14 10 21.0000000  0 17R01R02G25G12R12R10R11G14R20G17G22G01
                                R19G24G32R03G19
                  98359652.308 5  23657407.055                    23657410.344
                        33.400
                  85664308.935 6  20640157.461                    20640160.012
                        41.700
 128051355.191 7  99780410.78044  24367389.148                    24367395.992
        44.600          27.900
 112476488.627 8  87643904.27146  21403534.203                    21403536.848
        49.300          37.100
                                  22835685.406

                  85002912.094 6  20502426.547                    20502429.477
                        39.400
                  82495667.488 7  19848779.875                    19848781.184
                        42.400
 121405621.769 7  94601691.31245  23102701.563                    23102705.277
        44.900          31.500
                  87264664.652 7  20981482.469                    20981484.582
                        42.000
 116345123.553 8  90658576.11046  22139753.141                    22139755.758
        49.800          36.500
 123570918.784 7  96289004.49945  23514760.375                    23514761.297
        44.300          31.400
 123057300.457 6  95888897.25443  23417041.148                    23417048.090
        41.900          22.800
                  86009605.418 6  20672473.156                    20672473.051
                        41.900
 115055165.201 8  89653387.78346  21894270.617                    21894276.527
        49.400          37.800
 116507199.540 7  90785013.11745  22170583.047                    22170589.313
        47.300          35.500
                  91108997.876 6  21882723.016                    21882724.555
                        39.700
 112548015.433 7  87699935.89946  21417175.648                    21417176.664
        45.900          37.200
 18  3 15 14 10 22.0000000  0 17R01R02G25G12R12R10R11G14R20G17G22G01
                                R19G24G32R03G19
                  98363454.875 5  23658320.977                    23658325.297
                        33.000
                  85665466.360 7  20640437.211                    20640438.449
                        42.000
 128047809.483 7  99777647.88644  24366714.797                    24366721.352
        45.200          27.900
 112474592.176 8  87642426.51546  21403173.352                    21403176.344
        49.600          37.100
                                  22834950.820

                  85005476.233 6  20503043.320                    20503047.602
                        39.400
                  82494724.710 6  19848552.508                    19848554.531
                        41.900
 121403813.104 7  94600281.97745  23102357.180                    23102360.699
        43.800          30.900
                  87262771.645 6  20981026.000                    20981029.344
                        41.800
 116346599.000 8  90659725.82146  22140033.656                    22140036.699
        49.800          36.900
 123570060.043 7  96288335.34645  23514596.625                    23514597.746
        44.400          31.300
 123060187.529 7  95891146.94043  23417590.602                    23417597.352
        42.000          22.200
                  86011398.661 7  20672904.297                    20672904.125
                        42.000
 115057870.949 8  89655496.15846  21894786.211                    21894791.289
        49.800          38.100
 116507209.563 7  90785020.92245  22170584.813                    22170590.883
        47.200          34.700
                  91106918.344 6  21882223.977                    21882225.133
                        39.700
 112548059.395 7  87699970.16246  21417184.469                    21417185.133
        46.500          37.200
 18  3 15 14 10 23.0000000  0 17R01R02G25G12R12R10R11G14R20G17G22G01
                                R19G24G32R03G19
                  98367257.573 5  23659235.391                    23659239.141
                        33.400
                  85666624.523 6  20640717.359                    20640718.078
                        41.900
 128044264.007 7  99774885.18044  24366040.281                    24366046.805
        46.000          28.900
 112472696.305 8  87640949.21746  21402812.008                    21402815.152
        49.200          37.200
                                  22834216.383

                  85008040.880 6  20503664.063                    20503665.699
                        39.700
                  82493782.571 7  19848326.688                    19848327.984
                        42.000
 121402004.899 7  94598872.98945  23102012.461                    23102016.633
        42.600          30.200
                  87260879.264 6  20980571.828                    20980573.906
                        41.600
 116348075.058 8  90660875.99046  22140314.398                    22140317.633
        49.500          36.700
 123569201.906 7  96287666.65845  23514433.938                    23514434.500
        45.100          32.100
 123063075.116 7  95893397.03343  23418139.953                    23418147.074
        43.000          22.000
                  86013192.560 7  20673335.500                    20673335.004
                        42.100
 115060577.241 8  89657604.95946  21895300.156                    21895306.363
        49.300          37.900
 116507220.309 7  90785029.27745  22170586.336                    22170592.930
        47.100          35.200
                  91104839.289 6  21881724.156                    21881725.680
                        39.400
 112548104.139 7  87700005.02746  21417191.734                    21417193.816
        46.300          37.700
 18  3 15 14 10 24.0000000  0 17R01R02G25G12R12R10R11G14R20G17G22G01
                                R19G24G32R03G19
                  98371060.498 5  23660149.828                    23660153.570
                        33.400
                  85667783.491 6  20640994.906                    20640997.484
                        41.500
 128040718.743 7  99772122.63744  24365365.406                    24365371.996
        45.700          29.000
 112470801.074 8  87639472.41246  21402451.984                    21402454.313
        49.600          37.500
                                  22833484.008

                  85010606.025 6  20504282.281                    20504285.543
                        39.600
                  82492841.095 6  19848099.234                    19848101.703
                        41.800
 121400197.223 7  94597464.41444  23101668.000                    23101672.664
        42.400          29.800
                  87258987.516 7  20980117.555                    20980119.770
                        42.100
 116349551.759 8  90662026.65646  22140595.594                    22140598.680
        50.300          37.900
 123568344.443 7  96286998.49345  23514270.305                    23514271.078
        43.900          31.500
 123065963.332 6  95895647.60343  23418689.609                    23418696.688
        41.700          22.200
                  86014987.136 7  20673766.359                    20673766.523
                        42.200
 115063284.100 8  89659714.19346  21895815.703                    21895821.680
        49.000          38.000
 116507231.792 7  90785038.22145  22170588.641                    22170595.000
        46.400          35.200
                  91102760.810 6  21881225.398                    21881226.313
                        38.900
 112548149.673 7  87700040.51146  21417199.938                    21417202.102
        45.100          36.000
 18  3 15 14 10 25.0000000  0 17R01R02G25G12R12R10R11G14R20G17G22G01
                                R19G24G32R03G19
                  98374863.580 5  23661065.570                    23661068.648
                        32.900
                  85668943.188 6  20641274.219                    20641277.109
                        41.500
 128037173.676 7  99769360.24644  24364691.203                    24364697.527
        44.900          27.200
 112468906.390 8  87637996.04046  21402091.602                    21402094.023
        50.100          37.200
                                  22832751.203

                  85013171.663 6  20504899.422                    20504903.734
                        39.700
                  82491900.207 6  19847873.109                    19847874.797
                        41.900
 121398390.049 7  94596056.22644  23101324.766                    23101328.844
        42.300          29.400
                  87257096.238 7  20979661.164                    20979664.797
                        42.100
 116351029.043 8  90663177.78346  22140876.586                    22140879.605
        50.600          37.800
 123567487.580 7  96286330.80145  23514107.180                    23514108.352
        43.700          32.300
 123068852.073 7  95897898.56743  23419239.445                    23419246.129
        43.000          21.500
                  86016782.398 7  20674197.656                    20674198.227
                        42.400
 115065991.482 8  89661823.84646  21896331.367                    21896337.000
        49.500          38.700
 116507243.959 7  90785047.70845  22170590.727                    22170597.684
        46.400          35.200
                  91100682.841 6  21880725.242                    21880727.625
                        39.800
 112548195.938 7  87700076.56246  21417209.945                    21417211.180
        46.300          36.700
