     2.11           OBSERVATION DATA    M (MIXED)           RINEX VERSION / TYPE
teqc  2018Mar15                         20180319 14:17:32UTCPGM / RUN BY / DATE
Linux 2.6.32-573.12.1.x86_64|x86_64|gcc -static|Linux 64|=+ COMMENT
END OF STATIC MODE OBSERVATION                              COMMENT
BIT 2 OF LLI FLAGS DATA COLLECTED UNDER A/S CONDITION       COMMENT
-Unknown-                                                   MARKER NAME
4625                                                        MARKER NUMBER
-Unknown-           -Unknown-                               OBSERVER / AGENCY
5127468778          TRIMBLE             4.63                REC # / TYPE / VERS
47477114                            NONE                    ANT # / TYPE
  6378137.0000        0.0000        0.0000                  APPROX POSITION XYZ
        0.0000        0.0000        0.0000                  ANTENNA: DELTA H/E/N
     1     1                                                WAVELENGTH FACT L1/2
     7    L1    L2    C1    P1    P2    S1    S2            # / TYPES OF OBSERV
    18                                                      LEAP SECONDS
 SNR is mapped to RINEX snr flag value [0-9]                COMMENT
  L1 & L2: min(max(int(snr_dBHz/6), 0), 9)                  COMMENT
  2018     3    11    12    52   14.0000000     GPS         TIME OF FIRST OBS
                                                            END OF HEADER
 18  3 11 12 52 14.0000000  0 16R05G15R04R06R13R14R15R22R23G28G11G19
                                G10G24G01G17
                  84380720.586 5  20295210.602                    20295211.621
                        33.300
 122859906.317 6  95735005.81043  23379464.336                    23379467.129
        41.700          22.500
                  91758711.190 6  22031089.203                    22031089.930
                        36.200
                  92322380.574 5  22244367.969                    22244368.367
                        31.500
                  84121108.857 5  20254089.773                    20254090.254
                        31.200
                  81306884.342 6  19610956.297                    19610958.180
                        37.600
                  92150051.210 5  22171662.094                    22171666.125
                        31.000
                  84723715.634 6  20406354.672                    20406355.922
                        36.800
                  90550045.402 5  21763770.250                    21763775.098
                        32.100
 119063131.407 7  92776463.69144  22656957.680                    22656959.789
        46.300          29.200
 118244536.981 7  92138613.70544  22501189.375                    22501191.277
        46.200          29.400
 124539354.136 5  97043608.44242  23699039.813                    23699043.133
        35.700          16.900
 117589549.364 7  91628241.85245  22376547.633                    22376553.590
        46.100          31.500
 111273750.636 7  86706843.24345  21174689.984                    21174695.520
        47.900          31.400
 118892771.907 7  92643775.90445  22624552.188                    22624558.652
        45.900          31.200
 119461025.215 7  93086554.59944  22732684.133                    22732686.316
        47.300          26.200
 18  3 11 12 52 15.0000000  0 16R05G15R04R06R13R14R15R22R23G28G11G19
                                G10G24G01G17
                  84381392.376 5  20295372.570                    20295373.605
                        32.800
 122863654.412 6  95737926.40143  23380177.523                    23380180.449
        41.600          22.300
                  91762125.425 6  22031909.672                    22031909.496
                        36.300
                  92319762.015 5  22243737.430                    22243738.180
                        32.700
                  84123511.357 5  20254669.625                    20254669.230
                        30.400
                  81305974.757 6  19610737.500                    19610739.398
                        37.600
                  92147101.308 5  22170951.508                    22170956.129
                        31.400
                  84724582.524 6  20406562.984                    20406564.496
                        36.800
                  90547412.066 5  21763138.945                    21763142.156
                        32.900
 119066006.552 7  92778704.06444  22657504.578                    22657507.629
        46.300          28.700
 118245384.834 7  92139274.37244  22501350.680                    22501352.547
        46.100          29.000
 124535983.524 5  97040982.01842  23698397.852                    23698401.516
        35.900          16.300
 117591020.316 7  91629388.05945  22376827.211                    22376833.785
        46.200          31.100
 111272737.987 7  86706054.17145  21174497.313                    21174502.910
        47.500          31.600
 118891672.297 7  92642919.08645  22624342.945                    22624349.551
        45.700          31.400
 119459026.578 7  93084997.21444  22732303.859                    22732306.391
        47.500          25.600
 18  3 11 12 52 16.0000000  0 16R05G15R04R06R13R14R15R22R23G28G11G19
                                G10G24G01G17
                  84382064.910 5  20295533.523                    20295535.172
                        33.200
 122867402.858 6  95740847.26443  23380890.453                    23380893.750
        41.900          22.500
                  91765540.015 5  22032729.836                    22032729.313
                        35.700
                  92317143.820 5  22243106.328                    22243107.410
                        32.400
                  84125914.357 5  20255246.836                    20255247.770
                        30.100
                  81305065.786 6  19610517.656                    19610519.230
                        37.900
                  92144151.698 5  22170242.750                    22170246.586
                        31.500
                  84725450.145 6  20406772.539                    20406773.688
                        36.500
                  90544779.147 5  21762506.133                    21762509.605
                        33.200
 119068882.077 7  92780944.73344  22658052.141                    22658054.551
        46.000          28.000
 118246233.419 7  92139935.61444  22501512.281                    22501514.156
        46.300          28.100
 124532613.245 6  97038355.82442  23697757.492                    23697760.453
        36.100          16.300
 117592491.965 7  91630534.80145  22377107.273                    22377113.953
        46.000          31.700
 111271725.964 7  86705265.58445  21174305.219                    21174310.594
        47.300          31.900
 118890573.392 7  92642062.80545  22624133.289                    22624140.441
        45.200          30.800
 119457028.388 7  93083440.18144  22731922.563                    22731925.539
        46.500          25.400
 18  3 11 12 52 17.0000000  0 16R05G15R04R06R13R14R15R22R23G28G11G19
                                G10G24G01G17
                  84382738.154 5  20295695.719                    20295697.156
                        33.200
 122871151.607 7  95743768.34443  23381604.328                    23381607.090
        42.600          23.500
                  91768954.968 6  22033549.492                    22033549.438
                        36.100
                  92314526.021 5  22242476.414                    22242476.926
                        32.900
                  84128317.870 5  20255824.922                    20255825.781
                        30.400
                  81304157.438 6  19610298.898                    19610300.461
                        37.600
                  92141202.305 5  22169532.688                    22169536.930
                        31.000
                  84726318.488 6  20406981.789                    20406982.484
                        37.000
                  90542146.605 5  21761872.789                    21761876.684
                        33.700
 119071757.970 7  92783185.68844  22658599.297                    22658601.809
        46.300          28.700
 118247082.762 7  92140597.46144  22501673.547                    22501675.613
        46.000          28.700
 124529243.275 6  97035729.86943  23697115.852                    23697118.941
        37.100          18.300
 117593964.270 7  91631682.05545  22377387.445                    22377393.898
        46.000          31.800
 111270714.567 7  86704477.48245  21174112.281                    21174117.727
        46.800          31.100
 118889475.127 7  92641207.02745  22623925.719                    22623931.500
        45.500          30.600
 119455030.696 7  93081883.52944  22731543.016                    22731545.613
        46.600          26.700
 18  3 11 12 52 18.0000000  0 16R05G15R04R06R13R14R15R22R23G28G11G19
                                G10G24G01G17
                  84383412.142 5  20295857.453                    20295859.180
                        32.800
 122874900.669 7  95746689.68643  23382317.758                    23382320.629
        43.100          22.000
                  91772370.223 5  22034369.516                    22034369.621
                        35.600
                  92311908.603 5  22241845.750                    22241845.773
                        33.300
                  84130721.875 5  20256404.125                    20256404.703
                        30.800
                  81303249.727 6  19610079.430                    19610081.691
                        37.200
                  92138253.184 5  22168823.430                    22168827.566
                        30.800
                  84727187.592 6  20407191.063                    20407191.805
                        37.000
                  90539514.514 5  21761240.266                    21761244.578
                        33.300
 119074634.260 7  92785426.95244  22659146.555                    22659149.309
        46.000          28.800
 118247932.847 7  92141259.87644  22501834.758                    22501837.559
        45.800          27.300
 124525873.618 6  97033104.14943  23696474.406                    23696477.832
        36.500          18.300
 117595437.229 7  91632829.82645  22377667.719                    22377674.438
        45.500          31.500
 111269703.797 7  86703689.87245  21173920.344                    21173925.637
        45.800          31.400
 118888377.553 7  92640351.77645  22623715.461                    22623722.402
        45.700          31.000
 119453033.489 7  93080327.26044  22731163.961                    22731165.645
        46.700          26.200
 18  3 11 12 52 19.0000000  0 16R05G15R04R06R13R14R15R22R23G28G11G19
                                G10G24G01G17
                  84384086.830 5  20296020.273                    20296021.445
                        32.800
 122878650.045 7  95749611.26643  23383031.508                    23383034.109
        43.700          22.200
                  91775785.820 5  22035189.172                    22035189.488
                        35.600
                  92309291.559 5  22241215.281                    22241216.176
                        33.800
                  84133126.380 5  20256982.313                    20256983.777
                        30.900
                  81302342.577 6  19609861.109                    19609862.887
                        37.300
                  92135304.287 5  22168113.836                    22168117.762
                        31.000
                  84728057.388 6  20407401.078                    20407401.734
                        37.200
                  90536882.847 5  21760607.375                    21760611.945
                        33.300
 119077510.897 7  92787668.48744  22659694.180                    22659696.434
        46.300          28.300
 118248783.691 7  92141922.88544  22501995.453                    22501999.234
        45.200          27.500
 124522504.240 6  97030478.68643  23695833.289                    23695836.336
        36.600          18.600
 117596910.843 7  91633978.09945  22377948.359                    22377954.621
        45.600          31.600
 111268693.622 7  86702902.71645  21173727.555                    21173732.762
        46.000          30.400
 118887280.640 7  92639497.03945  22623507.570                    22623513.785
        46.000          31.500
 119451036.773 7  93078771.36944  22730783.648                    22730785.535
        46.600          26.500
 18  3 11 12 52 20.0000000  0 16R05G15R04R06R13R14R15R22R23G28G11G19
                                G10G24G01G17
                  84384762.271 5  20296182.313                    20296183.906
                        33.100
 122882399.806 7  95752533.17843  23383744.930                    23383747.766
        43.700          21.800
                  91779201.834 5  22036009.680                    22036009.805
                        35.700
                  92306674.969 5  22240584.375                    22240585.621
                        33.600
                  84135531.413 5  20257563.180                    20257563.457
                        30.600
                  81301436.067 6  19609643.039                    19609644.242
                        37.500
                  92132355.675 5  22167405.000                    22167409.172
                        31.600
                  84728927.989 6  20407609.984                    20407611.563
                        37.000
                  90534251.658 5  21759974.727                    21759980.031
                        33.100
 119080387.994 7  92789910.37844  22660241.234                    22660243.996
        46.500          28.900
 118249635.344 7  92142586.50944  22502157.672                    22502161.453
        44.900          28.300
 124519135.257 6  97027853.51842  23695191.516                    23695195.500
        36.800          17.400
 117598385.226 7  91635126.97345  22378228.922                    22378234.883
        45.200          31.500
 111267684.155 7  86702116.11845  21173535.922                    21173541.109
        46.300          30.800
 118886184.496 7  92638642.90045  22623298.555                    22623305.250
        45.800          31.400
 119449040.575 7  93077215.87244  22730402.656                    22730406.016
        45.500          26.100
 18  3 11 12 52 21.0000000  0 16R05G15R04R06R13R14R15R22R23G28G11G19
                                G10G24G01G17
                  84385438.457 5  20296345.961                    20296346.199
                        33.000
 122886149.867 7  95755455.31343  23384458.336                    23384461.563
        43.600          22.500
                  91782618.199 6  22036829.750                    22036830.281
                        36.000
                  92304058.770 5  22239954.961                    22239955.520
                        33.800
                  84137936.967 5  20258142.102                    20258141.820
                        31.400
                  81300530.167 6  19609423.711                    19609425.746
                        37.500
                  92129407.309 5  22166695.180                    22166698.664
                        31.700
                  84729799.343 6  20407819.523                    20407821.113
                        37.200
                  90531620.887 5  21759342.133                    21759348.020
                        33.300
 119083265.471 7  92792152.56044  22660789.242                    22660792.109
        46.700          28.400
 118250487.759 7  92143250.71844  22502320.031                    22502323.363
        44.100          28.700
 124515766.613 6  97025228.60542  23694552.063                    23694554.238
        37.000          17.400
 117599860.228 7  91636276.32745  22378510.016                    22378515.539
        45.100          31.700
 111266675.314 7  86701330.01445  21173343.867                    21173349.066
        46.800          30.700
 118885089.019 7  92637789.28445  22623089.836                    22623096.441
        46.200          30.300
 119447044.844 7  93075660.74644  22730023.328                    22730026.211
        46.000          26.900
 18  3 11 12 52 22.0000000  0 16R05G15R04R06R13R14R15R22R23G28G11G19
                                G10G24G01G17
                  84386115.425 5  20296507.828                    20296509.238
                        33.800
 122889900.291 7  95758377.73843  23385171.758                    23385174.789
        43.400          21.800
                  91786034.916 6  22037649.469                    22037650.316
                        36.200
                  92301443.005 5  22239324.016                    22239325.113
                        33.100
                  84140343.059 5  20258721.969                    20258721.387
                        30.800
                  81299624.925 6  19609205.648                    19609207.055
                        37.200
                  92126459.243 5  22165985.891                    22165989.766
                        31.500
                  84730671.435 6  20408030.484                    20408031.188
                        36.800
                  90528990.606 5  21758710.336                    21758715.156
                        32.500
 119086143.378 7  92794395.09144  22661336.617                    22661339.027
        46.700          28.100
 118251340.973 7  92143915.54444  22502483.211                    22502485.309
        45.000          28.700
 124512398.278 6  97022603.93942  23693910.844                    23693913.684
        36.600          16.900
 117601335.979 7  91637426.26545  22378790.305                    22378796.332
        45.500          31.100
 111265667.150 7  86700544.43745  21173152.078                    21173157.441
        47.100          30.700
 118883994.275 7  92636936.23345  22622882.508                    22622888.180
        46.700          31.000
 119445049.663 7  93074106.07344  22729644.156                    22729646.246
        47.500          28.700
 18  3 11 12 52 23.0000000  0 16R05G15R04R06R13R14R15R22R23G28G11G19
                                G10G24G01G17
                  84386793.123 5  20296671.133                    20296673.125
                        33.100
 122893651.067 7  95761300.42843  23385885.273                    23385888.973
        42.900          22.300
                  91789452.018 6  22038469.375                    22038471.551
                        36.200
                  92298827.631 5  22238693.156                    22238694.863
                        32.700
                  84142749.664 5  20259301.148                    20259301.523
                        30.900
                  81298720.329 6  19608987.313                    19608989.254
                        37.400
                  92123511.434 5  22165276.844                    22165280.070
                        30.800
                  84731544.285 6  20408240.133                    20408241.590
                        36.900
                  90526360.735 5  21758078.852                    21758083.309
                        32.900
 119089021.669 7  92796637.91544  22661884.711                    22661887.039
        46.400          28.500
 118252194.930 7  92144580.94944  22502646.617                    22502648.352
        46.200          28.100
 124509030.301 6  97019979.53443  23693270.086                    23693272.492
        37.000          18.300
 117602812.395 7  91638576.71845  22379072.398                    22379077.543
        45.800          31.600
 111264659.620 7  86699759.34445  21172960.406                    21172965.832
        46.800          30.900
 118882900.221 7  92636083.71945  22622673.813                    22622680.234
        47.000          30.200
 119443054.994 7  93072551.78144  22729264.656                    22729266.734
        47.300          27.400
 18  3 11 12 52 24.0000000  0 16R05G15R04R06R13R14R15R22R23G28G11G19
                                G10G24G01G17
                  84387471.574 5  20296834.250                    20296836.180
                        33.200
 122897402.214 7  95764223.40543  23386598.813                    23386602.262
        42.800          22.900
                  91792869.478 6  22039290.672                    22039290.941
                        36.300
                  92296212.722 5  22238063.125                    22238064.926
                        32.700
                  84145156.828 5  20259879.734                    20259880.090
                        30.800
                  81297816.396 6  19608769.781                    19608770.738
                        37.700
                  92120563.904 5  22164567.625                    22164571.484
                        30.700
                  84732417.933 6  20408450.203                    20408451.703
                        37.300
                  90523731.304 5  21757446.609                    21757450.719
                        32.600
 119091900.418 7  92798881.10044  22662432.047                    22662434.703
        46.300          28.200
 118253049.682 7  92145246.98744  22502809.789                    22502811.172
        46.700          29.200
 124505662.696 6  97017355.42742  23692629.016                    23692631.938
        36.900          17.800
 117604289.513 7  91639727.71745  22379353.492                    22379358.648
        45.800          30.300
 111263652.791 7  86698974.80445  21172768.484                    21172773.727
        46.900          31.500
 118881806.913 7  92635231.78845  22622466.094                    22622472.770
        47.000          31.200
 119441060.813 7  93070997.87244  22728883.719                    22728887.699
        45.700          26.600
 18  3 11 12 52 25.0000000  0 16R05G15R04R06R13R14R15R22R23G28G11G19
                                G10G24G01G17
                  84388150.808 5  20296997.406                    20296999.148
                        33.800
 122901153.710 7  95767146.63643  23387313.055                    23387316.563
        42.000          22.900
                  91796287.253 6  22040111.539                    22040112.199
                        36.400
                  92293598.177 5  22237432.984                    22237434.563
                        32.200
                  84147564.500 5  20260459.453                    20260459.953
                        31.300
                  81296913.031 6  19608551.867                    19608552.555
                        37.900
                  92117616.616 5  22163857.477                    22163861.773
                        31.500
                  84733292.305 6  20408661.297                    20408662.699
                        37.200
                  90521102.313 5  21756814.828                    21756818.512
                        32.600
 119094779.512 7  92801124.54344  22662979.969                    22662982.816
        46.000          27.800
 118253905.166 7  92145913.61544  22502972.000                    22502973.738
        46.100          27.900
 124502295.364 6  97014731.52443  23691988.539                    23691990.984
        37.600          19.600
 117605767.337 7  91640879.26845  22379634.680                    22379639.441
        46.400          30.900
 111262646.594 7  86698190.76145  21172577.164                    21172582.738
        47.300          30.900
 118880714.249 7  92634380.36945  22622257.906                    22622264.555
        46.800          31.600
 119439067.122 7  93069444.35344  22728505.273                    22728508.051
        45.100          26.200
 18  3 11 12 52 26.0000000  0 16R05G15R04R06R13R14R15R22R23G28G11G19
                                G10G24G01G17
                  84388830.755 5  20297161.063                    20297162.777
                        33.000
 122904905.522 7  95770070.10443  23388027.391                    23388030.609
        42.900          22.500
                  91799705.435 6  22040932.219                    22040933.039
                        36.300
                  92290984.055 5  22236802.906                    22236805.168
                        32.200
                  84149972.677 5  20261039.594                    20261040.227
                        30.800
                  81296010.271 6  19608334.313                    19608335.836
                        37.400
                  92114669.597 5  22163150.305                    22163152.961
                        31.800
                  84734167.421 6  20408872.461                    20408873.816
                        37.200
                  90518473.741 5  21756183.844                    21756186.422
                        32.600
 119097658.996 7  92803368.29944  22663528.266                    22663530.531
        46.600          28.700
 118254761.420 7  92146580.84144  22503134.195                    22503136.715
        45.100          27.200
 124498928.385 6  97012107.89143  23691347.602                    23691349.895
        37.000          19.300
 117607245.806 7  91642031.31945  22379916.148                    22379921.121
        46.400          31.800
 111261641.017 7  86697407.18845  21172385.898                    21172391.445
        47.300          31.700
 118879622.286 7  92633529.49245  22622050.219                    22622056.324
        46.500          31.500
 119437073.958 7  93067891.23744  22728127.430                    22728129.000
        46.800          27.800
 18  3 11 12 52 27.0000000  0 16R05G15R04R06R13R14R15R22R23G28G11G19
                                G10G24G01G17
                  84389511.486 5  20297325.641                    20297326.531
                        33.600
 122908657.679 7  95772993.84543  23388741.797                    23388744.426
        44.000          22.200
                  91803124.007 6  22041752.914                    22041753.918
                        36.200
                  92288370.361 5  22236173.805                    22236174.820
                        32.400
                  84152381.441 5  20261619.484                    20261620.219
                        30.900
                  81295108.191 6  19608116.547                    19608117.879
                        37.600
                  92111722.868 5  22162439.250                    22162444.414
                        31.400
                  84735043.349 6  20409082.273                    20409084.453
                        36.800
                  90515845.636 5  21755550.609                    21755555.078
                        33.400
 119100538.959 7  92805612.42244  22664076.234                    22664079.078
        46.000          29.200
 118255618.519 7  92147248.72044  22503296.750                    22503300.250
        44.600          28.700
 124495561.802 6  97009484.58843  23690706.930                    23690709.457
        37.300          19.000
 117608725.006 7  91643183.94845  22380197.672                    22380202.289
        46.900          31.000
 111260636.169 7  86696624.18945  21172194.664                    21172199.797
        47.100          30.700
 118878531.082 7  92632679.20545  22621842.055                    22621848.859
        46.300          31.800
 119435081.355 7  93066338.54844  22727747.203                    22727749.637
        46.100          25.900
 18  3 11 12 52 28.0000000  0 16R05G15R04R06R13R14R15R22R23G28G11G19
                                G10G24G01G17
                  84390192.963 5  20297488.711                    20297490.391
                        33.400
 122912410.211 7  95775917.88043  23389456.094                    23389458.391
        44.300          23.300
                  91806542.948 6  22042573.313                    22042573.633
                        36.400
                  92285757.085 5  22235543.320                    22235545.508
                        31.600
                  84154790.687 5  20262199.422                    20262199.824
                        30.800
                  81294206.733 6  19607898.125                    19607900.043
                        37.600
                  92108776.409 5  22161731.508                    22161734.957
                        31.700
                  84735920.022 6  20409294.547                    20409295.801
                        36.600
                  90513218.008 5  21754918.609                    21754923.707
                        33.100
 119103419.319 7  92807856.86044  22664624.125                    22664626.934
        45.800          28.700
 118256476.401 7  92147917.19444  22503459.805                    22503463.160
        44.300          28.800
 124492195.508 6  97006861.50243  23690066.281                    23690069.363
        37.600          19.300
 117610204.935 7  91644337.14245  22380479.297                    22380484.262
        47.100          31.400
 111259631.977 7  86695841.69745  21172003.375                    21172008.855
        47.200          30.900
 118877440.601 7  92631829.49045  22621633.758                    22621641.367
        46.100          30.800
 119433089.242 7  93064786.24544  22727366.789                    22727370.715
        45.000          26.500
 18  3 11 12 52 29.0000000  0 16R05G15R04R06R13R14R15R22R23G28G11G19
                                G10G24G01G17
                  84390875.198 5  20297653.289                    20297655.016
                        33.600
 122916163.085 7  95778842.20543  23390169.906                    23390172.816
        44.500          22.200
                  91809962.235 6  22043395.477                    22043395.703
                        36.200
                  92283144.215 5  22234913.961                    22234915.098
                        32.700
                  84157200.494 5  20262779.539                    20262780.164
                        31.100
                  81293305.924 6  19607681.523                    19607683.176
                        37.500
                  92105830.256 5  22161022.922                    22161026.266
                        31.000
                  84736797.440 6  20409505.555                    20409506.609
                        37.200
                  90510590.844 5  21754287.375                    21754292.262
                        33.700
 119106300.094 7  92810101.62544  22665172.641                    22665174.891
        45.800          27.500
 118257335.045 7  92148586.26844  22503623.609                    22503626.563
        44.400          29.300
 124488829.613 6  97004238.73243  23689426.227                    23689429.016
        36.900          19.300
 117611685.527 7  91645490.85545  22380760.516                    22380766.250
        46.700          31.200
 111258628.440 7  86695059.72845  21171812.570                    21171817.957
        46.500          31.600
 118876350.843 7  92630980.32645  22621426.484                    22621433.910
        45.600          31.000
 119431097.633 7  93063234.34744  22726988.398                    22726991.594
        45.300          27.200
 18  3 11 12 52 30.0000000  0 16R05G15R04R06R13R14R15R22R23G28G11G19
                                G10G24G01G17
                  84391558.172 5  20297817.336                    20297818.777
                        33.800
 122919916.273 7  95781766.77743  23390884.031                    23390886.895
        44.900          23.600
                  91813381.864 6  22044215.672                    22044216.461
                        36.800
                  92280531.704 5  22234285.289                    22234285.695
                        32.700
                  84159610.803 5  20263360.555                    20263360.383
                        30.600
                  81292405.717 6  19607464.234                    19607465.723
                        37.500
                  92102884.334 5  22160313.570                    22160317.297
                        31.300
                  84737675.626 6  20409716.672                    20409718.461
                        37.200
                  90507964.095 5  21753656.484                    21753661.500
                        33.800
 119109181.242 7  92812346.67544  22665720.750                    22665723.230
        46.200          29.100
 118258194.436 7  92149255.92244  22503787.883                    22503790.223
        44.700          28.100
 124485463.990 6  97001616.19743  23688784.547                    23688788.297
        36.700          18.600
 117613166.813 7  91646645.11345  22381042.375                    22381047.746
        47.000          31.900
 111257625.507 7  86694278.22645  21171621.867                    21171627.211
        46.500          31.000
 118875261.747 7  92630131.67945  22621218.203                    22621226.836
        45.000          30.200
 119429106.558 7  93061682.87144  22726610.641                    22726613.160
        47.000          27.500
 18  3 11 12 52 31.0000000  0 16R05G15R04R06R13R14R15R22R23G28G11G19
                                G10G24G01G17
                  84392241.860 5  20297981.773                    20297983.285
                        34.500
 122923669.784 7  95784691.61343  23391597.758                    23391601.113
        44.500          21.500
                  91816801.834 6  22045037.500                    22045037.387
                        36.500
                  92277919.586 5  22233656.805                    22233656.902
                        32.300
                  84162021.596 5  20263940.688                    20263940.535
                        30.600
                  81291506.145 6  19607246.758                    19607249.242
                        37.500
                  92099938.646 5  22159605.109                    22159608.102
                        31.700
                  84738554.534 6  20409928.617                    20409929.777
                        37.000
                  90505337.734 5  21753024.945                    21753029.816
                        33.700
 119112062.760 7  92814592.01844  22666269.031                    22666271.566
        46.400          28.800
 118259054.574 7  92149926.16344  22503951.219                    22503953.797
        44.200          28.200
 124482098.691 6  96998993.88643  23688144.656                    23688147.469
        37.200          18.300
 117614648.745 7  91647799.86845  22381324.016                    22381329.898
        47.100          31.200
 111256623.216 7  86693497.21745  21171431.000                    21171436.656
        46.700          30.900
 118874173.333 7  92629283.56845  22621012.195                    22621019.680
        45.000          31.500
 119427115.957 7  93060131.76644  22726231.523                    22726234.238
        46.900          26.500
 18  3 11 12 52 32.0000000  0 16R05G15R04R06R13R14R15R22R23G28G11G19
                                G10G24G01G17
                  84392926.309 5  20298145.844                    20298147.977
                        33.800
 122927423.639 7  95787616.72143  23392311.273                    23392315.504
        43.400          22.500
                  91820222.155 6  22045858.438                    22045859.164
                        36.000
                  92275307.839 5  22233027.805                    22233027.137
                        33.400
                  84164432.938 5  20264521.266                    20264521.984
                        31.700
                  81290607.203 6  19607031.188                    19607032.090
                        37.700
                  92096993.257 5  22158896.148                    22158900.043
                        30.600
                  84739434.188 6  20410140.734                    20410141.793
                        37.100
                  90502711.826 5  21752395.023                    21752399.164
                        32.900
 119114944.677 7  92816837.66344  22666817.523                    22666819.680
        46.100          29.200
 118259915.487 7  92150597.01544  22504115.031                    22504117.859
        44.300          26.800
 124478733.717 6  96996371.83542  23687504.234                    23687507.391
        36.900          17.800
 117616131.367 7  91648955.16645  22381606.195                    22381611.801
        46.900          31.200
 111255621.563 7  86692716.70745  21171240.297                    21171245.695
        46.600          31.000
 118873085.613 7  92628435.98845  22620804.734                    22620812.602
        44.700          31.100
 119425125.820 7  93058580.99344  22725851.719                    22725855.137
        46.300          27.600
 18  3 11 12 52 33.0000000  0 16R05G15R04R06R13R14R15R22R23G28G11G19
                                G10G24G01G17
                  84393611.509 5  20298311.094                    20298312.945
                        33.500
 122931177.829 7  95790542.07143  23393025.359                    23393029.902
        42.000          22.600
                  91823642.856 6  22046679.805                    22046680.789
                        36.200
                  92272696.511 5  22232397.664                    22232397.918
                        32.900
                  84166844.813 5  20265102.539                    20265102.527
                        30.200
                  81289708.875 6  19606813.781                    19606815.773
                        37.900
                  92094048.104 5  22158187.734                    22158190.801
                        31.100
                  84740314.594 6  20410353.094                    20410354.141
                        37.400
                  90500086.355 5  21751765.289                    21751768.164
                        33.300
 119117827.005 7  92819083.62444  22667365.813                    22667368.379
        46.300          28.700
 118260777.163 7  92151268.44744  22504278.586                    22504281.672
        43.800          27.700
 124475369.107 6  96993750.05642  23686864.133                    23686866.859
        37.000          17.400
 117617614.683 7  91650111.00745  22381888.539                    22381894.336
        47.000          31.300
 111254620.575 7  86691936.71845  21171049.656                    21171055.508
        46.400          30.900
 118871998.604 7  92627588.96645  22620598.172                    22620605.523
        44.400          31.000
 119423136.174 7  93057030.63344  22725473.352                    22725476.770
        46.200          26.500
 18  3 11 12 52 34.0000000  0 16R05G15R04R06R13R14R15R22R23G28G11G19
                                G10G24G01G17
                  84394297.455 5  20298476.078                    20298477.707
                        33.800
 122934932.425 6  95793467.71643  23393740.156                    23393743.820
        41.700          22.800
                  91827063.886 6  22047501.320                    22047501.348
                        36.300
                  92270085.595 5  22231769.586                    22231768.516
                        33.100
                  84169257.214 5  20265682.867                    20265683.352
                        31.400
                  81288811.172 6  19606598.234                    19606599.184
                        37.600
                  92091103.252 5  22157478.859                    22157482.422
                        30.300
                  84741195.760 6  20410564.711                    20410566.691
                        37.300
                  90497461.303 5  21751131.883                    21751137.176
                        33.200
 119120709.722 7  92821329.88844  22667914.578                    22667916.824
        46.300          29.500
 118261639.629 7  92151940.49144  22504442.703                    22504445.824
        44.000          27.300
 124472004.812 6  96991128.52242  23686224.211                    23686226.625
        36.300          17.800
 117619098.676 7  91651267.36345  22382170.344                    22382176.535
        46.400          31.300
 111253620.213 7  86691157.21445  21170859.188                    21170864.434
        46.400          30.500
 118870912.298 7  92626742.49445  22620391.875                    22620398.633
        44.700          30.500
 119421147.056 7  93055480.68844  22725095.648                    22725098.016
        47.200          27.200
 18  3 11 12 52 35.0000000  0 16R05G15R04R06R13R14R15R22R23G28G11G19
                                G10G24G01G17
                  84394984.169 5  20298642.648                    20298643.520
                        33.700
 122938687.345 7  95796393.59143  23394455.984                    23394458.672
        42.200          22.800
                  91830485.293 6  22048322.656                    22048322.965
                        36.800
                  92267475.131 5  22231139.961                    22231140.156
                        33.400
                  84171670.152 5  20266264.203                    20266264.020
                        30.100
                  81287914.103 6  19606381.500                    19606381.586
                        37.900
                  92088158.691 5  22156769.648                    22156774.012
                        30.900
                  84742077.708 6  20410777.414                    20410778.711
                        37.300
                  90494836.729 5  21750500.938                    21750505.793
                        33.200
 119123592.884 7  92823576.51344  22668462.586                    22668465.617
        46.300          29.700
 118262502.894 7  92152613.15044  22504607.891                    22504610.574
        44.700          27.700
 124468640.902 6  96988507.27042  23685584.063                    23685586.637
        36.600          16.900
 117620583.422 7  91652424.30645  22382453.078                    22382458.773
        46.000          30.600
 111252620.580 7  86690378.28245  21170669.391                    21170674.648
        46.600          31.000
 118869826.727 7  92625896.58845  22620185.328                    22620192.301
        43.900          31.100
 119419158.499 7  93053931.16844  22724717.320                    22724719.824
        47.300          27.500
 18  3 11 12 52 36.0000000  0 16R05G15R04R06R13R14R15R22R23G28G11G19
                                G10G24G01G17
                  84395671.598 5  20298806.914                    20298808.152
                        33.800
 122942442.569 7  95799319.71544  23395171.211                    23395173.293
        42.900          24.100
                  91833907.035 6  22049143.727                    22049144.434
                        36.500
                  92264865.014 5  22230510.875                    22230511.988
                        33.700
                  84174083.611 5  20266845.570                    20266845.438
                        31.200
                  81287017.643 6  19606165.211                    19606165.816
                        37.500
                  92085214.362 5  22156061.688                    22156065.785
                        30.200
                  84742960.379 6  20410990.406                    20410991.324
                        37.500
                  90492212.573 5  21749871.180                    21749874.840
                        33.000
 119126476.381 7  92825823.39544  22669012.016                    22669014.551
        46.100          29.200
 118263366.877 7  92153286.37744  22504772.508                    22504774.477
        45.800          27.700
 124465277.239 6  96985886.24342  23684943.797                    23684946.801
        36.300          16.900
 117622068.803 7  91653581.73745  22382735.570                    22382741.555
        45.900          30.900
 111251621.500 7  86689599.77745  21170479.297                    21170484.598
        46.300          30.800
 118868741.804 7  92625051.18045  22619979.680                    22619985.621
        44.000          31.300
 119417170.374 7  93052381.97244  22724338.273                    22724341.387
        46.700          26.400
 18  3 11 12 52 37.0000000  0 16R05G15R04R06R13R14R15R22R23G28G11G19
                                G10G24G01G17
                  84396359.809 5  20298972.625                    20298973.840
                        33.700
 122946198.115 7  95802246.10243  23395886.055                    23395887.766
        44.000          22.900
                  91837329.203 6  22049965.656                    22049966.379
                        37.000
                  92262255.369 5  22229880.656                    22229882.832
                        33.400
                  84176497.602 5  20267426.031                    20267426.211
                        30.900
                  81286121.838 6  19605949.164                    19605949.887
                        37.800
                  92082270.338 5  22155353.813                    22155357.461
                        31.300
                  84743843.840 6  20411202.758                    20411204.152
                        37.500
                  90489588.880 5  21749239.617                    21749244.137
                        33.300
 119129360.330 7  92828070.63344  22669560.531                    22669563.203
        46.300          29.800
 118264231.652 7  92153960.23144  22504937.398                    22504938.895
        46.600          28.100
 124461913.922 5  96983265.49642  23684302.688                    23684306.270
        35.700          17.800
 117623554.938 7  91654739.76445  22383018.523                    22383024.488
        45.800          31.800
 111250623.148 7  86688821.83745  21170289.086                    21170294.340
        46.000          31.200
 118867657.613 7  92624206.35045  22619773.328                    22619779.715
        44.000          31.200
 119415182.775 7  93050833.20644  22723959.938                    22723962.734
        46.300          26.300
 18  3 11 12 52 38.0000000  0 16R05G15R04R06R13R14R15R22R23G28G11G19
                                G10G24G01G17
                  84397048.765 5  20299137.789                    20299140.176
                        33.700
 122949954.025 7  95805172.80043  23396600.695                    23396603.145
        44.700          22.500
                  91840751.739 6  22050786.750                    22050788.098
                        36.300
                  92259646.148 5  22229252.461                    22229253.871
                        33.400
                  84178912.097 5  20268006.703                    20268007.578
                        30.600
                  81285226.653 6  19605732.820                    19605734.430
                        37.300
                  92079326.574 5  22154644.602                    22154649.074
                        31.200
                  84744728.023 6  20411415.844                    20411416.488
                        37.300
                  90486965.604 5  21748608.773                    21748613.941
                        33.600
 119132244.661 7  92830318.16644  22670109.453                    22670111.813
        46.400          29.300
 118265097.172 7  92154634.67744  22505101.641                    22505103.914
        46.600          27.600
 124458550.996 5  96980645.03942  23683663.180                    23683666.090
        35.900          17.800
 117625041.714 7  91655898.28245  22383301.719                    22383307.855
        46.100          31.900
 111249625.424 7  86688044.38945  21170099.180                    21170105.051
        46.000          31.500
 118866574.108 7  92623362.06145  22619566.867                    22619573.184
        43.700          31.200
 119413195.687 7  93049284.83044  22723582.492                    22723585.023
        47.400          25.800
 18  3 11 12 52 39.0000000  0 16R05G15R04R06R13R14R15R22R23G28G11G19
                                G10G24G01G17
                  84397738.451 5  20299303.898                    20299305.352
                        34.000
 122953710.257 7  95808099.75543  23397314.805                    23397317.836
        44.400          22.300
                  91844174.594 6  22051609.594                    22051609.590
                        36.100
                  92257037.309 5  22228624.750                    22228626.168
                        33.100
                  84181327.091 5  20268588.492                    20268589.172
                        30.800
                  81284332.093 6  19605517.555                    19605518.574
                        37.300
                  92076383.073 5  22153936.320                    22153940.641
                        31.000
                  84745612.952 6  20411629.281                    20411630.145
                        37.300
                  90484342.797 5  21747979.586                    21747983.402
                        32.900
 119135129.365 7  92832565.98745  22670658.680                    22670661.227
        46.600          30.100
 118265963.460 7  92155309.72344  22505265.469                    22505268.594
        45.800          28.300
 124455188.357 5  96978024.80342  23683024.180                    23683026.797
        35.800          17.800
 117626529.151 7  91657057.32145  22383584.836                    22383590.645
        45.900          31.300
 111248628.339 7  86687267.44045  21169909.695                    21169915.273
        45.600          31.800
 118865491.279 7  92622518.30145  22619361.766                    22619367.105
        44.300          30.600
 119411209.097 7  93047736.83644  22723204.500                    22723206.773
        47.400          26.100
 18  3 11 12 52 40.0000000  0 16R05G15R04R06R13R14R15R22R23G28G11G19
                                G10G24G01G17
                  84398428.927 5  20299469.344                    20299472.188
                        33.800
 122957466.815 7  95811026.95643  23398029.086                    23398032.703
        43.900          22.600
                  91847597.813 6  22052431.195                    22052431.637
                        36.300
                  92254428.881 5  22227995.758                    22227997.383
                        33.000
                  84183742.615 5  20269170.906                    20269170.520
                        31.400
                  81283438.138 6  19605301.953                    19605303.031
                        37.500
                  92073439.861 5  22153229.555                    22153232.707
                        31.800
                  84746498.633 6  20411842.344                    20411843.672
                        37.300
                  90481720.398 5  21747349.680                    21747353.473
                        33.300
 119138014.467 7  92834814.10944  22671207.086                    22671210.250
        46.900          29.600
 118266830.532 7  92155985.37744  22505429.977                    22505433.547
        45.100          27.900
 124451826.088 6  96975404.82743  23682383.539                    23682387.008
        36.300          18.300
 117628017.308 7  91658216.91645  22383868.156                    22383874.070
        45.800          31.700
 111247631.927 7  86686491.01345  21169719.742                    21169725.488
        45.800          31.700
 118864409.193 7  92621675.12545  22619155.148                    22619161.488
        44.400          30.800
 119409223.006 7  93046189.22044  22722825.938                    22722829.082
        47.500          26.300
 18  3 11 12 52 41.0000000  0 16R05G15R04R06R13R14R15R22R23G28G11G19
                                G10G24G01G17
                  84399120.126 5  20299635.977                    20299637.605
                        33.900
 122961223.728 7  95813954.42643  23398743.281                    23398747.570
        42.700          22.000
                  91851021.360 6  22053252.289                    22053253.402
                        36.100
                  92251820.837 5  22227368.008                    22227368.465
                        33.600
                  84186158.660 5  20269752.781                    20269752.652
                        30.800
                  81282544.816 6  19605086.039                    19605087.496
                        37.500
                  92070496.857 5  22152520.031                    22152524.719
                        31.500
                  84747385.066 6  20412055.438                    20412056.766
                        37.000
                  90479098.411 5  21746718.750                    21746723.273
                        33.100
 119140899.974 7  92837062.56244  22671756.406                    22671759.266
        46.700          29.200
 118267698.375 7  92156661.61544  22505595.219                    22505598.430
        45.200          28.000
 124448464.104 6  96972785.11242  23681743.984                    23681747.531
        37.100          17.800
 117629506.123 7  91659377.02245  22384151.625                    22384157.223
        45.700          31.800
 111246636.152 7  86685715.08445  21169530.641                    21169535.977
        45.600          31.900
 118863327.781 7  92620832.47545  22618949.445                    22618955.504
        44.600          31.400
 119407237.382 7  93044641.97644  22722447.813                    22722451.035
        47.000          26.600
 18  3 11 12 52 42.0000000  0 16R05G15R04R06R13R14R15R22R23G28G11G19
                                G10G24G01G17
                  84399812.107 5  20299801.516                    20299804.270
                        34.000
 122964981.065 6  95816882.23443  23399457.922                    23399462.219
        41.800          21.800
                  91854445.279 5  22054074.898                    22054075.930
                        35.700
                  92249213.247 5  22226739.305                    22226740.262
                        32.900
                  84188575.264 5  20270333.688                    20270334.480
                        30.700
                  81281652.166 6  19604870.297                    19604872.543
                        37.700
                  92067554.175 5  22151812.484                    22151816.434
                        31.200
                  84748272.268 6  20412269.594                    20412270.566
                        37.000
                  90476476.908 5  21746088.578                    21746092.516
                        32.300
 119143785.922 7  92839311.35844  22672306.023                    22672308.227
        46.700          29.600
 118268567.031 7  92157338.47944  22505760.625                    22505763.781
        45.200          27.900
 124445102.538 6  96970165.71443  23681104.625                    23681107.508
        37.500          18.600
 117630995.680 7  91660537.71145  22384435.195                    22384440.512
        46.100          31.800
 111245641.080 7  86684939.70745  21169341.125                    21169346.734
        45.600          31.400
 118862247.110 7  92619990.39645  22618744.117                    22618750.039
        44.700          30.900
 119405252.310 7  93043095.16244  22722070.305                    22722073.434
        46.800          26.500
 18  3 11 12 52 43.0000000  0 16R05G15R04R06R13R14R15R22R23G28G11G19
                                G10G24G01G17
                  84400504.849 5  20299968.891                    20299970.914
                        33.800
 122968738.741 6  95819810.27343  23400173.703                    23400177.020
        41.100          21.800
                  91857869.584 6  22054896.727                    22054898.148
                        36.200
                  92246606.069 5  22226111.422                    22226112.070
                        32.900
                  84190992.419 5  20270915.484                    20270916.496
                        31.100
                  81280760.132 6  19604655.195                    19604657.117
                        37.700
                  92064611.760 5  22151104.680                    22151108.617
                        31.000
                  84749160.235 6  20412483.383                    20412484.484
                        37.200
                  90473855.859 5  21745458.961                    21745463.039
                        33.300
 119146672.277 7  92841560.46944  22672854.234                    22672857.363
        46.000          29.200
 118269436.443 7  92158015.92844  22505927.063                    22505929.387
        45.500          27.000
 124441741.308 6  96967546.55442  23680465.211                    23680467.832
        37.300          17.800
 117632485.919 7  91661698.93945  22384719.234                    22384724.270
        46.000          31.100
 111244646.679 7  86684164.85345  21169152.133                    21169157.453
        45.800          32.100
 118861167.145 7  92619148.86445  22618538.227                    22618544.461
        44.700          31.300
 119403267.771 7  93041548.77044  22721693.141                    22721695.945
        47.100          26.700
 18  3 11 12 52 44.0000000  0 16R05G15R04R06R13R14R15R22R23G28G11G19
                                G10G24G01G17
                  84401198.305 5  20300136.641                    20300137.605
                        33.800
 122972496.695 6  95822738.53143  23400889.258                    23400892.031
        41.900          21.500
                  91861294.244 6  22055719.500                    22055720.113
                        36.800
                  92243999.258 5  22225482.695                    22225483.641
                        33.600
                  84193410.037 5  20271498.078                    20271498.547
                        30.600
                  81279868.725 6  19604440.688                    19604442.078
                        37.900
                  92061669.598 5  22150397.180                    22150400.516
                        31.900
                  84750048.941 6  20412697.578                    20412698.758
                        37.300
                  90471235.221 5  21744827.625                    21744833.398
                        32.500
 119149559.011 7  92843809.86444  22673404.633                    22673406.695
        46.500          29.100
 118270306.601 7  92158693.96744  22506092.883                    22506094.883
        45.800          27.700
 124438380.391 6  96964927.66643  23679825.523                    23679828.379
        37.500          18.300
 117633976.816 7  91662860.68145  22385002.422                    22385007.863
        46.300          31.100
 111243652.857 7  86683390.44445  21168962.781                    21168968.289
        45.900          31.500
 118860087.877 7  92618307.88945  22618333.234                    22618339.102
        44.900          30.800
 119401283.720 7  93040002.75344  22721315.234                    22721318.266
        47.000          26.600
 18  3 11 12 52 45.0000000  0 16R05G15R04R06R13R14R15R22R23G28G11G19
                                G10G24G01G17
                  84401892.468 5  20300302.805                    20300304.988
                        33.600
 122976254.967 7  95825667.05543  23401604.688                    23401607.406
        43.000          22.300
                  91864719.246 6  22056541.953                    22056542.137
                        36.300
                  92241392.814 5  22224855.648                    22224855.477
                        33.100
                  84195828.123 5  20272080.633                    20272080.543
                        30.500
                  81278977.913 6  19604225.563                    19604226.859
                        38.100
                  92058727.648 5  22149689.836                    22149692.668
                        30.100
                  84750938.370 6  20412911.320                    20412912.664
                        36.700
                  90468614.983 5  21744198.359                    21744203.035
                        32.800
 119152446.111 7  92846059.54944  22673953.977                    22673956.391
        46.600          29.000
 118271177.475 7  92159372.57944  22506258.273                    22506260.727
        46.000          27.600
 124435019.778 6  96962308.99743  23679185.813                    23679188.816
        37.800          18.300
 117635468.389 7  91664022.94545  22385286.906                    22385291.855
        46.400          31.600
 111242659.678 7  86682616.53645  21168773.594                    21168779.074
        45.800          31.500
 118859009.263 7  92617467.41245  22618127.477                    22618134.207
        44.900          31.200
 119399300.088 7  93038457.05944  22720937.234                    22720940.664
        46.400          27.000
 18  3 11 12 52 46.0000000  0 16R05G15R04R06R13R14R15R22R23G28G11G19
                                G10G24G01G17
                  84402587.438 5  20300470.539                    20300472.258
                        33.500
 122980013.571 7  95828595.82443  23402320.836                    23402322.734
        43.500          23.000
                  91868144.613 5  22057364.648                    22057364.883
                        35.900
                  92238786.806 5  22224227.438                    22224228.156
                        33.300
                  84198246.769 5  20272662.227                    20272663.203
                        30.600
                  81278087.748 6  19604010.930                    19604012.348
                        38.100
                  92055786.018 5  22148980.992                    22148984.793
                        31.700
                  84751828.588 6  20413125.758                    20413127.332
                        36.900
                  90465995.255 5  21743569.102                    21743572.828
                        33.000
 119155333.606 7  92848309.54044  22674503.141                    22674505.832
        46.400          28.100
 118272049.191 7  92160051.85544  22506423.859                    22506426.566
        45.600          28.700
 124431659.512 6  96959690.61243  23678546.156                    23678549.250
        37.800          19.300
 117636960.675 7  91665185.76945  22385570.398                    22385575.520
        46.700          31.900
 111241667.168 7  86681843.15545  21168585.180                    21168590.340
        45.800          31.200
 118857931.388 7  92616627.51745  22617922.484                    22617928.855
        45.300          30.600
 119397317.020 7  93036911.81944  22720560.211                    22720563.188
        46.700          26.900
 18  3 11 12 52 47.0000000  0 16R05G15R04R06R13R14R15R22R23G28G11G19
                                G10G24G01G17
                  84403283.137 5  20300637.219                    20300639.563
                        33.900
 122983772.556 7  95831524.90344  23403035.813                    23403038.289
        44.100          24.000
                  91871570.363 6  22058186.891                    22058187.641
                        36.200
                  92236181.202 5  22223601.219                    22223600.043
                        33.400
                  84200665.943 5  20273244.758                    20273245.543
                        30.500
                  81277198.188 6  19603797.102                    19603797.727
                        38.100
                  92052844.635 5  22148273.664                    22148277.305
                        31.400
                  84752719.574 6  20413339.742                    20413341.730
                        37.000
                  90463375.948 5  21742939.289                    21742943.871
                        33.200
 119158221.539 7  92850559.87544  22675052.711                    22675055.008
        46.200          28.700
 118272921.650 7  92160731.70444  22506589.492                    22506592.816
        45.500          28.900
 124428299.556 6  96957072.45443  23677907.797                    23677910.156
        38.100          19.300
 117638453.653 7  91666349.13445  22385854.438                    22385859.973
        46.800          31.100
 111240675.336 7  86681070.29745  21168396.492                    21168401.594
        46.100          31.200
 118856854.179 7  92615788.13145  22617716.969                    22617723.738
        45.300          31.100
 119395334.475 7  93035366.98244  22720183.945                    22720186.074
        47.300          26.200
 18  3 11 12 52 48.0000000  0 16R05G15R04R06R13R14R15R22R23G28G11G19
                                G10G24G01G17
                  84403979.528 5  20300805.070                    20300806.605
                        33.800
 122987531.781 7  95834454.18743  23403750.828                    23403754.141
        43.900          23.800
                  91874996.394 6  22059009.539                    22059009.496
                        36.000
                  92233575.969 5  22222972.359                    22222972.262
                        32.800
                  84203085.579 4  20273827.703                    20273828.063
                        29.400
                  81276309.209 6  19603582.742                    19603583.418
                        38.100
                  92049903.445 5  22147565.930                    22147569.605
                        30.400
                  84753611.208 6  20413555.883                    20413556.383
                        37.300
                  90460757.024 5  21742310.602                    21742314.223
                        34.000
 119161109.792 7  92852810.46344  22675602.695                    22675604.895
        46.200          28.300
 118273794.835 7  92161412.11344  22506755.758                    22506758.520
        44.900          28.200
 124424939.904 6  96954454.56243  23677268.102                    23677270.754
        37.500          19.900
 117639947.237 7  91667512.97145  22386138.406                    22386143.855
        47.200          31.500
 111239684.078 7  86680297.88545  21168207.719                    21168213.020
        46.400          30.900
 118855777.650 7  92614949.27145  22617512.609                    22617518.957
        44.700          31.000
 119393352.363 7  93033822.47344  22719806.430                    22719808.887
        47.300          27.400
 18  3 11 12 52 49.0000000  0 16R05G15R04R06R13R14R15R22R23G28G11G19
                                G10G24G01G17
                  84404676.732 5  20300972.766                    20300974.465
                        33.600
 122991291.429 7  95837383.79943  23404465.609                    23404469.563
        43.200          22.200
                  91878422.822 6  22059832.320                    22059832.367
                        36.600
                  92230971.193 5  22222344.188                    22222344.719
                        31.100
                  84205505.783 4  20274410.125                    20274411.113
                        29.900
                  81275420.939 6  19603368.070                    19603369.277
                        38.100
                  92046962.577 5  22146858.242                    22146862.246
                        30.000
                  84754503.670 6  20413770.914                    20413771.367
                        37.300
                  90458138.590 5  21741680.547                    21741685.117
                        33.600
 119163998.502 7  92855061.40644  22676151.859                    22676154.711
        46.200          28.300
 118274668.847 7  92162093.15744  22506922.117                    22506925.012
        44.700          27.900
 124421580.626 6  96951836.94343  23676628.602                    23676631.438
        37.600          19.600
 117641441.585 7  91668677.40145  22386422.695                    22386428.449
        47.000          31.900
 111238693.535 7  86679526.03245  21168019.094                    21168024.281
        46.700          31.600
 118854701.876 7  92614111.00845  22617307.922                    22617314.277
        44.600          31.100
 119391370.829 7  93032278.41544  22719428.359                    22719431.871
        46.200          26.800
 18  3 11 12 52 50.0000000  0 16R05G15R04R06R13R14R15R22R23G28G11G19
                                G10G24G01G17
                  84405374.749 5  20301140.406                    20301142.320
                        33.500
 122995051.501 7  95840313.73543  23405180.367                    23405185.121
        42.400          22.500
                  91881849.711 6  22060653.797                    22060655.355
                        36.800
                  92228366.913 5  22221715.531                    22221717.570
                        32.000
                  84207926.589 5  20274993.758                    20274993.895
                        30.300
                  81274533.340 6  19603153.484                    19603154.953
                        37.300
                  92044022.043 5  22146150.477                    22146154.379
                        30.700
                  84755396.973 6  20413984.734                    20413986.590
                        37.900
                  90455520.693 5  21741053.055                    21741056.395
                        33.900
 119166887.729 7  92857312.75444  22676701.836                    22676704.469
        46.400          28.800
 118275543.720 7  92162774.86644  22507089.109                    22507091.340
        45.400          27.900
 124418221.851 6  96949219.70243  23675988.641                    23675992.367
        37.000          20.400
 117642936.701 7  91669842.42045  22386707.398                    22386712.973
        46.800          32.400
 111237703.738 7  86678754.76145  21167830.758                    21167835.727
        47.300          30.900
 118853626.902 7  92613273.36745  22617102.430                    22617109.648
        44.400          31.100
 119389389.872 7  93030734.81744  22719051.820                    22719054.742
        46.300          27.200
 18  3 11 12 52 51.0000000  0 16R05G15R04R06R13R14R15R22R23G28G11G19
                                G10G24G01G17
                  84406073.458 5  20301307.945                    20301310.008
                        33.600
 122998811.859 6  95843243.88043  23405895.484                    23405900.637
        41.800          22.300
                  91885276.908 6  22061476.844                    22061478.250
                        36.500
                  92225762.995 5  22221088.570                    22221089.473
                        32.200
                  84210347.834 5  20275576.531                    20275576.711
                        30.700
                  81273646.305 6  19602939.359                    19602941.395
                        37.500
                  92041081.734 5  22145443.773                    22145447.602
                        30.800
                  84756290.961 6  20414200.672                    20414202.098
                        37.700
                  90452903.132 5  21740422.125                    21740427.219
                        34.200
 119169777.251 7  92859564.32844  22677251.906                    22677254.305
        46.600          29.500
 118276419.290 7  92163457.12044  22507256.117                    22507258.137
        45.900          28.500
 124414863.283 6  96946602.64043  23675350.586                    23675353.102
        37.500          20.900
 117644432.439 7  91671007.92845  22386992.078                    22386997.867
        46.500          31.100
 111236714.521 7  86677983.94345  21167642.695                    21167647.793
        46.900          30.600
 118852552.524 7  92612436.20145  22616898.781                    22616905.422
        44.300          31.300
 119387409.340 7  93029191.57544  22718675.430                    22718677.820
        46.800          27.300
 18  3 11 12 52 52.0000000  0 16R05G15R04R06R13R14R15R22R23G28G11G19
                                G10G24G01G17
                  84406772.919 5  20301476.680                    20301478.988
                        34.200
 123002572.584 6  95846174.30443  23406611.859                    23406615.984
        41.600          21.800
                  91888704.456 6  22062301.008                    22062301.137
                        36.400
                  92223159.525 5  22220460.516                    22220462.262
                        32.500
                  84212769.631 5  20276159.234                    20276159.777
                        30.500
                  81272759.929 6  19602726.117                    19602728.102
                        37.600
                  92038141.696 5  22144736.086                    22144739.906
                        31.000
                  84757185.731 6  20414416.000                    20414417.445
                        37.400
                  90450286.090 5  21739792.250                    21739797.777
                        33.400
 119172667.223 7  92861816.24744  22677801.844                    22677804.547
        46.700          29.400
 118277295.649 7  92164139.99744  22507423.430                    22507424.883
        46.500          27.700
 124411505.070 6  96943985.86743  23674711.094                    23674714.266
        37.400          19.600
 117645928.880 7  91672173.98845  22387276.695                    22387282.121
        46.800          31.600
 111235725.961 7  86677213.64145  21167454.445                    21167459.703
        46.800          31.900
 118851478.899 7  92611599.60445  22616693.836                    22616701.039
        44.200          31.500
 119385429.383 7  93027648.77044  22718298.867                    22718300.977
        46.300          27.700
 18  3 11 12 52 53.0000000  0 16R05G15R04R06R13R14R15R22R23G28G11G19
                                G10G24G01G17
                  84407473.155 5  20301645.664                    20301647.184
                        33.800
 123006333.676 7  95849105.00343  23407328.711                    23407331.453
        42.700          21.700
                  91892132.398 6  22063123.516                    22063123.895
                        36.600
                  92220556.457 5  22219833.008                    22219835.180
                        32.300
                  84215191.965 5  20276742.734                    20276742.648
                        30.400
                  81271874.189 6  19602512.328                    19602514.086
                        38.000
                  92035201.958 5  22144028.453                    22144032.500
                        30.900
                  84758081.255 6  20414632.164                    20414633.500
                        37.500
                  90447669.525 5  21739164.609                    21739169.102
                        32.400
 119175557.606 7  92864068.49644  22678351.469                    22678354.285
        46.100          29.600
 118278172.800 7  92164823.50044  22507589.961                    22507591.895
        46.800          28.900
 124408147.229 6  96941369.37543  23674071.984                    23674075.434
        36.300          19.900
 117647426.035 7  91673340.60645  22387561.273                    22387567.000
        47.300          30.900
 111234738.070 7  86676443.85345  21167266.477                    21167271.566
        46.500          31.400
 118850406.004 7  92610763.59545  22616489.672                    22616496.703
        44.000          30.800
 119383449.911 7  93026106.31844  22717921.117                    22717924.602
        45.600          27.500
 18  3 11 12 52 54.0000000  0 16R05G15R04R06R13R14R15R22R23G28G11G19
                                G10G24G01G17
                  84408174.145 5  20301814.898                    20301815.656
                        34.300
 123010095.104 7  95852035.95643  23408045.430                    23408047.273
        44.100          22.200
                  91895560.679 6  22063946.344                    22063947.598
                        36.600
                  92217953.788 5  22219207.375                    22219208.660
                        32.600
                  84217614.835 5  20277325.867                    20277326.340
                        31.500
                  81270989.106 6  19602298.523                    19602300.418
                        37.600
                  92032262.479 5  22143321.266                    22143324.980
                        30.700
                  84758977.545 6  20414848.000                    20414849.098
                        37.700
                  90445053.389 5  21738535.500                    21738540.531
                        32.500
 119178448.402 7  92866321.06344  22678902.609                    22678904.422
        46.200          29.700
 118279050.710 7  92165507.60844  22507756.664                    22507758.832
        47.000          28.600
 124404789.746 6  96938753.16543  23673432.781                    23673436.520
        36.400          19.300
 117648923.904 7  91674507.77845  22387846.688                    22387852.383
        47.200          31.700
 111233750.865 7  86675674.60045  21167078.383                    21167083.855
        46.600          31.600
 118849333.819 7  92609928.13845  22616286.094                    22616292.711
        44.400          31.200
 119381470.921 7  93024564.23844  22717544.547                    22717547.598
        45.300          27.200
 18  3 11 12 52 55.0000000  0 16R05G15R04R06R13R14R15R22R23G28G11G19
                                G10G24G01G17
                  84408875.833 5  20301983.242                    20301984.160
                        34.100
 123013856.792 7  95854967.14643  23408760.969                    23408762.836
        45.200          22.800
                  91898989.271 6  22064769.648                    22064770.516
                        36.000
                  92215351.537 5  22218579.938                    22218581.605
                        32.600
                  84220038.174 4  20277909.273                    20277910.410
                        29.300
                  81270104.606 6  19602085.430                    19602086.871
                        37.800
                  92029323.270 5  22142614.164                    22142617.805
                        31.400
                  84759874.566 6  20415064.617                    20415065.367
                        37.000
                  90442437.659 5  21737906.555                    21737911.453
                        32.600
 119181339.552 7  92868573.90444  22679452.148                    22679454.145
        46.400          29.500
 118279929.365 7  92166192.28844  22507922.891                    22507926.109
        46.500          28.000
 124401432.565 5  96936137.17242  23672793.625                    23672797.512
        35.600          17.800
 117650422.398 7  91675675.45045  22388131.633                    22388137.621
        47.300          31.800
 111232764.228 7  86674905.79545  21166890.633                    21166895.676
        46.800          31.000
 118848262.313 7  92609093.20245  22616081.320                    22616088.934
        44.200          30.800
 119379492.442 7  93023022.59044  22717168.969                    22717171.207
        47.400          26.800
 18  3 11 12 52 56.0000000  0 16R05G15R04R06R13R14R15R22R23G28G11G19
                                G10G24G01G17
                  84409578.290 5  20302151.766                    20302153.625
                        33.800
 123017618.827 7  95857898.61743  23409476.633                    23409478.871
        45.100          22.900
                  91902418.249 6  22065593.148                    22065593.719
                        36.400
                  92212749.688 5  22217954.789                    22217955.148
                        33.200
                  84222462.020 5  20278492.398                    20278493.125
                        31.500
                  81269220.731 6  19601872.211                    19601873.695
                        37.600
                  92026384.349 5  22141907.555                    22141910.578
                        31.700
                  84760772.361 6  20415279.664                    20415281.738
                        37.400
                  90439822.390 5  21737278.578                    21737282.945
                        32.800
 119184231.135 7  92870827.08544  22680002.039                    22680004.695
        46.400          29.400
 118280808.811 7  92166877.57444  22508090.539                    22508093.469
        46.000          27.700
 124398075.700 5  96933521.46142  23672155.242                    23672159.113
        35.500          17.400
 117651921.621 7  91676843.69045  22388417.086                    22388422.902
        47.300          31.800
 111231778.274 7  86674137.51945  21166703.242                    21166708.352
        46.500          31.900
 118847191.483 7  92608258.79845  22615878.828                    22615885.055
        44.300          31.200
 119377514.465 7  93021481.30444  22716793.188                    22716795.098
        47.700          27.000
 18  3 11 12 52 57.0000000  0 16R05G15R04R06R13R14R15R22R23G28G11G19
                                G10G24G01G17
                  84410281.483 5  20302321.094                    20302322.750
                        34.100
 123021381.205 7  95860830.36743  23410192.508                    23410195.242
        44.700          23.500
                  91905847.578 6  22066416.180                    22066417.359
                        36.600
                  92210148.241 5  22217328.211                    22217328.094
                        32.500
                  84224886.431 5  20279076.695                    20279077.031
                        30.500
                  81268337.475 6  19601658.922                    19601660.930
                        38.100
                  92023445.684 5  22141200.047                    22141203.867
                        31.400
                  84761670.902 6  20415495.906                    20415497.680
                        37.000
                  90437207.520 5  21736650.992                    21736654.059
                        32.400
 119187123.049 7  92873080.51744  22680552.766                    22680554.906
        46.500          29.400
 118281689.023 7  92167563.46144  22508257.188                    22508260.734
        45.600          28.100
 124394719.152 5  96930905.97542  23671516.555                    23671520.109
        34.900          17.800
 117653421.493 7  91678012.42245  22388702.219                    22388708.184
        47.200          31.600
 111230792.954 7  86673369.73345  21166515.563                    21166520.684
        46.800          30.900
 118846121.372 7  92607424.95245  22615674.758                    22615681.633
        44.000          30.700
 119375536.970 7  93019940.37844  22716415.625                    22716419.074
        46.400          27.400
 18  3 11 12 52 58.0000000  0 16R05G15R04R06R13R14R15R22R23G28G11G19
                                G10G24G01G17
                  84410985.408 5  20302489.680                    20302491.629
                        32.900
 123025143.881 7  95863762.33843  23410907.555                    23410911.121
        43.700          23.500
                  91909277.289 6  22067240.492                    22067240.262
                        37.000
                  92207547.191 5  22216700.508                    22216701.793
                        32.800
                  84227311.291 5  20279661.102                    20279661.250
                        31.400
                  81267454.837 6  19601446.602                    19601447.707
                        37.500
                  92020507.279 5  22140493.688                    22140496.980
                        30.600
                  84762570.166 6  20415713.961                    20415714.313
                        37.300
                  90434593.079 5  21736021.367                    21736025.570
                        32.900
 119190015.377 7  92875334.28644  22681102.758                    22681105.391
        46.000          29.300
 118282569.981 7  92168249.92244  22508425.109                    22508428.379
        45.600          27.700
 124391362.880 5  96928290.70442  23670877.469                    23670881.102
        34.400          16.900
 117654922.064 7  91679181.69745  22388987.555                    22388993.652
        46.800          31.900
 111229808.306 7  86672602.47145  21166328.406                    21166333.492
        46.700          31.400
 118845051.914 7  92606591.60445  22615471.063                    22615478.027
        43.600          31.900
 119373559.927 7  93018399.81544  22716039.000                    22716042.371
        46.000          27.100
 18  3 11 12 52 59.0000000  0 16R05G15R04R06R13R14R15R22R23G28G11G19
                                G10G24G01G17
                  84411690.145 5  20302659.984                    20302661.250
                        33.500
 123028906.955 7  95866694.60843  23411622.461                    23411627.383
        42.200          22.200
                  91912707.304 6  22068062.992                    22068064.277
                        36.700
                  92204946.598 5  22216074.578                    22216074.934
                        33.700
                  84229736.701 5  20280244.469                    20280245.059
                        30.800
                  81266572.860 6  19601233.672                    19601235.086
                        37.700
                  92017569.159 5  22139786.133                    22139790.051
                        31.300
                  84763470.196 6  20415930.625                    20415931.215
                        37.300
                  90431979.103 5  21735393.227                    21735397.391
                        33.700
 119192908.131 7  92877588.37644  22681653.078                    22681656.035
        46.000          29.400
 118283451.751 7  92168937.01144  22508593.297                    22508596.078
        45.100          28.500
 124388007.052 5  96925675.79142  23670238.539                    23670242.355
        35.200          17.400
 117656423.335 7  91680351.51545  22389273.281                    22389279.340
        47.200          31.900
 111228824.326 7  86671835.73645  21166140.953                    21166146.410
        46.800          31.500
 118843983.217 7  92605758.86045  22615268.102                    22615274.691
        44.100          31.800
 119371583.452 7  93016859.70444  22715664.125                    22715665.949
        47.000          27.000
 18  3 11 12 53  0.0000000  0 16R05G15R04R06R13R14R15R22R23G28G11G19
                                G10G24G01G17
                  84412395.589 5  20302829.367                    20302830.922
                        33.600
 123032670.361 6  95869627.13843  23412339.258                    23412343.531
        41.100          22.600
                  91916137.665 6  22068887.109                    22068887.824
                        37.100
                  92202346.358 5  22215447.898                    22215448.598
                        33.600
                  84232162.619 5  20280828.375                    20280828.664
                        30.100
                  81265691.481 6  19601020.852                    19601022.625
                        37.800
                  92014631.312 5  22139079.727                    22139083.406
                        31.500
                  84764370.950 6  20416146.492                    20416147.996
                        37.300
                  90429365.533 5  21734764.578                    21734769.375
                        33.100
 119195801.246 7  92879842.74844  22682203.734                    22682206.211
        45.900          29.300
 118284334.229 7  92169624.65544  22508761.469                    22508763.895
        45.000          27.100
 124384651.521 5  96923061.12342  23669600.844                    23669603.934
        35.900          16.300
 117657925.284 7  91681521.86145  22389559.523                    22389565.113
        47.000          32.000
 111227840.988 7  86671069.50145  21165953.945                    21165959.191
        46.400          31.800
 118842915.184 7  92604926.63245  22615064.461                    22615071.535
        43.900          31.300
 119369607.492 7  93015319.99544  22715288.539                    22715290.836
        47.900          26.700
 18  3 11 12 53  1.0000000  0 16R05G15R04R06R13R14R15R22R23G28G11G19
                                G10G24G01G17
                  84413101.756 5  20302998.945                    20303001.059
                        32.900
 123036434.080 6  95872559.87543  23413055.258                    23413059.508
        41.500          22.200
                  91919568.388 6  22069710.617                    22069711.531
                        36.700
                  92199746.491 5  22214819.789                    22214821.656
                        32.700
                  84234589.020 5  20281412.328                    20281413.672
                        30.100
                  81264810.713 6  19600808.695                    19600810.109
                        37.800
                  92011693.706 5  22138373.664                    22138376.613
                        31.300
                  84765272.419 6  20416363.859                    20416365.422
                        37.100
                  90426752.421 5  21734136.500                    21734142.465
                        33.300
 119198694.732 7  92882097.41444  22682755.281                    22682757.133
        45.800          27.800
 118285217.483 7  92170312.89944  22508929.828                    22508932.121
        45.400          27.600
 124381296.262 6  96920446.63542  23668962.508                    23668965.176
        36.600          16.900
 117659427.868 7  91682692.70145  22389845.219                    22389850.984
        46.900          30.900
 111226858.248 7  86670303.72945  21165766.688                    21165772.051
        46.600          31.000
 118841847.822 7  92604094.92545  22614861.625                    22614867.707
        44.300          31.000
 119367631.969 7  93013780.62044  22714911.430                    22714914.781
        46.800          26.800
 18  3 11 12 53  2.0000000  0 16R05G15R04R06R13R14R15R22R23G28G11G19
                                G10G24G01G17
                  84413808.676 5  20303169.508                    20303171.055
                        33.200
 123040198.146 7  95875492.88443  23413772.742                    23413775.664
        42.900          22.300
                  91922999.475 6  22070534.961                    22070535.484
                        36.600
                  92197147.047 5  22214193.000                    22214195.336
                        32.900
                  84237015.942 5  20281996.227                    20281997.836
                        30.600
                  81263930.552 6  19600596.609                    19600598.211
                        37.800
                  92008756.376 5  22137665.758                    22137669.941
                        31.200
                  84766174.655 6  20416581.086                    20416582.664
                        37.600
                  90424139.758 5  21733508.227                    21733513.496
                        33.600
 119201588.618 7  92884352.39444  22683304.891                    22683307.613
        45.600          28.100
 118286101.499 7  92171001.73644  22509098.594                    22509100.465
        45.900          28.200
 124377941.360 6  96917832.43442  23668323.813                    23668326.953
        37.600          16.900
 117660931.156 7  91683864.09145  22390131.383                    22390136.887
        46.500          30.600
 111225876.175 7  86669538.48445  21165579.883                    21165585.043
        46.900          31.000
 118840781.183 7  92603263.77845  22614658.820                    22614664.758
        44.400          30.500
 119365656.938 7  93012241.62944  22714535.008                    22714538.828
        46.200          27.900
 18  3 11 12 53  3.0000000  0 16R05G15R04R06R13R14R15R22R23G28G11G19
                                G10G24G01G17
                  84414516.370 5  20303339.102                    20303341.242
                        33.800
 123043962.535 7  95878426.16243  23414489.664                    23414491.750
        43.900          22.300
                  91926430.944 6  22071359.609                    22071359.668
                        36.500
                  92194548.068 5  22213568.047                    22213568.750
                        31.900
                  84239443.425 5  20282581.773                    20282582.148
                        30.600
                  81263051.063 6  19600384.461                    19600385.879
                        37.900
                  92005819.376 5  22136960.086                    22136962.953
                        31.700
                  84767077.696 6  20416798.555                    20416799.344
                        37.200
                  90421527.600 5  21732881.016                    21732886.004
                        32.900
 119204482.950 7  92886607.71044  22683855.977                    22683858.566
        46.000          28.200
 118286986.318 7  92171691.21044  22509267.102                    22509268.668
        46.000          27.900
 124374586.865 6  96915218.54142  23667686.422                    23667688.328
        38.000          17.800
 117662435.185 7  91685036.06345  22390417.773                    22390423.484
        46.300          31.100
 111224894.813 7  86668773.78445  21165393.219                    21165398.691
        47.200          30.700
 118839715.286 7  92602433.21145  22614455.945                    22614462.152
        44.600          31.300
 119363682.484 7  93010703.10344  22714160.633                    22714163.152
        47.100          27.000
 18  3 11 12 53  4.0000000  0 16R05G15R04R06R13R14R15R22R23G28G11G19
                                G10G24G01G17
                  84415224.831 5  20303509.750                    20303510.723
                        34.100
 123047727.309 7  95881359.72943  23415206.445                    23415208.344
        44.500          22.500
                  91929862.813 6  22072181.992                    22072182.773
                        36.400
                  92191949.494 5  22212941.406                    22212943.031
                        31.800
                  84241871.443 5  20283165.523                    20283166.313
                        31.400
                  81262172.217 6  19600172.508                    19600173.598
                        37.500
                  92002882.644 5  22136252.109                    22136256.590
                        31.700
                  84767981.504 6  20417017.734                    20417017.590
                        36.900
                  90418915.915 5  21732254.422                    21732257.691
                        33.400
 119207377.718 7  92888863.36944  22684407.164                    22684409.406
        46.200          28.600
 118287871.940 7  92172381.30744  22509435.266                    22509437.359
        46.200          28.200
 124371232.738 6  96912604.88342  23667048.086                    23667050.375
        38.400          17.800
 117663939.928 7  91686208.60145  22390703.859                    22390709.613
        46.000          30.200
 111223914.118 7  86668009.60545  21165206.875                    21165212.191
        47.000          30.400
 118838650.120 7  92601603.21345  22614253.313                    22614259.637
        45.000          31.300
 119361708.590 7  93009165.01544  22713785.383                    22713787.441
        47.900          27.600
 18  3 11 12 53  5.0000000  0 16R05G15R04R06R13R14R15R22R23G28G11G19
                                G10G24G01G17
                  84415934.039 5  20303681.266                    20303682.418
                        33.400
 123051492.428 7  95884293.61043  23415922.414                    23415924.996
        44.900          23.900
                  91933295.028 6  22073006.789                    22073007.273
                        36.000
                  92189351.314 5  22212315.477                    22212316.723
                        32.200
                  84244300.013 5  20283750.352                    20283751.648
                        31.500
                  81261294.013 6  19599959.688                    19599961.930
                        37.900
                  91999946.195 5  22135546.203                    22135549.938
                        32.300
                  84768886.058 6  20417234.813                    20417235.730
                        36.900
                  90416304.650 5  21731626.938                    21731630.434
                        33.100
 119210272.875 7  92891119.33444  22684957.633                    22684959.902
        46.400          28.500
 118288758.327 7  92173072.01244  22509603.867                    22509605.770
        46.200          27.500
 124367878.917 6  96909991.52743  23666409.609                    23666411.992
        39.400          18.300
 117665445.363 7  91687381.66845  22390990.477                    22390995.797
        46.100          30.700
 111222934.089 7  86667245.94145  21165020.023                    21165025.332
        46.300          30.900
 118837585.669 7  92600773.77145  22614050.430                    22614056.762
        45.300          32.300
 119359735.195 7  93007627.29344  22713409.008                    22713411.793
        47.000          28.000
 18  3 11 12 53  6.0000000  0 16R05G15R04R06R13R14R15R22R23G28G11G19
                                G10G24G01G17
                  84416643.998 5  20303851.680                    20303852.645
                        33.500
 123055257.891 7  95887227.77443  23416638.352                    23416641.980
        44.600          22.300
                  91936727.566 6  22073830.820                    22073831.246
                        36.600
                  92186753.568 5  22211689.734                    22211690.531
                        32.400
                  84246729.067 5  20284334.922                    20284335.738
                        31.200
                  81260416.442 6  19599748.875                    19599749.949
                        38.100
                  91997009.992 5  22134839.945                    22134843.492
                        31.600
                  84769791.400 6  20417451.828                    20417453.871
                        36.900
                  90413693.833 5  21730997.945                    21731003.020
                        33.100
 119213168.467 7  92893375.64444  22685508.914                    22685511.316
        46.600          29.100
 118289645.484 7  92173763.31044  22509772.391                    22509774.898
        45.300          28.700
 124364525.506 6  96907378.46642  23665772.070                    23665773.590
        39.200          17.800
 117666951.492 7  91688555.28545  22391277.125                    22391282.668
        46.400          31.900
 111221954.700 7  86666482.78345  21164833.766                    21164839.070
        46.900          31.300
 118836521.923 7  92599944.88245  22613847.719                    22613854.488
        44.700          31.400
 119357762.282 7  93006089.95144  22713032.422                    22713036.285
        46.000          27.800
 18  3 11 12 53  7.0000000  0 16R05G15R04R06R13R14R15R22R23G28G11G19
                                G10G24G01G17
                  84417354.731 5  20304022.594                    20304023.016
                        33.300
 123059023.703 7  95890162.19143  23417353.727                    23417358.141
        43.400          22.300
                  91940160.504 6  22074654.734                    22074655.332
                        36.700
                  92184156.257 5  22211063.859                    22211064.590
                        32.800
                  84249158.672 5  20284919.695                    20284920.449
                        31.400
                  81259539.517 6  19599537.070                    19599539.008
                        37.600
                  91994074.081 5  22134133.367                    22134137.047
                        31.400
                  84770697.496 6  20417670.141                    20417671.504
                        37.200
                  90411083.465 5  21730370.594                    21730375.020
                        33.100
 119216064.437 7  92895632.24244  22686059.727                    22686062.664
        46.700          28.900
 118290533.423 7  92174455.23444  22509940.930                    22509943.988
        44.900          28.500
 124361172.393 6  96904765.63542  23665134.078                    23665135.641
        39.500          17.400
 117668458.318 7  91689729.43445  22391563.992                    22391569.426
        46.600          31.800
 111220976.004 7  86665720.16245  21164647.703                    21164652.789
        47.200          30.600
 118835458.890 7  92599116.55345  22613645.883                    22613652.301
        44.700          31.600
 119355789.908 7  93004553.03444  22712658.461                    22712660.957
        47.100          28.200
 18  3 11 12 53  8.0000000  0 16R05G15R04R06R13R14R15R22R23G28G11G19
                                G10G24G01G17
                  84418066.212 5  20304193.422                    20304194.770
                        33.600
 123062789.854 7  95893096.87443  23418070.477                    23418074.887
        42.800          22.500
                  91943593.812 6  22075478.711                    22075479.727
                        37.500
                  92181559.327 5  22210439.734                    22210438.676
                        33.100
                  84251588.754 5  20285505.633                    20285506.051
                        30.900
                  81258663.195 6  19599325.742                    19599327.559
                        37.900
                  91991138.434 5  22133426.719                    22133430.543
                        31.200
                  84771604.322 6  20417889.727                    20417890.547
                        37.900
                  90408473.556 5  21729743.211                    21729748.094
                        33.000
 119218960.811 7  92897889.15844  22686611.086                    22686613.773
        47.000          29.400
 118291422.154 7  92175147.76244  22510109.789                    22510113.094
        44.800          27.400
 124357819.645 6  96902153.10342  23664496.258                    23664497.563
        39.400          17.800
 117669965.823 7  91690904.11645  22391851.211                    22391855.988
        46.800          31.900
 111219997.941 7  86664958.03345  21164461.266                    21164466.785
        47.400          31.100
 118834396.572 7  92598288.77445  22613443.633                    22613450.043
        45.200          30.700
 119353818.038 7  93003016.52044  22712283.563                    22712286.094
        47.500          28.300
 18  3 11 12 53  9.0000000  0 16R05G15R04R06R13R14R15R22R23G28G11G19
                                G10G24G01G17
                  84418778.494 5  20304364.297                    20304365.457
                        34.300
 123066556.393 7  95896031.83843  23418787.305                    23418791.539
        42.400          22.500
                  91947027.490 6  22076303.875                    22076304.355
                        37.100
                  92178962.861 5  22209814.578                    22209813.719
                        34.100
                  84254019.409 4  20286090.375                    20286091.262
                        29.700
                  81257787.518 6  19599114.859                    19599116.734
                        38.100
                  91988203.063 5  22132721.070                    22132724.887
                        30.600
                  84772511.952 6  20418107.820                    20418109.484
                        37.700
                  90405864.123 5  21729115.695                    21729121.059
                        33.100
 119221857.627 7  92900146.41744  22687162.430                    22687164.824
        46.600          28.900
 118292311.680 7  92175840.89144  22510278.922                    22510281.684
        44.900          27.700
 124354467.229 6  96899540.80543  23663858.258                    23663859.820
        39.400          19.300
 117671474.048 7  91692079.35445  22392137.852                    22392143.156
        46.600          32.000
 111219020.556 7  86664196.43245  21164275.227                    21164280.617
        47.200          30.900
 118833334.962 7  92597461.54545  22613241.953                    22613248.176
        45.600          31.800
 119351846.709 7  93001480.40944  22711907.977                    22711910.797
        47.000          27.400
 18  3 11 12 53 10.0000000  0 16R05G15R04R06R13R14R15R22R23G28G11G19
                                G10G24G01G17
                  84419491.473 5  20304536.258                    20304537.414
                        34.400
 123070323.245 7  95898967.02743  23419504.852                    23419508.629
        42.700          22.500
                  91950461.483 6  22077128.172                    22077128.914
                        37.300
                  92176366.781 5  22209188.367                    22209188.160
                        34.200
                  84256450.563 5  20286675.875                    20286677.227
                        30.300
                  81256912.462 6  19598903.914                    19598905.684
                        37.500
                  91985267.926 5  22132014.563                    22132018.340
                        31.400
                  84773420.306 6  20418326.852                    20418327.879
                        37.600
                  90403255.114 5  21728489.359                    21728493.629
                        33.100
 119224754.785 7  92902403.94344  22687713.781                    22687715.863
        46.700          27.600
 118293201.929 7  92176534.58644  22510449.422                    22510451.742
        44.700          27.900
 124351115.158 6  96896928.78943  23663219.695                    23663222.004
        39.100          19.300
 117672982.924 7  91693255.11045  22392425.289                    22392430.168
        46.400          31.800
 111218043.789 7  86663435.32245  21164089.297                    21164094.816
        47.400          30.900
 118832274.050 7  92596634.85945  22613039.281                    22613046.199
        45.100          31.400
 119349875.835 7  92999944.65644  22711532.219                    22711535.629
        46.400          26.400
 18  3 11 12 53 11.0000000  0 16R05G15R04R06R13R14R15R22R23G28G11G19
                                G10G24G01G17
                  84420205.216 5  20304706.953                    20304709.340
                        34.000
 123074090.425 7  95901902.47043  23420222.750                    23420225.609
        43.500          23.600
                  91953895.842 6  22077952.461                    22077953.512
                        36.900
                  92173771.124 5  22208562.164                    22208563.504
                        33.700
                  84258882.233 5  20287262.102                    20287262.352
                        30.100
                  81256038.064 6  19598692.633                    19598694.766
                        37.500
                  91982333.100 5  22131308.367                    22131312.613
                        31.500
                  84774329.419 6  20418545.578                    20418546.840
                        37.500
                  90400646.574 5  21727862.695                    21727867.230
                        33.100
 119227652.359 7  92904661.79644  22688265.156                    22688267.750
        46.700          28.400
 118294092.992 7  92177228.91244  22510619.102                    22510620.957
        44.600          28.600
 124347763.445 6  96894317.05443  23662581.906                    23662584.730
        38.700          19.000
 117674492.520 7  91694431.42745  22392712.547                    22392717.586
        46.600          31.900
 111217067.679 7  86662674.71445  21163903.813                    21163909.059
        47.400          31.400
 118831213.836 7  92595808.72145  22612838.250                    22612844.246
        45.100          31.700
 119347905.503 7  92998409.32944  22711157.664                    22711160.828
        46.500          27.800
 18  3 11 12 53 12.0000000  0 16R05G15R04R06R13R14R15R22R23G28G11G19
                                G10G24G01G17
                  84420919.661 5  20304879.383                    20304881.164
                        33.600
 123077857.921 7  95904838.15643  23420939.992                    23420942.734
        44.300          22.800
                  91957330.529 6  22078777.531                    22078778.359
                        36.700
                  92171175.874 5  22207937.781                    22207937.918
                        33.100
                  84261314.409 5  20287848.125                    20287848.469
                        30.700
                  81255164.256 6  19598481.734                    19598483.480
                        37.900
                  91979398.457 5  22130602.234                    22130605.801
                        31.000
                  84775239.255 6  20418764.320                    20418765.621
                        37.800
                  90398038.409 5  21727235.977                    21727240.246
                        32.600
 119230550.311 7  92906919.93744  22688816.078                    22688818.980
        46.400          28.300
 118294984.761 7  92177923.80244  22510788.711                    22510791.160
        44.600          27.300
 124344411.990 6  96891705.54643  23661944.094                    23661946.676
        38.400          18.300
 117676002.767 7  91695608.25345  22392999.234                    22393004.934
        46.200          32.400
 111216092.230 7  86661914.62545  21163718.320                    21163724.125
        47.200          31.000
 118830154.332 7  92594983.13045  22612636.922                    22612642.891
        45.400          31.000
 119345935.640 7  92996874.36344  22710783.211                    22710786.152
        47.300          26.700
 18  3 11 12 53 13.0000000  0 16R05G15R04R06R13R14R15R22R23G28G11G19
                                G10G24G01G17
                  84421634.858 5  20305051.508                    20305052.918
                        33.700
 123081625.723 7  95907774.09443  23421657.242                    23421659.738
        45.000          22.900
                  91960765.596 6  22079602.828                    22079602.941
                        36.700
                  92168580.964 5  22207312.188                    22207313.023
                        32.500
                  84263747.077 5  20288433.438                    20288433.023
                        30.700
                  81254291.061 6  19598271.102                    19598272.977
                        37.900
                  91976464.137 5  22129896.367                    22129899.953
                        31.800
                  84776149.835 6  20418984.336                    20418984.883
                        37.600
                  90395430.703 5  21726609.219                    21726613.734
                        32.900
 119233448.654 7  92909178.38244  22689367.977                    22689370.367
        46.400          28.700
 118295877.297 7  92178619.30044  22510957.875                    22510960.680
        44.500          28.000
 124341060.899 6  96889094.30643  23661305.508                    23661308.742
        37.600          18.300
 117677513.712 7  91696785.62245  22393287.313                    22393292.605
        46.700          31.800
 111215117.387 7  86661154.99945  21163532.750                    21163537.793
        47.000          30.900
 118829095.496 7  92594158.05745  22612434.992                    22612440.980
        46.100          30.800
 119343966.275 7  92995339.79344  22710408.180                    22710411.215
        47.400          27.200
 18  3 11 12 53 14.0000000  0 16R05G15R04R06R13R14R15R22R23G28G11G19
                                G10G24G01G17
                  84422350.763 5  20305223.547                    20305225.402
                        33.800
 123085393.827 7  95910710.27343  23422373.445                    23422376.977
        45.500          22.500
                  91964200.980 6  22080427.164                    22080427.898
                        36.300
                  92165986.488 5  22206686.984                    22206687.797
                        32.600
                  84266180.243 5  20289019.445                    20289019.246
                        30.100
                  81253418.485 6  19598060.109                    19598062.438
                        38.000
                  91973530.028 5  22129191.453                    22129194.055
                        31.200
                  84777061.153 6  20419203.469                    20419204.375
                        37.800
                  90392823.415 5  21725981.852                    21725986.570
                        32.900
 119236347.360 7  92911437.11344  22689919.352                    22689922.055
        46.500          29.000
 118296770.590 7  92179315.37944  22511127.820                    22511130.633
        44.300          27.800
 124337710.126 6  96886483.32743  23660668.133                    23660671.801
        36.800          18.600
 117679025.293 7  91697963.47945  22393574.672                    22393579.938
        46.400          32.200
 111214143.234 7  86660395.92345  21163347.367                    21163352.402
        47.000          30.900
 118828037.343 7  92593333.51745  22612234.750                    22612239.941
        46.800          31.300
 119341997.410 7  92993805.61044  22710033.492                    22710036.602
        47.300          27.600
 18  3 11 12 53 15.0000000  0 16R05G15R04R06R13R14R15R22R23G28G11G19
                                G10G24G01G17
                  84423067.436 5  20305396.227                    20305397.203
                        33.800
 123089162.307 7  95913646.77043  23423090.133                    23423094.066
        45.600          22.900
                  91967636.748 6  22081251.359                    22081252.938
                        37.000
                  92163392.435 5  22206061.055                    22206062.211
                        32.900
                  84268613.947 5  20289605.508                    20289604.988
                        30.700
                  81252546.568 6  19597850.180                    19597852.031
                        38.300
                  91970596.205 5  22128485.031                    22128487.969
                        30.800
                  84777973.225 6  20419423.898                    20419424.504
                        37.400
                  90390216.567 5  21725355.594                    21725360.098
                        33.000
 119239246.506 7  92913696.18944  22690471.180                    22690473.617
        46.400          28.600
 118297664.703 7  92180012.08944  22511297.813                    22511300.977
        43.900          27.900
 124334359.718 6  96883872.62743  23660029.984                    23660033.727
        36.900          18.600
 117680537.607 7  91699141.91145  22393862.328                    22393867.684
        46.300          32.000
 111213169.776 7  86659637.38545  21163162.250                    21163167.332
        47.400          31.100
 118826979.942 7  92592509.56545  22612032.375                    22612039.012
        46.600          30.900
 119340029.071 7  92992271.83844  22709659.016                    22709662.285
        47.300          27.300
 18  3 11 12 53 16.0000000  0 16R05G15R04R06R13R14R15R22R23G28G11G19
                                G10G24G01G17
                  84423784.830 5  20305567.992                    20305570.254
                        34.100
 123092931.122 7  95916583.53043  23423806.711                    23423811.031
        44.600          22.600
                  91971072.804 6  22082077.008                    22082077.430
                        36.800
                  92160798.756 5  22205436.430                    22205437.777
                        32.700
                  84271048.164 5  20290190.828                    20290191.238
                        30.400
                  81251675.241 6  19597639.578                    19597641.992
                        38.100
                  91967662.638 5  22127778.531                    22127782.211
                        31.700
                  84778886.025 6  20419643.148                    20419644.766
                        37.300
                  90387610.140 5  21724727.836                    21724732.777
                        32.900
 119242146.002 7  92915955.53744  22691023.609                    22691024.961
        46.800          29.700
 118298559.534 7  92180709.35544  22511468.578                    22511471.066
        44.200          28.100
 124331009.637 6  96881262.17343  23659393.461                    23659395.977
        36.500          18.300
 117682050.589 7  91700320.85545  22394150.148                    22394155.777
        45.500          31.300
 111212196.899 7  86658879.30145  21162976.953                    21162982.367
        47.200          30.900
 118825923.192 7  92591686.11845  22611831.602                    22611837.449
        47.000          31.200
 119338061.213 7  92990738.43044  22709284.281                    22709287.871
        47.000          27.600
 18  3 11 12 53 17.0000000  0 16R05G15R04R06R13R14R15R22R23G28G11G19
                                G10G24G01G17
                  84424502.985 5  20305740.758                    20305743.156
                        33.800
 123096700.272 7  95919520.55643  23424523.523                    23424528.629
        43.800          22.500
                  91974509.220 6  22082902.695                    22082902.918
                        36.700
                  92158205.521 5  22204811.609                    22204812.398
                        33.300
                  84273482.909 5  20290776.938                    20290777.477
                        31.400
                  81250804.560 6  19597429.922                    19597431.734
                        38.200
                  91964729.354 5  22127072.523                    22127076.484
                        31.500
                  84779799.602 6  20419862.805                    20419864.340
                        37.500
                  90385004.235 5  21724102.641                    21724107.734
                        32.900
 119245045.900 7  92918215.19244  22691574.805                    22691577.047
        46.200          29.300
 118299455.138 7  92181407.22844  22511639.414                    22511641.805
        44.700          28.000
 124327659.839 5  96878651.94642  23658755.531                    23658759.117
        35.900          17.400
 117683564.260 7  91701500.34645  22394438.258                    22394444.055
        45.900          31.800
 111211224.686 7  86658121.73945  21162791.648                    21162797.039
        47.300          30.000
 118824867.171 7  92590863.24845  22611631.781                    22611636.684
        47.200          31.400
 119336093.865 7  92989205.42944  22708909.938                    22708913.305
        47.200          27.900
 18  3 11 12 53 18.0000000  0 16R05G15R04R06R13R14R15R22R23G28G11G19
                                G10G24G01G17
                  84425221.862 5  20305914.203                    20305915.555
                        34.000
 123100469.709 7  95922457.78543  23425241.039                    23425245.305
        43.000          22.500
                  91977946.022 6  22083726.570                    22083727.719
                        36.800
                  92155612.688 5  22204186.750                    22204187.539
                        32.500
                  84275918.147 5  20291364.305                    20291363.824
                        31.100
                  81249934.483 6  19597219.813                    19597222.063
                        38.200
                  91961796.310 5  22126368.406                    22126370.652
                        32.000
                  84780713.908 6  20420083.141                    20420084.340
                        37.400
                  90382398.736 5  21723476.992                    21723481.109
                        32.600
 119247946.159 7  92920475.12944  22692126.391                    22692128.863
        45.800          28.700
 118300351.468 7  92182105.66644  22511810.102                    22511812.359
        45.300          28.300
 124324310.376 6  96876041.98842  23658116.828                    23658121.684
        36.000          17.800
 117685078.588 7  91702680.35445  22394726.453                    22394731.895
        45.700          31.900
 111210253.105 7  86657364.66945  21162607.203                    21162612.043
        47.500          31.400
 118823811.797 7  92590040.87945  22611428.984                    22611436.266
        46.900          31.800
 119334127.007 8  92987672.80644  22708536.305                    22708538.945
        48.100          27.900
 18  3 11 12 53 19.0000000  0 16R05G15R04R06R13R14R15R22R23G28G11G19
                                G10G24G01G17
                  84425941.530 5  20306087.086                    20306088.723
                        33.800
 123104239.571 7  95925395.32843  23425959.391                    23425962.648
        43.100          22.800
                  91981383.229 6  22084552.219                    22084552.848
                        37.500
                  92153020.323 5  22203562.445                    22203563.543
                        32.100
                  84278353.943 5  20291950.180                    20291950.387
                        30.400
                  81249065.086 6  19597010.680                    19597012.152
                        38.600
                  91958863.583 5  22125661.664                    22125665.227
                        31.500
                  84781629.011 6  20420304.313                    20420305.145
                        37.900
                  90379793.690 5  21722849.961                    21722855.402
                        33.700
 119250846.856 7  92922735.40744  22692679.023                    22692681.125
        46.000          28.700
 118301248.616 7  92182804.75644  22511980.648                    22511982.781
        45.600          27.900
 124320961.313 6  96873432.34643  23657480.492                    23657484.695
        36.000          18.300
 117686593.654 7  91703860.92645  22395015.156                    22395020.492
        46.000          31.500
 111209282.209 7  86656608.12745  21162422.055                    21162427.156
        47.100          30.800
 118822757.197 7  92589219.12545  22611229.352                    22611235.180
        46.700          31.400
 119332160.723 7  92986140.62444  22708162.109                    22708164.895
        47.800          27.300
 18  3 11 12 53 20.0000000  0 16R05G15R04R06R13R14R15R22R23G28G11G19
                                G10G24G01G17
                  84426661.891 5  20306260.039                    20306261.953
                        34.600
 123108009.687 7  95928333.06443  23426676.586                    23426679.805
        43.800          23.000
                  91984820.707 6  22085378.141                    22085378.547
                        36.900
                  92150428.341 5  22202937.391                    22202938.590
                        33.200
                  84280790.188 5  20292536.844                    20292536.953
                        30.600
                  81248196.261 6  19596801.023                    19596802.922
                        38.000
                  91955931.088 5  22124956.219                    22124959.113
                        31.700
                  84782544.807 6  20420524.633                    20420525.844
                        37.600
                  90377189.094 5  21722224.156                    21722228.980
                        32.800
 119253747.905 7  92924995.97244  22693230.758                    22693233.230
        46.200          28.300
 118302146.481 7  92183504.39244  22512150.820                    22512153.723
        44.900          27.000
 124317612.521 6  96870822.93843  23656842.898                    23656847.359
        36.300          18.600
 117688109.337 7  91705041.98845  22395303.758                    22395308.613
        46.300          31.700
 111208311.902 7  86655852.04045  21162237.820                    21162242.660
        47.200          31.100
 118821703.227 7  92588397.85245  22611028.070                    22611034.863
        46.100          30.800
 119330194.877 7  92984608.79144  22707787.734                    22707790.707
        46.800          27.400
 18  3 11 12 53 21.0000000  0 16R05G15R04R06R13R14R15R22R23G28G11G19
                                G10G24G01G17
                  84427383.019 5  20306434.523                    20306435.613
                        33.800
 123111780.145 7  95931271.06543  23427394.836                    23427397.602
        44.600          23.600
                  91988258.609 6  22086203.297                    22086203.813
                        36.600
                  92147836.788 5  22202312.641                    22202313.617
                        33.400
                  84283226.990 4  20293124.008                    20293123.977
                        29.700
                  81247328.092 6  19596591.609                    19596593.293
                        38.100
                  91952998.871 5  22124251.281                    22124253.961
                        31.200
                  84783461.386 6  20420744.492                    20420746.730
                        37.100
                  90374584.936 5  21721599.289                    21721602.566
                        32.200
 119256649.373 7  92927256.86344  22693782.875                    22693785.141
        45.900          28.100
 118303045.146 7  92184204.65844  22512321.586                    22512324.445
        44.800          27.900
 124314264.090 6  96868213.78542  23656205.836                    23656210.316
        36.800          17.800
 117689625.708 7  91706223.58545  22395592.547                    22395597.633
        46.700          31.600
 111207342.281 7  86655096.48945  21162053.266                    21162058.164
        47.200          31.200
 118820649.989 7  92587577.14845  22610826.859                    22610834.023
        45.500          31.200
 119328229.542 7  92983077.35444  22707413.617                    22707416.648
        46.200          27.800
 18  3 11 12 53 22.0000000  0 16R05G15R04R06R13R14R15R22R23G28G11G19
                                G10G24G01G17
                  84428104.898 5  20306607.430                    20306609.125
                        33.700
 123115550.945 7  95934209.33944  23428112.625                    23428115.629
        45.100          24.400
                  91991696.876 6  22087028.664                    22087029.844
                        36.800
                  92145245.631 5  22201688.781                    22201689.406
                        33.200
                  84285664.337 5  20293710.563                    20293711.012
                        31.100
                  81246460.563 6  19596382.195                    19596384.445
                        38.100
                  91950066.925 5  22123545.711                    22123548.465
                        31.600
                  84784378.731 6  20420966.531                    20420967.289
                        37.600
                  90371981.193 5  21720971.844                    21720977.270
                        32.500
 119259551.233 7  92929518.04944  22694335.047                    22694337.566
        45.600          28.300
 118303944.607 7  92184905.54044  22512492.656                    22512495.723
        45.100          28.100
 124310916.040 6  96865604.91042  23655569.773                    23655572.832
        37.700          17.800
 117691142.806 7  91707405.74545  22395880.367                    22395885.750
        46.700          31.700
 111206373.309 7  86654341.44445  21161868.867                    21161873.805
        47.100          31.100
 118819597.483 7  92586757.01545  22610627.977                    22610634.012
        45.400          30.000
 119326264.723 7  92981546.31244  22707040.359                    22707042.977
        46.300          28.000
 18  3 11 12 53 23.0000000  0 16R05G15R04R06R13R14R15R22R23G28G11G19
                                G10G24G01G17
                  84428827.501 5  20306781.875                    20306782.758
                        34.400
 123119322.032 7  95937147.84343  23428829.602                    23428832.980
        45.400          22.800
                  91995135.437 6  22087854.945                    22087854.910
                        36.400
                  92142654.848 5  22201065.570                    22201065.027
                        33.600
                  84288102.146 5  20294297.352                    20294297.469
                        30.100
                  81245593.625 6  19596172.758                    19596175.383
                        37.800
                  91947135.234 5  22122840.352                    22122843.336
                        32.200
                  84785296.764 6  20421187.367                    20421188.520
                        37.700
                  90369377.892 5  21720345.758                    21720351.344
                        32.900
 119262453.474 7  92931779.53244  22694887.250                    22694889.527
        45.800          28.400
 118304844.782 7  92185606.96444  22512664.570                    22512667.051
        45.400          28.700
 124307568.279 6  96862996.30143  23654933.133                    23654935.832
        37.600          19.300
 117692660.528 7  91708588.39345  22396169.875                    22396174.785
        47.000          32.300
 111205404.938 7  86653586.87045  21161684.477                    21161689.371
        47.500          31.200
 118818545.629 7  92585937.39545  22610425.883                    22610434.219
        44.700          31.100
 119324300.382 7  92980015.64044  22706666.344                    22706669.020
        46.200          26.500
 18  3 11 12 53 24.0000000  0 16R05G15R04R06R13R14R15R22R23G28G11G19
                                G10G24G01G17
                  84429550.782 5  20306955.430                    20306956.504
                        34.000
 123123093.399 7  95940086.57443  23429547.547                    23429550.789
        44.600          22.300
                  91998574.287 6  22088679.328                    22088680.625
                        37.000
                  92140064.417 5  22200441.859                    22200440.766
                        32.900
                  84290540.430 5  20294884.539                    20294884.941
                        30.300
                  81244727.258 6  19595964.211                    19595965.637
                        38.000
                  91944203.783 5  22122134.563                    22122137.316
                        31.900
                  84786215.524 6  20421408.227                    20421409.727
                        37.600
                  90366774.987 5  21719720.266                    21719725.535
                        32.400
 119265356.031 7  92934041.25944  22695439.477                    22695442.043
        45.700          29.200
 118305745.658 7  92186308.93944  22512836.922                    22512838.258
        46.000          28.100
 124304220.803 6  96860387.87743  23654296.117                    23654298.590
        38.200          19.900
 117694178.883 7  91709771.53945  22396458.516                    22396463.723
        46.900          32.100
 111204437.164 7  86652832.75745  21161500.234                    21161505.551
        47.200          31.200
 118817494.425 7  92585118.27145  22610226.602                    22610233.453
        44.700          31.500
 119322336.467 7  92978485.30544  22706291.844                    22706295.477
        45.400          26.700
 18  3 11 12 53 25.0000000  0 16R05G15R04R06R13R14R15R22R23G28G11G19
                                G10G24G01G17
                  84430274.876 5  20307128.930                    20307130.801
                        34.000
 123126865.184 7  95943025.64544  23430264.852                    23430268.770
        43.900          24.500
                  92002013.561 6  22089504.813                    22089506.410
                        37.000
                  92137474.436 5  22199817.516                    22199817.090
                        33.200
                  84292979.297 5  20295471.219                    20295472.281
                        30.900
                  81243861.592 6  19595755.992                    19595757.695
                        38.300
                  91941272.641 5  22121429.227                    22121432.406
                        32.200
                  84787135.084 6  20421630.211                    20421631.523
                        37.700
                  90364172.601 5  21719095.750                    21719100.219
                        33.100
 119268259.062 7  92936303.35944  22695992.133                    22695994.574
        45.600          28.600
 118306647.363 7  92187011.56744  22513008.836                    22513009.836
        46.800          28.400
 124300873.698 6  96857779.73243  23653659.203                    23653661.801
        39.000          20.400
 117695697.996 7  91710955.26445  22396747.234                    22396752.867
        47.200          31.900
 111203470.105 7  86652079.21045  21161316.227                    21161321.613
        46.800          30.900
 118816443.988 7  92584299.74245  22610026.930                    22610033.805
        44.500          31.000
 119320373.123 7  92976955.40844  22705918.813                    22705921.777
        46.000          27.600
 18  3 11 12 53 26.0000000  0 16R05G15R04R06R13R14R15R22R23G28G11G19
                                G10G24G01G17
                  84430999.698 5  20307304.047                    20307305.512
                        34.400
 123130637.288 7  95945964.96443  23430981.680                    23430986.398
        43.000          22.800
                  92005453.170 6  22090330.398                    22090332.379
                        36.800
                  92134884.868 5  22199193.781                    22199193.250
                        32.900
                  84295418.653 4  20296059.195                    20296059.105
                        29.500
                  81242996.536 6  19595546.883                    19595548.250
                        38.200
                  91938341.762 5  22120723.156                    22120727.941
                        31.700
                  84788055.372 6  20421852.180                    20421853.039
                        37.400
                  90361570.641 5  21718469.844                    21718474.617
                        33.300
 119271162.461 7  92938565.75044  22696544.711                    22696546.836
        46.000          28.600
 118307549.811 7  92187714.78744  22513179.656                    22513181.828
        46.200          27.500
 124297526.981 6  96855171.89743  23653021.805                    23653024.867
        39.200          19.900
 117697217.786 7  91712139.52045  22397036.773                    22397042.066
        47.300          32.000
 111202503.667 7  86651326.14845  21161132.344                    21161137.613
        46.800          31.300
 118815394.257 7  92583481.76445  22609827.570                    22609833.926
        44.600          31.000
 119318410.278 7  92975425.91144  22705545.664                    22705548.277
        46.900          27.400
 18  3 11 12 53 27.0000000  0 16R05G15R04R06R13R14R15R22R23G28G11G19
                                G10G24G01G17
                  84431725.259 5  20307478.203                    20307479.914
                        34.400
 123134409.683 7  95948904.48843  23431699.609                    23431703.844
        43.000          22.500
                  92008893.061 6  22091157.758                    22091158.836
                        37.000
                  92132295.669 5  22198569.273                    22198569.270
                        33.200
                  84297858.481 5  20296646.188                    20296647.016
                        30.200
                  81242132.056 6  19595338.188                    19595340.574
                        38.100
                  91935411.111 5  22120019.078                    22120022.348
                        32.100
                  84788976.384 6  20422073.305                    20422074.289
                        37.600
                  90358969.114 5  21717846.133                    21717849.113
                        33.400
 119274066.214 7  92940828.41244  22697097.148                    22697099.297
        46.200          28.700
 118308452.972 7  92188418.57744  22513351.398                    22513353.664
        45.600          27.600
 124294180.511 6  96852564.24943  23652386.297                    23652388.070
        39.600          18.600
 117698738.203 7  91713324.26645  22397326.133                    22397331.066
        47.400          32.000
 111201537.882 7  86650573.59245  21160948.227                    21160954.102
        46.600          30.500
 118814345.153 7  92582664.27745  22609628.273                    22609634.430
        45.000          31.700
 119316447.896 7  92973896.77244  22705172.070                    22705174.988
        46.800          28.300
 18  3 11 12 53 28.0000000  0 16R05G15R04R06R13R14R15R22R23G28G11G19
                                G10G24G01G17
                  84432451.595 5  20307652.719                    20307655.043
                        34.100
 123138182.507 7  95951844.34543  23432418.125                    23432422.059
        42.600          22.500
                  92012333.416 6  22091983.242                    22091983.887
                        37.600
                  92129706.938 5  22197945.859                    22197946.098
                        33.200
                  84300298.905 4  20297233.234                    20297234.469
                        29.600
                  81241268.267 6  19595130.227                    19595131.926
                        37.700
                  91932480.796 5  22119314.289                    22119317.508
                        31.900
                  84789898.230 6  20422294.781                    20422296.637
                        37.800
                  90356368.085 5  21717220.313                    21717224.504
                        33.300
 119276970.459 7  92943091.45544  22697649.547                    22697651.668
        45.800          29.000
 118309357.009 7  92189123.03944  22513522.734                    22513525.477
        44.100          27.500
 124290834.498 6  96849956.93243  23651749.352                    23651751.152
        39.700          19.000
 117700259.369 7  91714509.59245  22397615.820                    22397620.727
        47.500          32.000
 111200572.819 7  86649821.59545  21160764.859                    21160770.266
        46.800          30.800
 118813296.863 7  92581847.42545  22609428.297                    22609434.941
        44.600          30.900
 119314486.081 7  92972368.06344  22704797.984                    22704801.438
        46.100          26.700
 18  3 11 12 53 29.0000000  0 16R05G15R04R06R13R14R15R22R23G28G11G19
                                G10G24G01G17
                  84433178.690 5  20307828.094                    20307829.188
                        34.100
 123141955.624 7  95954784.42543  23433136.523                    23433139.746
        43.300          22.900
                  92015774.083 6  22092809.438                    22092810.727
                        37.100
                  92127118.604 5  22197320.820                    22197322.313
                        33.800
                  84302739.790 5  20297821.367                    20297822.004
                        30.400
                  81240405.105 6  19594921.789                    19594923.777
                        38.000
                  91929550.725 5  22118608.914                    22118611.984
                        32.500
                  84790820.792 6  20422517.969                    20422518.840
                        37.900
                  90353767.442 5  21716594.242                    21716599.527
                        33.700
 119279875.051 7  92945354.76944  22698202.828                    22698204.852
        45.800          28.600
 118310261.828 7  92189828.08944  22513694.328                    22513697.461
        43.800          27.900
 124287488.769 6  96847349.86043  23651111.836                    23651114.070
        39.400          18.300
 117701781.204 7  91715695.43645  22397904.977                    22397910.207
        47.300          32.300
 111199608.384 7  86649070.08345  21160581.313                    21160586.727
        47.200          30.600
 118812249.230 7  92581031.09645  22609229.156                    22609235.281
        45.100          31.400
 119312524.741 7  92970839.72944  22704425.359                    22704428.617
        46.300          27.500
 18  3 11 12 53 30.0000000  0 16R05G15R04R06R13R14R15R22R23G28G11G19
                                G10G24G01G17
                  84433906.510 5  20308002.758                    20308004.188
                        34.300
 123145729.059 7  95957724.76243  23433854.664                    23433857.773
        43.700          22.800
                  92019215.123 6  22093635.398                    22093636.773
                        37.100
                  92124530.661 5  22196696.289                    22196698.598
                        33.100
                  84305181.190 5  20298409.375                    20298409.703
                        31.000
                  81239542.576 6  19594713.953                    19594715.676
                        37.500
                  91926620.922 5  22117904.602                    22117907.234
                        31.100
                  84791744.083 6  20422740.602                    20422741.023
                        37.500
                  90351167.306 5  21715969.813                    21715974.531
                        33.100
 119282780.053 7  92947618.40744  22698755.281                    22698757.594
        46.000          28.900
 118311167.368 7  92190533.68544  22513867.375                    22513869.883
        44.100          27.600
 124284143.385 6  96844743.05043  23650475.203                    23650477.828
        39.800          18.300
 117703303.727 7  91716881.81745  22398194.617                    22398200.152
        47.300          32.000
 111198644.612 7  86648319.09345  21160397.984                    21160403.305
        46.600          31.200
 118811202.298 7  92580215.31045  22609030.102                    22609036.180
        45.500          32.000
 119310563.908 7  92969311.78244  22704052.461                    22704055.281
        46.600          27.000
 18  3 11 12 53 31.0000000  0 16R05G15R04R06R13R14R15R22R23G28G11G19
                                G10G24G01G17
                  84434635.103 5  20308178.117                    20308179.465
                        34.000
 123149502.873 7  95960665.38943  23434572.867                    23434576.301
        44.000          23.000
                  92022656.521 6  22094461.789                    22094463.098
                        37.100
                  92121943.189 5  22196073.617                    22196075.406
                        33.800
                  84307623.142 5  20298997.063                    20298997.332
                        30.600
                  81238680.687 6  19594506.039                    19594507.105
                        37.200
                  91923691.404 5  22117199.695                    22117202.637
                        31.400
                  84792668.164 6  20422962.680                    20422964.223
                        37.900
                  90348567.604 5  21715343.883                    21715349.891
                        33.100
 119285685.467 7  92949882.36744  22699308.281                    22699310.512
        46.500          28.300
 118312073.725 7  92191239.90644  22514040.898                    22514042.539
        45.300          29.000
 124280798.386 6  96842136.56643  23649839.031                    23649841.180
        39.700          19.000
 117704826.969 7  91718068.76745  22398484.273                    22398489.738
        47.200          32.400
 111197681.502 7  86647568.62245  21160214.656                    21160220.332
        46.600          30.900
 118810156.098 7  92579400.09645  22608831.453                    22608837.188
        45.600          32.100
 119308603.594 7  92967784.23544  22703679.102                    22703682.328
        46.500          27.900
 18  3 11 12 53 32.0000000  0 16R05G15R04R06R13R14R15R22R23G28G11G19
                                G10G24G01G17
                  84435364.426 5  20308353.805                    20308354.938
                        33.600
 123153276.974 7  95963606.24344  23435291.242                    23435294.629
        44.300          24.100
                  92026098.280 6  22095287.969                    22095289.332
                        37.200
                  92119356.122 5  22195450.406                    22195452.141
                        34.000
                  84310065.599 5  20299584.922                    20299585.777
                        30.800
                  81237819.432 6  19594298.219                    19594299.598
                        37.400
                  91920762.138 5  22116493.203                    22116497.813
                        31.000
                  84793592.990 6  20423185.273                    20423186.348
                        37.700
                  90345968.342 5  21714719.938                    21714724.816
                        33.700
 119288591.243 7  92952146.61144  22699861.172                    22699863.836
        46.100          28.500
 118312980.789 7  92191946.70544  22514214.102                    22514214.953
        45.800          28.100
 124277453.695 6  96839530.31242  23649202.602                    23649204.715
        39.200          17.800
 117706350.860 7  91719256.21945  22398774.289                    22398780.082
        47.400          31.200
 111196719.033 7  86646818.65245  21160031.563                    21160037.172
        46.200          31.200
 118809110.594 7  92578585.41345  22608631.836                    22608638.617
        45.200          31.400
 119306643.773 7  92966257.07444  22703305.906                    22703309.563
        46.300          27.300
 18  3 11 12 53 33.0000000  0 16R05G15R04R06R13R14R15R22R23G28G11G19
                                G10G24G01G17
                  84436094.479 5  20308528.891                    20308531.020
                        34.500
 123157051.433 7  95966547.39643  23436008.898                    23436012.555
        43.900          21.500
                  92029540.386 6  22096114.711                    22096115.410
                        37.400
                  92116769.445 5  22194828.273                    22194828.977
                        33.500
                  84312508.540 5  20300173.016                    20300174.039
                        30.600
                  81236958.804 6  19594090.516                    19594092.355
                        37.800
                  91917833.150 5  22115789.484                    22115792.828
                        31.000
                  84794518.569 6  20423407.734                    20423409.875
                        37.700
                  90343369.541 5  21714094.625                    21714100.145
                        32.100
 119291497.433 7  92954411.17244  22700414.148                    22700416.660
        45.800          28.200
 118313888.621 7  92192654.11144  22514386.094                    22514387.914
        46.000          27.900
 124274109.329 6  96836924.29843  23648565.195                    23648567.930
        39.000          18.300
 117707875.437 7  91720444.20345  22399064.359                    22399069.840
        47.400          31.900
 111195757.220 7  86646069.18145  21159848.781                    21159854.328
        45.800          31.200
 118808065.771 7  92577771.26845  22608432.961                    22608439.238
        45.200          31.100
 119304684.488 7  92964730.33244  22702933.375                    22702936.535
        46.400          26.900
 18  3 11 12 53 34.0000000  0 16R05G15R04R06R13R14R15R22R23G28G11G19
                                G10G24G01G17
                  84436825.277 5  20308705.023                    20308706.098
                        34.100
 123160826.234 7  95969488.79943  23436727.047                    23436730.957
        43.400          22.600
                  92032982.794 6  22096941.055                    22096942.086
                        37.600
                  92114183.195 5  22194204.766                    22194205.941
                        33.800
                  84314952.025 5  20300761.023                    20300761.738
                        30.900
                  81236098.805 6  19593883.211                    19593885.051
                        38.000
                  91914904.438 5  22115085.289                    22115088.398
                        32.200
                  84795444.908 6  20423631.641                    20423632.734
                        37.600
                  90340771.222 5  21713472.422                    21713475.844
                        32.800
 119294404.034 7  92956676.05044  22700967.359                    22700969.758
        46.000          28.900
 118314797.243 7  92193362.15144  22514558.734                    22514561.203
        45.900          27.800
 124270765.339 6  96834318.57142  23647928.672                    23647931.953
        38.900          17.800
 117709400.714 7  91721632.72945  22399354.734                    22399360.371
        47.000          31.800
 111194796.056 7  86645320.22545  21159666.055                    21159671.180
        45.700          30.600
 118807021.664 7  92576957.68345  22608233.672                    22608241.117
        44.700          31.200
 119302725.729 7  92963203.99744  22702560.359                    22702563.840
        46.400          27.400
 18  3 11 12 53 35.0000000  0 16R05G15R04R06R13R14R15R22R23G28G11G19
                                G10G24G01G17
                  84437556.791 5  20308880.750                    20308882.414
                        34.500
 123164601.342 7  95972430.43943  23437445.320                    23437449.039
        43.500          22.200
                  92036425.542 6  22097767.859                    22097768.723
                        36.900
                  92111597.358 5  22193582.203                    22193582.684
                        33.700
                  84317396.010 5  20301350.469                    20301351.063
                        30.500
                  81235239.399 6  19593676.047                    19593677.773
                        37.900
                  91911975.986 5  22114380.781                    22114384.133
                        31.900
                  84796371.954 6  20423855.156                    20423856.203
                        38.100
                  90338173.265 5  21712847.203                    21712850.828
                        32.600
 119297310.980 7  92958941.20444  22701520.625                    22701522.848
        46.200          29.200
 118315706.603 7  92194070.76344  22514730.578                    22514733.875
        45.200          27.900
 124267421.613 6  96831713.07242  23647293.000                    23647295.309
        37.900          17.400
 117710926.661 7  91722821.76945  22399645.047                    22399650.453
        47.000          31.900
 111193835.509 7  86644571.74445  21159482.625                    21159488.328
        45.600          30.800
 118805978.248 7  92576144.63445  22608034.750                    22608042.387
        44.300          31.400
 119300767.436 7  92961678.03944  22702188.047                    22702191.402
        46.700          27.300
 18  3 11 12 53 36.0000000  0 16R05G15R04R06R13R14R15R22R23G28G11G19
                                G10G24G01G17
                  84438289.036 5  20309056.430                    20309058.410
                        34.800
 123168376.766 7  95975372.31743  23438164.117                    23438167.852
        44.000          22.500
                  92039868.640 6  22098594.852                    22098595.617
                        37.000
                  92109011.904 5  22192959.234                    22192959.820
                        33.000
                  84319840.457 5  20301938.680                    20301939.199
                        30.200
                  81234380.626 6  19593468.188                    19593470.770
                        37.900
                  91909047.748 5  22113675.133                    22113679.418
                        32.200
                  84797299.725 6  20424078.672                    20424079.828
                        37.700
                  90335575.736 5  21712220.945                    21712226.449
                        32.600
 119300218.297 7  92961206.64644  22702073.516                    22702076.031
        46.400          29.000
 118316616.757 7  92194779.99044  22514903.883                    22514907.098
        44.700          27.400
 124264078.228 6  96829107.83442  23646656.477                    23646659.090
        37.300          17.800
 117712453.247 7  91724011.31545  22399935.484                    22399941.184
        46.700          30.700
 111192875.588 7  86643823.75645  21159300.125                    21159305.594
        45.800          31.600
 118804935.523 7  92575332.12445  22607837.492                    22607843.848
        44.600          31.300
 119298809.645 7  92960152.47544  22701815.680                    22701818.828
        46.800          27.300
 18  3 11 12 53 37.0000000  0 16R05G15R04R06R13R14R15R22R23G28G11G19
                                G10G24G01G17
                  84439022.055 5  20309233.320                    20309235.230
                        34.700
 123172152.532 7  95978314.46243  23438882.523                    23438885.953
        43.900          22.600
                  92043312.095 6  22099421.531                    22099422.074
                        37.100
                  92106426.880 5  22192336.922                    22192336.926
                        32.200
                  84322285.484 4  20302527.570                    20302528.289
                        29.900
                  81233522.492 6  19593261.883                    19593263.242
                        38.000
                  91906119.834 5  22112970.203                    22112974.754
                        32.300
                  84798228.268 6  20424301.234                    20424302.895
                        37.900
                  90332978.687 5  21711598.938                    21711602.785
                        32.300
 119303126.014 7  92963472.39844  22702627.180                    22702629.957
        46.200          29.100
 118317527.658 7  92195489.76644  22515077.969                    22515080.723
        45.200          27.900
 124260735.161 6  96826502.84543  23646020.805                    23646023.230
        37.500          18.300
 117713980.553 7  91725201.41545  22400226.133                    22400231.855
        46.700          31.400
 111191916.309 7  86643076.26745  21159117.719                    21159122.957
        45.400          30.800
 118803893.533 7  92574520.18145  22607638.008                    22607645.656
        44.100          31.100
 119296852.396 7  92958627.32144  22701443.375                    22701446.285
        47.300          27.500
 18  3 11 12 53 38.0000000  0 16R05G15R04R06R13R14R15R22R23G28G11G19
                                G10G24G01G17
                  84439755.804 5  20309409.625                    20309411.426
                        34.200
 123175928.611 7  95981256.85543  23439601.563                    23439604.648
        44.200          23.200
                  92046755.925 6  22100247.789                    22100249.004
                        37.100
                  92103842.236 5  22191713.383                    22191713.887
                        32.400
                  84324730.989 5  20303115.125                    20303116.973
                        30.100
                  81232664.963 6  19593055.656                    19593056.426
                        37.900
                  91903192.111 5  22112266.086                    22112270.941
                        31.900
                  84799157.535 6  20424525.547                    20424527.035
                        37.800
                  90330382.067 5  21710973.281                    21710978.969
                        32.800
 119306034.135 7  92965738.45844  22703180.367                    22703182.867
        46.300          28.500
 118318439.313 7  92196200.12844  22515252.305                    22515254.000
        45.700          28.300
 124257392.509 6  96823898.18843  23645384.594                    23645387.313
        37.300          18.600
 117715508.498 7  91726392.01545  22400517.305                    22400522.477
        46.300          31.500
 111190957.728 7  86642329.32045  21158935.195                    21158940.738
        45.800          30.400
 118802852.184 7  92573708.73945  22607440.539                    22607447.344
        44.300          31.600
 119294895.610 7  92957102.54444  22701070.766                    22701073.953
        47.400          28.200
 18  3 11 12 53 39.0000000  0 16R05G15R04R06R13R14R15R22R23G28G11G19
                                G10G24G01G17
                  84440490.268 5  20309586.906                    20309588.191
                        34.300
 123179704.996 7  95984199.50243  23440319.891                    23440323.426
        44.400          22.600
                  92050200.094 6  22101075.078                    22101076.176
                        37.000
                  92101257.986 5  22191091.047                    22191091.223
                        33.100
                  84327177.001 4  20303705.117                    20303705.746
                        29.600
                  81231808.029 6  19592848.336                    19592850.098
                        37.900
                  91900264.725 5  22111562.844                    22111565.723
                        32.800
                  84800087.547 6  20424750.008                    20424750.879
                        37.500
                  90327785.859 5  21710350.242                    21710354.551
                        33.400
 119308942.631 7  92968004.81444  22703734.023                    22703736.547
        46.000          28.900
 118319351.689 7  92196911.06644  22515426.086                    22515427.746
        46.100          28.000
 124254050.083 6  96821293.69043  23644747.914                    23644750.934
        37.300          18.600
 117717037.158 7  91727583.17245  22400808.109                    22400813.527
        46.400          31.300
 111189999.781 7  86641582.87545  21158753.563                    21158758.441
        45.300          31.100
 118801811.560 7  92572897.86445  22607243.273                    22607249.555
        44.400          31.000
 119292939.329 7  92955578.16844  22700698.070                    22700701.461
        46.700          26.900
 18  3 11 12 53 40.0000000  0 16R05G15R04R06R13R14R15R22R23G28G11G19
                                G10G24G01G17
                  84441225.492 5  20309762.492                    20309765.039
                        33.900
 123183481.702 7  95987142.40143  23441038.781                    23441041.723
        44.700          22.500
                  92053644.577 6  22101902.750                    22101903.348
                        36.900
                  92098674.140 5  22190468.102                    22190468.336
                        32.500
                  84329623.533 4  20304294.852                    20304294.410
                        29.700
                  81230951.730 6  19592641.836                    19592643.984
                        37.600
                  91897337.585 5  22110858.430                    22110861.531
                        32.700
                  84801018.304 6  20424974.148                    20424975.082
                        38.100
                  90325190.128 5  21709725.797                    21709730.656
                        32.700
 119311851.515 7  92970271.47344  22704287.336                    22704289.969
        46.100          28.900
 118320264.834 7  92197622.61244  22515599.281                    22515601.363
        46.200          27.000
 124250708.016 6  96818689.51443  23644111.703                    23644114.922
        37.300          19.600
 117718566.456 7  91728774.83345  22401099.219                    22401104.480
        46.400          31.500
 111189042.462 7  86640836.91345  21158570.766                    21158576.484
        45.900          31.200
 118800771.618 7  92572087.51545  22607044.227                    22607051.445
        44.300          31.000
 119290983.580 7  92954054.21044  22700326.398                    22700329.512
        47.100          27.900
 18  3 11 12 53 41.0000000  0 16R05G15R04R06R13R14R15R22R23G28G11G19
                                G10G24G01G17
                  84441961.401 5  20309940.969                    20309941.516
                        33.800
 123187258.704 7  95990085.53243  23441757.461                    23441760.754
        44.400          23.300
                  92057089.354 6  22102729.695                    22102729.836
                        37.100
                  92096090.683 5  22189845.039                    22189846.078
                        32.400
                  84332070.552 4  20304883.430                    20304884.191
                        29.800
                  81230096.033 6  19592435.563                    19592437.547
                        37.500
                  91894410.689 5  22110153.250                    22110157.648
                        32.700
                  84801949.784 6  20425197.750                    20425199.406
                        37.800
                  90322594.806 5  21709101.930                    21709107.332
                        32.600
 119314760.741 7  92972538.40244  22704841.172                    22704843.953
        46.100          27.800
 118321178.710 7  92198334.74544  22515772.539                    22515775.176
        45.400          27.900
 124247366.249 6  96816085.58643  23643475.242                    23643479.141
        36.900          19.600
 117720096.414 7  91729967.00445  22401390.188                    22401395.594
        46.500          32.100
 111188085.781 7  86640091.45045  21158388.539                    21158394.250
        46.100          30.600
 118799732.330 7  92571277.68345  22606848.445                    22606853.680
        45.200          31.300
 119289028.295 7  92952530.62744  22699954.117                    22699957.414
        47.600          27.700
 18  3 11 12 53 42.0000000  0 16R05G15R04R06R13R14R15R22R23G28G11G19
                                G10G24G01G17
                  84442698.094 5  20310117.156                    20310119.211
                        33.400
 123191036.059 7  95993028.93543  23442476.250                    23442479.480
        43.700          22.500
                  92060534.478 6  22103556.891                    22103557.387
                        37.300
                  92093507.631 5  22189221.750                    22189224.066
                        32.200
                  84334518.091 5  20305473.625                    20305473.484
                        30.200
                  81229240.983 6  19592228.695                    19592231.016
                        37.500
                  91891484.093 5  22109449.250                    22109453.121
                        32.400
                  84802882.038 6  20425422.477                    20425424.402
                        38.100
                  90319999.945 5  21708478.555                    21708483.242
                        33.300
 119317670.390 7  92974805.66244  22705394.891                    22705396.914
        46.000          28.600
 118322093.396 7  92199047.49944  22515946.219                    22515949.664
        44.900          27.100
 124244024.875 6  96813481.92743  23642840.555                    23642843.578
        37.200          18.300
 117721627.092 7  91731159.74145  22401681.742                    22401686.734
        46.600          31.700
 111187129.780 7  86639346.50945  21158206.336                    21158212.441
        46.500          31.200
 118798693.800 7  92570468.43245  22606649.266                    22606656.691
        45.000          30.800
 119287073.534 7  92951007.45144  22699582.117                    22699585.348
        47.000          28.000
 18  3 11 12 53 43.0000000  0 16R05G15R04R06R13R14R15R22R23G28G11G19
                                G10G24G01G17
                  84443435.493 5  20310294.969                    20310296.559
                        33.800
 123194813.766 7  95995972.61343  23443194.930                    23443198.445
        43.400          23.800
                  92063980.010 6  22104382.586                    22104384.422
                        37.300
                  92090924.990 5  22188600.930                    22188601.203
                        32.700
                  84336966.120 4  20306063.859                    20306063.418
                        29.300
                  81228386.552 6  19592022.555                    19592024.375
                        37.900
                  91888557.778 5  22108745.297                    22108749.211
                        32.300
                  84803815.022 6  20425647.141                    20425648.492
                        37.600
                  90317405.532 5  21707855.875                    21707859.617
                        32.800
 119320580.403 7  92977073.19844  22705948.500                    22705950.941
        46.000          28.600
 118323008.806 7  92199760.80744  22516120.750                    22516123.199
        44.600          28.300
 124240683.827 6  96810878.51843  23642204.883                    23642207.617
        38.200          18.300
 117723158.423 7  91732352.99545  22401973.070                    22401977.922
        46.500          31.700
 111186174.441 7  86638602.09845  21158025.156                    21158030.500
        47.300          30.500
 118797655.937 7  92569659.72045  22606452.828                    22606458.148
        45.600          31.400
 119285119.258 7  92949484.65344  22699209.617                    22699213.750
        46.900          27.600
 18  3 11 12 53 44.0000000  0 16R05G15R04R06R13R14R15R22R23G28G11G19
                                G10G24G01G17
                  84444173.697 5  20310471.813                    20310473.727
                        34.000
 123198591.819 7  95998916.53843  23443913.703                    23443917.234
        43.700          22.900
                  92067425.918 6  22105211.742                    22105211.645
                        37.300
                  92088342.811 5  22187978.078                    22187979.332
                        33.000
                  84339414.702 4  20306651.883                    20306651.883
                        29.300
                  81227532.771 6  19591816.734                    19591818.914
                        37.900
                  91885631.710 5  22108041.305                    22108044.879
                        33.000
                  84804748.783 6  20425872.781                    20425873.598
                        37.400
                  90314811.577 5  21707232.336                    21707236.469
                        32.800
 119323490.842 7  92979341.07644  22706502.430                    22706504.840
        46.100          28.000
 118323925.064 7  92200474.76844  22516295.211                    22516297.789
        45.300          27.400
 124237343.153 6  96808275.42143  23641569.047                    23641572.082
        38.600          19.600
 117724690.483 7  91733546.80945  22402264.930                    22402270.195
        46.600          31.300
 111185219.766 7  86637858.19945  21157842.953                    21157848.488
        46.800          30.900
 118796618.797 7  92568851.55945  22606254.953                    22606261.336
        45.400          31.400
 119283165.547 7  92947962.30944  22698838.734                    22698841.836
        47.100          27.400
 18  3 11 12 53 45.0000000  0 16R05G15R04R06R13R14R15R22R23G28G11G19
                                G10G24G01G17
                  84444912.573 5  20310649.406                    20310651.719
                        33.700
 123202370.164 7  96001860.67843  23444632.945                    23444636.168
        44.300          22.500
                  92070872.146 6  22106039.289                    22106039.395
                        37.300
                  92085760.972 5  22187356.508                    22187357.145
                        33.200
                  84341863.753 4  20307242.281                    20307242.082
                        29.700
                  81226679.592 6  19591611.523                    19591613.578
                        37.400
                  91882705.933 5  22107337.445                    22107341.375
                        33.400
                  84805683.242 6  20426097.594                    20426098.332
                        37.700
                  90312218.027 5  21706607.672                    21706612.992
                        32.400
 119326401.628 7  92981609.22044  22707055.844                    22707058.711
        46.100          28.200
 118324842.021 7  92201189.27744  22516469.813                    22516472.223
        45.500          27.900
 124234002.739 6  96805672.50743  23640934.031                    23640936.262
        39.200          20.100
 117726223.151 7  91734741.09645  22402556.266                    22402561.516
        46.700          32.000
 111184265.679 7  86637114.75645  21157661.695                    21157667.320
        47.100          31.300
 118795582.330 7  92568043.93045  22606056.766                    22606063.383
        44.900          31.800
 119281212.289 7  92946440.30144  22698466.914                    22698470.180
        47.000          26.100
 18  3 11 12 53 46.0000000  0 16R05G15R04R06R13R14R15R22R23G28G11G19
                                G10G24G01G17
                  84445652.230 5  20310827.484                    20310829.641
                        33.700
 123206148.829 7  96004805.07943  23445352.828                    23445355.590
        45.100          22.500
                  92074318.691 6  22106866.602                    22106867.539
                        37.200
                  92083179.598 5  22186734.188                    22186735.371
                        33.500
                  84344313.333 5  20307831.898                    20307831.730
                        30.100
                  81225827.040 6  19591405.648                    19591407.605
                        38.000
                  91879780.380 5  22106633.031                    22106637.449
                        33.300
                  84806618.484 6  20426322.727                    20426324.051
                        37.800
                  90309624.938 5  21705985.078                    21705989.578
                        32.600
 119329312.826 7  92983877.69444  22707609.820                    22707612.770
        46.100          27.900
 118325759.726 7  92201904.37244  22516644.266                    22516647.055
        44.700          28.600
 124230662.721 6  96803069.90243  23640298.352                    23640301.035
        39.200          20.100
 117727756.549 7  91735935.96245  22402848.617                    22402853.664
        46.900          32.000
 111183312.248 7  86636371.83345  21157480.367                    21157485.816
        47.700          30.900
 118794546.596 7  92567236.87145  22605861.555                    22605866.730
        46.000          31.400
 119279259.537 7  92944918.68544  22698094.703                    22698098.152
        47.300          26.900
 18  3 11 12 53 47.0000000  0 16R05G15R04R06R13R14R15R22R23G28G11G19
                                G10G24G01G17
                  84446392.617 5  20311004.914                    20311007.500
                        34.000
 123209927.836 7  96007749.74944  23446071.727                    23446074.121
        45.100          24.000
                  92077765.607 6  22107693.969                    22107694.660
                        37.300
                  92080598.647 5  22186114.008                    22186113.629
                        33.000
                  84346763.443 4  20308422.070                    20308421.633
                        29.400
                  81224975.113 6  19591200.195                    19591201.887
                        38.100
                  91876855.118 5  22105930.055                    22105933.887
                        33.300
                  84807554.472 6  20426547.977                    20426549.496
                        37.400
                  90307032.314 5  21705361.578                    21705366.285
                        32.900
 119332224.434 7  92986146.47744  22708164.297                    22708166.719
        46.300          29.200
 118326678.227 7  92202620.08444  22516819.172                    22516821.781
        44.600          28.700
 124227323.033 6  96800467.54843  23639662.930                    23639665.180
        39.500          20.400
 117729290.612 7  91737131.34545  22403140.430                    22403145.426
        47.300          31.700
 111182359.495 7  86635629.42645  21157299.219                    21157304.512
        47.500          30.500
 118793511.525 7  92566430.33545  22605662.047                    22605669.965
        45.600          31.100
 119277307.309 7  92943397.47344  22697723.820                    22697726.637
        47.500          28.400
 18  3 11 12 53 48.0000000  0 16R05G15R04R06R13R14R15R22R23G28G11G19
                                G10G24G01G17
                  84447133.706 5  20311183.633                    20311185.609
                        34.200
 123213707.168 7  96010694.69044  23446790.531                    23446793.852
        45.000          24.000
                  92081212.866 6  22108521.211                    22108522.168
                        37.700
                  92078018.069 5  22185491.297                    22185492.246
                        34.400
                  84349214.044 5  20309011.156                    20309011.637
                        30.100
                  81224123.812 6  19590994.883                    19590996.645
                        38.200
                  91873930.086 5  22105224.828                    22105230.047
                        32.400
                  84808491.197 6  20426773.828                    20426774.898
                        37.700
                  90304440.136 5  21704738.227                    21704743.082
                        33.300
 119335136.399 7  92988415.53244  22708718.406                    22708720.645
        46.400          28.700
 118327597.498 7  92203336.39644  22516993.922                    22516996.563
        44.600          27.800
 124223983.692 6  96797865.44943  23639027.289                    23639029.895
        39.800          20.400
 117730825.366 7  91738327.26445  22403432.109                    22403437.313
        46.800          31.300
 111181407.366 7  86634887.50145  21157117.945                    21157123.328
        47.500          30.900
 118792477.185 7  92565624.35645  22605466.398                    22605472.641
        45.700          32.100
 119275355.558 7  92941876.63444  22697352.391                    22697355.883
        47.900          27.700
 18  3 11 12 53 49.0000000  0 16R05G15R04R06R13R14R15R22R23G28G11G19
                                G10G24G01G17
                  84447875.501 5  20311362.305                    20311363.691
                        34.200
 123217486.748 7  96013639.82443  23447509.211                    23447513.031
        44.700          22.200
                  92084660.421 6  22109348.516                    22109349.980
                        37.600
                  92075437.872 5  22184869.844                    22184870.418
                        33.400
                  84351665.092 5  20309601.133                    20309601.402
                        30.100
                  81223273.077 6  19590789.563                    19590791.461
                        38.400
                  91871005.291 5  22104522.023                    22104526.211
                        33.600
                  84809428.614 6  20426999.328                    20427000.816
                        38.000
                  90301848.354 5  21704115.383                    21704120.789
                        32.200
 119338048.716 7  92990684.87044  22709272.563                    22709275.098
        46.000          28.800
 118328517.437 7  92204053.23344  22517169.594                    22517171.535
        45.500          29.000
 124220644.587 6  96795263.54943  23638392.117                    23638394.789
        39.900          19.600
 117732360.726 7  91739523.65145  22403723.781                    22403729.387
        46.700          30.600
 111180455.813 7  86634146.03345  21156936.367                    21156942.180
        47.000          31.200
 118791443.484 7  92564818.87345  22605269.914                    22605276.758
        45.100          31.600
 119273404.254 7  92940356.13844  22696980.648                    22696984.625
        47.000          28.000
 18  3 11 12 53 50.0000000  0 16R05G15R04R06R13R14R15R22R23G28G11G19
                                G10G24G01G17
                  84448618.109 5  20311541.398                    20311542.965
                        34.100
 123221266.762 7  96016585.31343  23448228.664                    23448232.180
        44.500          22.900
                  92088108.347 6  22110177.594                    22110177.926
                        36.900
                  92072858.166 5  22184248.875                    22184248.605
                        33.600
                  84354116.706 4  20310192.148                    20310191.824
                        29.900
                  81222423.014 6  19590584.539                    19590586.473
                        37.900
                  91868080.812 5  22103819.148                    22103822.699
                        32.700
                  84810366.829 6  20427225.586                    20427226.969
                        37.600
                  90299257.056 5  21703493.836                    21703497.301
                        33.100
 119340961.456 7  92992954.53744  22709827.266                    22709829.375
        45.900          29.300
 118329438.216 7  92204770.71844  22517345.305                    22517347.098
        46.200          28.300
 124217305.938 6  96792661.98343  23637756.953                    23637759.453
        39.700          19.900
 117733896.851 7  91740720.64145  22404015.992                    22404021.863
        46.700          31.500
 111179505.005 7  86633405.14645  21156755.914                    21156761.172
        46.700          31.400
 118790410.524 7  92564013.96345  22605072.266                    22605079.836
        44.600          32.100
 119271453.507 7  92938836.08144  22696609.227                    22696613.137
        46.500          26.800
 18  3 11 12 53 51.0000000  0 16R05G15R04R06R13R14R15R22R23G28G11G19
                                G10G24G01G17
                  84449361.417 5  20311720.508                    20311721.129
                        34.100
 123225047.051 7  96019531.01143  23448948.102                    23448951.727
        44.100          22.600
                  92091556.595 6  22111004.898                    22111005.867
                        37.200
                  92070278.824 5  22183626.797                    22183627.336
                        33.400
                  84356568.774 5  20310781.828                    20310782.051
                        30.800
                  81221573.544 6  19590379.055                    19590381.859
                        38.100
                  91865156.563 5  22103113.953                    22103119.000
                        32.200
                  84811305.782 6  20427451.531                    20427452.941
                        37.300
                  90296666.167 5  21702870.039                    21702874.820
                        33.500
 119343874.572 7  92995224.49144  22710381.227                    22710383.828
        45.600          28.500
 118330359.704 7  92205488.76244  22517520.555                    22517522.426
        46.500          28.200
 124213967.544 6  96790060.63043  23637121.617                    23637124.012
        39.500          19.600
 117735433.606 7  91741918.11545  22404308.164                    22404314.605
        46.600          31.200
 111178554.808 7  86632664.73345  21156574.820                    21156580.676
        46.400          30.700
 118789378.274 7  92563209.61445  22604877.555                    22604883.289
        45.200          31.600
 119269503.224 7  92937316.39044  22696238.586                    22696242.191
        47.300          27.500
 18  3 11 12 53 52.0000000  0 16R05G15R04R06R13R14R15R22R23G28G11G19
                                G10G24G01G17
                  84450105.447 5  20311899.164                    20311900.531
                        33.800
 123228827.611 7  96022476.90643  23449667.078                    23449671.102
        43.900          22.800
                  92095005.130 6  22111833.289                    22111834.082
                        36.700
                  92067699.851 5  22183005.031                    22183005.797
                        32.900
                  84359021.335 5  20311374.484                    20311372.730
                        30.300
                  81220724.688 6  19590174.883                    19590176.961
                        38.100
                  91862232.581 5  22102411.625                    22102414.875
                        32.200
                  84812245.413 6  20427677.648                    20427679.898
                        37.400
                  90294075.694 5  21702247.727                    21702252.309
                        33.100
 119346788.018 7  92997494.71244  22710935.555                    22710937.859
        46.200          29.100
 118331281.921 7  92206207.38744  22517696.086                    22517697.695
        46.600          28.700
 124210629.459 6  96787459.52043  23636486.266                    23636488.637
        39.400          19.300
 117736970.963 7  91743116.05345  22404600.875                    22404607.285
        46.900          30.900
 111177605.213 7  86631924.79245  21156393.805                    21156399.719
        45.700          31.000
 118788346.636 7  92562405.73045  22604679.852                    22604687.375
        44.500          31.800
 119267553.404 7  92935797.05944  22695867.898                    22695871.191
        47.500          28.100
 18  3 11 12 53 53.0000000  0 16R05G15R04R06R13R14R15R22R23G28G11G19
                                G10G24G01G17
                  84450850.216 5  20312078.516                    20312079.258
                        34.100
 123232608.520 7  96025423.06243  23450387.164                    23450390.258
        43.300          21.800
                  92098454.091 6  22112660.672                    22112661.938
                        37.100
                  92065121.314 5  22182383.563                    22182384.574
                        33.000
                  84361474.416 4  20311963.836                    20311963.734
                        29.800
                  81219876.456 6  19589970.297                    19589972.250
                        38.100
                  91859308.837 5  22101708.352                    22101712.027
                        33.100
                  84813185.818 6  20427905.016                    20427906.223
                        37.800
                  90291485.647 5  21701625.406                    21701629.305
                        33.100
 119349701.868 7  92999765.23744  22711490.492                    22711492.762
        45.700          28.300
 118332204.902 7  92206926.60244  22517871.398                    22517873.586
        46.100          28.700
 124207291.720 6  96784858.69542  23635851.852                    23635853.254
        39.500          17.800
 117738509.045 7  91744314.55545  22404893.672                    22404899.477
        47.000          30.600
 111176656.274 7  86631185.36345  21156213.242                    21156218.961
        45.500          30.500
 118787315.720 7  92561602.41745  22604484.531                    22604490.625
        44.600          30.900
 119265604.088 7  92934278.10444  22695496.188                    22695500.055
        47.000          27.500
 18  3 11 12 53 54.0000000  0 16R05G15R04R06R13R14R15R22R23G28G11G19
                                G10G24G01G17
                  84451595.774 5  20312256.602                    20312258.746
                        34.000
 123236389.821 7  96028369.51643  23451107.164                    23451109.898
        43.400          23.900
                  92101903.463 6  22113488.016                    22113489.523
                        37.300
                  92062543.225 5  22181761.516                    22181763.484
                        33.500
                  84363928.042 5  20312554.750                    20312554.152
                        30.100
                  81219028.887 6  19589765.617                    19589767.988
                        38.100
                  91856385.437 5  22101003.594                    22101008.520
                        32.900
                  84814127.014 6  20428131.414                    20428132.875
                        37.500
                  90288896.101 5  21701000.867                    21701007.172
                        32.600
 119352616.164 7  93002036.11844  22712044.625                    22712047.414
        45.500          28.000
 118333128.731 7  92207646.47444  22518046.555                    22518049.582
        45.300          28.200
 124203954.395 6  96782258.16542  23635215.461                    23635218.227
        39.300          17.400
 117740047.854 7  91745513.63345  22405186.875                    22405192.695
        46.700          31.400
 111175708.029 7  86630446.47445  21156033.109                    21156038.508
        45.200          30.700
 118786285.588 7  92560799.71045  22604289.070                    22604294.672
        45.000          31.900
 119263655.332 7  92932759.58344  22695125.320                    22695129.504
        46.300          27.300
 18  3 11 12 53 55.0000000  0 16R05G15R04R06R13R14R15R22R23G28G11G19
                                G10G24G01G17
                  84452342.048 5  20312436.867                    20312438.105
                        34.400
 123240171.407 7  96031316.20043  23451826.688                    23451829.355
        44.300          22.600
                  92105353.154 6  22114317.930                    22114318.270
                        38.200
                  92059965.507 5  22181141.195                    22181142.113
                        32.900
                  84366382.160 5  20313145.383                    20313145.219
                        30.600
                  81218181.923 6  19589561.234                    19589563.633
                        38.400
                  91853462.279 5  22100301.688                    22100305.418
                        32.900
                  84815068.909 6  20428357.797                    20428359.496
                        37.400
                  90286306.986 5  21700379.539                    21700383.977
                        32.600
 119355530.814 7  93004307.26244  22712599.141                    22712601.766
        45.400          29.200
 118334053.270 7  92208366.89644  22518222.656                    22518225.219
        45.300          27.900
 124200617.312 6  96779657.84542  23634581.438                    23634582.770
        38.800          16.900
 117741587.317 7  91746713.20245  22405479.906                    22405485.555
        46.900          31.300
 111174760.416 7  86629708.07345  21155852.336                    21155858.059
        45.600          30.800
 118785256.093 7  92559997.51045  22604092.188                    22604099.117
        44.900          31.800
 119261707.035 7  92931241.42744  22694755.727                    22694758.535
        47.200          27.000
 18  3 11 12 53 56.0000000  0 16R05G15R04R06R13R14R15R22R23G28G11G19
                                G10G24G01G17
                  84453089.081 5  20312616.242                    20312617.832
                        34.200
 123243953.315 7  96034263.13143  23452546.523                    23452549.285
        44.400          22.900
                  92108803.162 6  22115145.109                    22115147.031
                        37.200
                  92057388.227 5  22180520.430                    22180521.426
                        33.100
                  84368836.807 4  20313736.391                    20313736.148
                        29.900
                  81217335.620 6  19589357.398                    19589359.348
                        38.200
                  91850539.378 5  22099598.766                    22099602.660
                        33.200
                  84816011.587 6  20428584.195                    20428586.414
                        37.700
                  90283718.324 5  21699758.383                    21699762.070
                        32.900
 119358445.895 7  93006578.75444  22713154.141                    22713156.418
        45.500          28.100
 118334978.601 7  92209087.92044  22518398.375                    22518401.445
        45.500          27.900
 124197280.626 6  96777057.82542  23633946.391                    23633948.133
        38.100          17.400
 117743127.460 7  91747913.30945  22405772.672                    22405778.398
        46.800          31.100
 111173813.438 7  86628970.17345  21155672.906                    21155678.094
        45.300          30.600
 118784227.337 7  92559195.87345  22603897.758                    22603903.059
        45.300          32.100
 119259759.290 7  92929723.69144  22694384.641                    22694388.336
        47.200          27.200
 18  3 11 12 53 57.0000000  0 16R05G15R04R06R13R14R15R22R23G28G11G19
                                G10G24G01G17
                  84453836.874 5  20312796.891                    20312797.922
                        33.700
 123247735.591 7  96037210.36243  23453266.594                    23453269.004
        45.000          22.800
                  92112253.522 6  22115974.883                    22115975.328
                        37.400
                  92054811.395 5  22179899.336                    22179900.695
                        32.400
                  84371291.996 4  20314326.586                    20314327.090
                        29.900
                  81216489.930 6  19589153.375                    19589155.707
                        38.300
                  91847616.792 5  22098895.031                    22098899.047
                        33.300
                  84816955.025 6  20428812.047                    20428813.934
                        37.900
                  90281130.103 5  21699136.734                    21699140.266
                        32.400
 119361361.354 7  93008850.53644  22713708.758                    22713711.148
        45.600          28.500
 118335904.694 7  92209809.55544  22518575.172                    22518577.352
        45.700          27.200
 124193944.270 6  96774458.05642  23633310.703                    23633313.082
        37.600          17.400
 117744668.293 7  91749113.94945  22406066.078                    22406072.035
        46.700          30.600
 111172867.137 7  86628232.80245  21155492.328                    21155497.566
        45.200          30.900
 118783199.300 7  92558394.80345  22603701.531                    22603707.746
        45.300          32.000
 119257812.047 7  92928206.35444  22694013.219                    22694017.246
        46.100          26.700
 18  3 11 12 53 58.0000000  0 16R05G15R04R06R13R14R15R22R23G28G11G19
                                G10G24G01G17
                  84454585.376 5  20312976.453                    20312977.973
                        33.700
 123251518.104 7  96040157.78543  23453985.750                    23453988.953
        45.400          22.600
                  92115704.228 6  22116803.969                    22116803.492
                        37.100
                  92052234.930 5  22179279.594                    22179279.695
                        33.200
                  84373747.642 5  20314919.008                    20314919.297
                        30.100
                  81215644.843 6  19588949.195                    19588951.141
                        37.900
                  91844694.427 5  22098192.148                    22098196.113
                        33.400
                  84817899.163 6  20429040.531                    20429040.910
                        37.400
                  90278542.327 5  21698514.680                    21698518.305
                        32.600
 119364277.167 7  93011122.59744  22714263.703                    22714266.156
        45.400          28.600
 118336831.530 7  92210531.77144  22518751.578                    22518754.109
        45.700          27.900
 124190608.207 6  96771858.50542  23632675.859                    23632678.117
        37.500          15.600
 117746209.782 7  91750315.10545  22406359.672                    22406364.707
        46.700          31.600
 111171921.424 7  86627495.88545  21155312.398                    21155318.027
        45.600          30.400
 118782171.885 7  92557594.22245  22603505.859                    22603511.637
        45.500          32.300
 119255865.269 7  92926689.38644  22693643.055                    22693646.934
        46.100          27.600
 18  3 11 12 53 59.0000000  0 16R05G15R04R06R13R14R15R22R23G28G11G19
                                G10G24G01G17
                  84455334.569 5  20313156.570                    20313157.914
                        34.200
 123255300.956 7  96043105.45043  23454704.844                    23454708.680
        45.100          22.600
                  92119155.208 6  22117632.125                    22117631.934
                        37.200
                  92049658.856 5  22178658.133                    22178658.898
                        33.100
                  84376203.748 5  20315510.273                    20315510.098
                        31.200
                  81214800.342 6  19588745.859                    19588747.813
                        37.900
                  91841772.328 5  22097487.555                    22097492.879
                        33.600
                  84818844.023 6  20429267.164                    20429268.242
                        37.600
                  90275954.979 5  21697893.844                    21697896.316
                        33.500
 119367193.340 7  93013394.94544  22714818.563                    22714821.344
        45.600          27.900
 118337759.071 7  92211254.54044  22518927.273                    22518930.504
        45.000          27.800
 124187272.450 6  96769259.22042  23632040.758                    23632043.461
        37.600          16.300
 117747751.913 7  91751516.76745  22406653.227                    22406658.762
        46.500          31.200
 111170976.330 7  86626759.45245  21155132.898                    21155137.887
        45.200          30.900
 118781145.174 7  92556794.18945  22603310.898                    22603316.313
        45.900          32.400
 119253918.983 7  92925172.80644  22693273.625                    22693276.527
        46.800          26.800
 18  3 11 12 54  0.0000000  0 16R05G15R04R06R13R14R15R22R23G28G11G19
                                G10G24G01G17
                  84456084.531 5  20313336.094                    20313338.770
                        33.600
 123259084.120 7  96046053.37943  23455424.695                    23455428.566
        44.100          22.600
                  92122606.557 6  22118460.781                    22118460.586
                        37.200
                  92047083.228 5  22178037.609                    22178038.395
                        33.100
                  84378660.407 4  20316100.984                    20316101.176
                        29.900
                  81213956.493 6  19588542.516                    19588544.391
                        37.500
                  91838850.513 5  22096786.375                    22096790.320
                        34.200
                  84819789.652 6  20429494.086                    20429496.852
                        37.200
                  90273368.032 5  21697271.070                    21697275.344
                        33.300
 119370109.910 7  93015667.60444  22715373.656                    22715376.219
        45.400          27.500
 118338687.438 7  92211977.94844  22519103.617                    22519107.449
        43.800          27.400
 124183937.073 6  96766660.25842  23631406.406                    23631409.055
        37.700          16.900
 117749294.737 7  91752718.96745  22406946.898                    22406952.250
        47.100          31.000
 111170031.929 7  86626023.54945  21154952.836                    21154958.152
        45.800          30.900
 118780119.168 7  92555994.70345  22603115.180                    22603121.629
        45.900          31.800
 119251973.228 7  92923656.61644  22692902.719                    22692906.184
        46.700          28.300
 18  3 11 12 54  1.0000000  0 16R05G15R04R06R13R14R15R22R23G28G11G19
                                G10G24G01G17
                  84456835.244 5  20313517.273                    20313519.316
                        33.600
 123262867.690 7  96049001.62443  23456144.328                    23456148.543
        44.300          22.200
                  92126058.307 6  22119288.047                    22119289.492
                        37.100
                  92044508.015 5  22177417.680                    22177417.594
                        33.200
                  84381117.587 4  20316693.086                    20316693.137
                        29.800
                  81213113.299 6  19588338.898                    19588340.781
                        37.400
                  91835928.979 5  22096081.781                    22096086.918
                        34.000
                  84820736.056 6  20429723.250                    20429724.059
                        37.500
                  90270781.584 5  21696648.461                    21696653.453
                        33.100
 119373026.912 7  93017940.59644  22715928.891                    22715930.891
        45.500          28.200
 118339616.593 7  92212701.94544  22519280.852                    22519283.938
        43.800          26.200
 124180602.084 6  96764061.58043  23630771.438                    23630774.109
        38.300          18.300
 117750838.291 7  91753921.73045  22407240.516                    22407245.488
        47.200          31.500
 111169088.235 7  86625288.20345  21154773.531                    21154778.926
        45.300          30.700
 118779093.901 7  92555195.80245  22602920.250                    22602925.945
        46.000          31.300
 119250027.981 7  92922140.83144  22692531.852                    22692536.063
        45.300          27.900
 18  3 11 12 54  2.0000000  0 16R05G15R04R06R13R14R15R22R23G28G11G19
                                G10G24G01G17
                  84457586.682 5  20313697.945                    20313699.441
                        33.800
 123266651.571 7  96051950.08643  23456865.352                    23456868.621
        44.300          23.600
                  92129510.377 6  22120117.422                    22120118.004
                        37.100
                  92041933.219 5  22176797.453                    22176797.090
                        33.000
                  84383575.280 5  20317285.000                    20317284.887
                        30.700
                  81212270.730 6  19588136.031                    19588137.629
                        37.500
                  91833007.752 5  22095379.625                    22095384.473
                        33.500
                  84821683.182 6  20429951.383                    20429952.633
                        37.500
                  90268195.619 5  21696026.609                    21696031.977
                        33.100
 119375944.279 7  93020213.86844  22716483.992                    22716486.043
        45.800          28.500
 118340546.485 7  92213426.51044  22519458.719                    22519460.781
        44.900          27.400
 124177267.425 6  96761463.13343  23630137.648                    23630139.770
        38.900          18.600
 117752382.499 7  91755124.99845  22407534.484                    22407539.469
        47.600          31.300
 111168145.160 7  86624553.34445  21154594.141                    21154599.242
        45.700          31.200
 118778069.313 7  92554397.42345  22602724.992                    22602730.926
        45.800          31.200
 119248083.264 7  92920625.48044  22692162.219                    22692165.715
        46.400          28.300
 18  3 11 12 54  3.0000000  0 16R05G15R04R06R13R14R15R22R23G28G11G19
                                G10G24G01G17
                  84458338.886 5  20313879.359                    20313880.926
                        34.100
 123270435.790 7  96054898.81943  23457585.414                    23457588.609
        44.400          22.800
                  92132962.788 6  22120946.320                    22120947.363
                        37.700
                  92039358.823 5  22176178.211                    22176177.508
                        33.400
                  84386033.511 5  20317876.578                    20317877.023
                        30.600
                  81211428.801 6  19587932.633                    19587934.785
                        37.600
                  91830086.797 5  22094676.727                    22094681.391
                        33.100
                  84822631.074 6  20430179.742                    20430180.512
                        37.600
                  90265610.094 5  21695406.758                    21695410.699
                        31.700
 119378862.086 7  93022487.48344  22717038.805                    22717041.723
        46.000          28.300
 118341477.137 7  92214151.68544  22519636.648                    22519637.637
        46.000          28.000
 124173933.099 6  96758864.96943  23629503.250                    23629505.363
        39.000          19.300
 117753927.403 7  91756328.81245  22407828.453                    22407833.473
        47.400          31.700
 111167202.785 7  86623819.02645  21154414.969                    21154420.082
        46.000          30.900
 118777045.463 7  92553599.61845  22602530.164                    22602536.602
        45.800          30.800
 119246139.103 7  92919110.58044  22691793.359                    22691795.930
        47.400          27.500
 18  3 11 12 54  4.0000000  0 16R05G15R04R06R13R14R15R22R23G28G11G19
                                G10G24G01G17
                  84459091.806 5  20314060.008                    20314061.645
                        34.300
 123274220.285 7  96057847.78043  23458306.055                    23458308.809
        45.100          22.500
                  92136415.520 6  22121774.820                    22121776.090
                        37.000
                  92036784.812 5  22175557.109                    22175557.582
                        32.700
                  84388492.211 4  20318468.250                    20318468.926
                        29.600
                  81210587.453 6  19587730.164                    19587731.984
                        38.000
                  91827166.056 5  22093974.125                    22093978.004
                        33.600
                  84823579.676 6  20430408.086                    20430409.949
                        37.900
                  90263024.972 5  21694784.133                    21694789.109
                        31.900
 119381780.194 7  93024761.32544  22717594.656                    22717596.699
        46.300          29.000
 118342408.518 7  92214877.43944  22519813.859                    22519815.504
        46.600          27.600
 124170599.089 6  96756267.03943  23628868.281                    23628870.863
        39.700          19.600
 117755472.936 7  91757533.12645  22408122.594                    22408127.859
        47.500          30.900
 111166261.029 7  86623085.19445  21154235.523                    21154241.086
        46.600          31.400
 118776022.271 7  92552802.32845  22602335.375                    22602341.770
        45.800          31.400
 119244195.398 7  92917596.01544  22691422.547                    22691426.156
        46.900          27.400
 18  3 11 12 54  5.0000000  0 16R05G15R04R06R13R14R15R22R23G28G11G19
                                G10G24G01G17
                  84459845.470 5  20314241.305                    20314242.914
                        33.900
 123278005.089 7  96060796.97943  23459025.984                    23459028.871
        45.200          22.600
                  92139868.611 6  22122604.977                    22122605.242
                        37.300
                  92034211.194 5  22174935.797                    22174936.898
                        33.700
                  84390951.453 5  20319060.555                    20319061.055
                        30.200
                  81209746.719 6  19587526.906                    19587528.746
                        38.300
                  91824245.583 5  22093272.063                    22093275.953
                        33.800
                  84824529.044 6  20430635.859                    20430637.961
                        37.900
                  90260440.335 5  21694164.289                    21694167.594
                        32.100
 119384698.724 7  93027035.50144  22718149.984                    22718152.277
        45.900          28.100
 118343340.650 7  92215603.80044  22519990.609                    22519992.824
        46.500          28.300
 124167265.426 6  96753669.38943  23628234.453                    23628236.480
        40.000          20.400
 117757019.119 7  91758737.93845  22408416.398                    22408421.969
        47.500          31.600
 111165319.899 7  86622351.84745  21154056.344                    21154061.898
        46.700          31.000
 118774999.791 7  92552005.59445  22602139.797                    22602146.984
        45.100          31.900
 119242252.158 7  92916081.81644  22691051.875                    22691056.008
        45.500          27.500
 18  3 11 12 54  6.0000000  0 16R05G15R04R06R13R14R15R22R23G28G11G19
                                G10G24G01G17
                  84460599.887 5  20314423.023                    20314424.785
                        33.700
 123281790.239 7  96063746.45844  23459746.492                    23459749.047
        45.100          24.400
                  92143322.051 6  22123434.008                    22123434.652
                        38.200
                  92031637.999 5  22174317.188                    22174317.039
                        33.400
                  84393411.182 4  20319652.234                    20319652.469
                        29.900
                  81208906.630 6  19587323.922                    19587325.969
                        38.100
                  91821325.395 5  22092569.719                    22092573.578
                        33.500
                  84825479.165 6  20430864.844                    20430866.551
                        37.900
                  90257856.124 5  21693543.398                    21693546.922
                        32.500
 119387617.618 7  93029309.96644  22718705.109                    22718707.219
        46.000          27.900
 118344273.559 7  92216330.77044  22520167.453                    22520170.293
        45.900          28.400
 124163932.108 6  96751072.01943  23627600.008                    23627602.195
        40.600          20.600
 117758566.021 7  91759943.31645  22408710.688                    22408716.234
        47.200          31.400
 111164379.433 7  86621619.02145  21153877.719                    21153882.934
        47.000          31.500
 118773978.007 7  92551209.39845  22601946.359                    22601952.543
        45.500          30.900
 119240309.455 7  92914568.05144  22690683.047                    22690686.293
        46.600          28.200
 18  3 11 12 54  7.0000000  0 16R05G15R04R06R13R14R15R22R23G28G11G19
                                G10G24G01G17
                  84461355.048 5  20314604.570                    20314605.922
                        34.300
 123285575.710 7  96066696.19344  23460466.414                    23460469.523
        44.700          25.300
                  92146775.822 6  22124263.063                    22124264.137
                        38.500
                  92029065.215 5  22173696.133                    22173697.527
                        33.700
                  84395871.409 5  20320245.063                    20320244.785
                        30.700
                  81208067.184 6  19587121.477                    19587123.574
                        38.200
                  91818405.429 5  22091866.320                    22091870.609
                        33.900
                  84826430.016 6  20431095.055                    20431095.934
                        37.400
                  90255272.320 5  21692920.305                    21692925.617
                        32.100
 119390536.903 7  93031584.72444  22719260.742                    22719262.871
        46.300          28.100
 118345207.231 7  92217058.32244  22520344.672                    22520347.973
        45.100          27.000
 124160599.097 6  96748474.87143  23626965.672                    23626968.211
        41.200          21.800
 117760113.579 7  91761149.19945  22409005.008                    22409011.039
        47.100          31.300
 111163439.600 7  86620886.68645  21153698.766                    21153704.207
        46.600          31.000
 118772956.905 7  92550413.72945  22601751.922                    22601758.512
        45.600          30.700
 119238367.283 7  92913054.70044  22690314.477                    22690316.762
        47.800          26.500
 18  3 11 12 54  8.0000000  0 16R05G15R04R06R13R14R15R22R23G28G11G19
                                G10G24G01G17
                  84462110.963 5  20314786.992                    20314787.727
                        34.100
 123289361.517 7  96069646.17243  23461186.305                    23461189.914
        44.200          22.300
                  92150229.940 6  22125092.945                    22125093.332
                        37.900
                  92026492.861 5  22173076.250                    22173077.125
                        33.600
                  84398332.150 5  20320837.258                    20320837.508
                        30.900
                  81207228.376 6  19586919.844                    19586921.543
                        38.300
                  91815485.770 5  22091164.313                    22091168.234
                        34.000
                  84827381.590 6  20431324.117                    20431324.996
                        37.500
                  90252689.014 5  21692301.273                    21692304.156
                        32.900
 119393456.600 7  93033859.81844  22719815.938                    22719818.398
        46.000          27.100
 118346141.685 7  92217786.45644  22520522.820                    22520525.703
        45.000          27.500
 124157266.443 6  96745877.98843  23626331.797                    23626334.063
        41.200          22.000
 117761661.843 7  91762355.63945  22409299.148                    22409305.668
        46.300          31.200
 111162500.449 7  86620154.88045  21153519.773                    21153525.836
        46.800          31.100
 118771936.513 7  92549618.61545  22601557.219                    22601563.887
        45.500          30.800
 119236425.585 7  92911541.68744  22689944.016                    22689947.734
        47.300          27.800
 18  3 11 12 54  9.0000000  0 16R05G15R04R06R13R14R15R22R23G28G11G19
                                G10G24G01G17
                  84462867.607 5  20314968.383                    20314969.496
                        33.800
 123293147.643 7  96072596.39243  23461906.539                    23461910.605
        44.200          22.600
                  92153684.377 6  22125921.758                    22125922.574
                        38.200
                  92023920.915 5  22172455.625                    22172457.949
                        33.700
                  84400793.383 5  20321429.961                    20321430.301
                        31.300
                  81206390.175 6  19586717.539                    19586719.359
                        38.300
                  91812566.352 5  22090460.156                    22090465.547
                        34.000
                  84828333.925 6  20431551.922                    20431554.660
                        37.400
                  90250106.136 5  21691678.766                    21691683.922
                        33.400
 119396376.674 7  93036135.19744  22720372.555                    22720374.367
        45.300          28.000
 118347076.912 7  92218515.18444  22520701.211                    22520703.523
        45.800          27.500
 124153934.144 6  96743281.37843  23625697.344                    23625699.977
        41.100          21.500
 117763210.783 7  91763562.59245  22409593.555                    22409600.191
        45.700          30.500
 111161561.912 7  86619423.55045  21153341.031                    21153346.730
        47.000          30.900
 118770916.824 7  92548824.04245  22601364.000                    22601370.063
        45.700          31.400
 119234484.354 7  92910029.03644  22689573.523                    22689577.871
        46.000          28.500
 18  3 11 12 54 10.0000000  0 16R05G15R04R06R13R14R15R22R23G28G11G19
                                G10G24G01G17
                  84463625.005 5  20315150.703                    20315152.496
                        34.200
 123296934.139 7  96075546.90644  23462627.219                    23462631.266
        43.500          24.200
                  92157139.201 6  22126750.938                    22126751.648
                        37.600
                  92021349.445 5  22171836.414                    22171838.371
                        32.900
                  84403255.159 5  20322023.000                    20322023.199
                        31.200
                  81205552.597 6  19586515.383                    19586517.293
                        37.900
                  91809647.256 5  22089758.023                    22089763.148
                        34.000
                  84829287.041 6  20431781.398                    20431783.953
                        37.500
                  90247523.710 5  21691057.016                    21691063.496
                        34.200
 119399297.144 7  93038410.89444  22720927.578                    22720930.094
        44.600          28.300
 118348012.901 7  92219244.51944  22520879.789                    22520881.590
        46.200          27.400
 124150602.193 6  96740685.06243  23625063.953                    23625065.809
        41.200          21.700
 117764760.425 7  91764770.08945  22409888.648                    22409894.996
        45.300          31.400
 111160624.037 7  86618692.74345  21153162.867                    21153168.305
        47.100          30.900
 118769897.892 7  92548030.06445  22601169.398                    22601176.305
        45.100          31.500
 119232543.683 7  92908516.84344  22689205.281                    22689208.402
        46.800          28.300
 18  3 11 12 54 11.0000000  0 16R05G15R04R06R13R14R15R22R23G28G11G19
                                G10G24G01G17
                  84464383.109 5  20315333.641                    20315335.020
                        34.100
 123300720.943 7  96078497.64543  23463347.953                    23463351.785
        43.200          23.000
                  92160594.397 6  22127580.672                    22127581.164
                        37.100
                  92018778.323 5  22171217.578                    22171218.719
                        33.600
                  84405717.436 5  20322615.664                    20322616.117
                        30.800
                  81204715.645 6  19586313.172                    19586315.148
                        37.900
                  91806728.384 5  22089056.156                    22089060.906
                        33.600
                  84830240.880 6  20432012.008                    20432013.813
                        37.600
                  90244941.754 5  21690437.203                    21690442.742
                        33.000
 119402218.005 7  93040686.88644  22721483.523                    22721485.805
        44.700          27.600
 118348949.626 7  92219974.44544  22521057.625                    22521059.906
        46.000          28.600
 124147270.549 6  96738088.98343  23624430.148                    23624432.113
        40.500          20.600
 117766310.749 7  91765978.11045  22410184.125                    22410189.848
        45.100          30.500
 111159686.804 7  86617962.42845  21152984.391                    21152989.590
        47.000          31.800
 118768879.624 7  92547236.60545  22600976.383                    22600982.121
        45.200          32.300
 119230603.515 7  92907005.03944  22688836.961                    22688839.855
        47.900          28.500
 18  3 11 12 54 12.0000000  0 16R05G15R04R06R13R14R15R22R23G28G11G19
                                G10G24G01G17
                  84465141.938 5  20315515.680                    20315516.770
                        34.600
 123304508.045 7  96081448.60543  23464068.742                    23464072.402
        43.600          22.600
                  92164049.904 6  22128410.508                    22128411.320
                        37.200
                  92016207.604 5  22170598.984                    22170598.965
                        32.700
                  84408180.188 5  20323209.109                    20323208.617
                        30.900
                  81203879.298 6  19586111.828                    19586114.027
                        38.000
                  91803809.796 5  22088355.125                    22088359.203
                        33.600
                  84831195.440 6  20432242.922                    20432243.492
                        37.500
                  90242360.218 5  21689818.758                    21689822.953
                        32.900
 119405139.202 7  93042963.14644  22722039.805                    22722041.754
        45.200          28.600
 118349887.076 7  92220704.94044  22521235.125                    22521238.508
        44.800          28.400
 124143939.259 6  96735493.16643  23623795.180                    23623798.004
        40.100          20.400
 117767861.710 7  91767186.62945  22410478.688                    22410485.379
        45.600          30.600
 111158750.204 7  86617232.61145  21152806.305                    21152811.676
        47.400          31.200
 118767862.060 7  92546443.70645  22600782.859                    22600789.254
        45.200          32.200
 119228663.807 7  92905493.56744  22688467.266                    22688470.383
        47.700          27.200
 18  3 11 12 54 13.0000000  0 16R05G15R04R06R13R14R15R22R23G28G11G19
                                G10G24G01G17
                  84465901.487 5  20315698.289                    20315700.324
                        34.200
 123308295.442 7  96084399.81943  23464790.688                    23464793.113
        44.100          23.400
                  92167505.685 6  22129239.789                    22129240.859
                        37.500
                  92013637.322 5  22169980.453                    22169979.766
                        33.000
                  84410643.448 5  20323802.133                    20323802.102
                        31.100
                  81203043.592 6  19585910.172                    19585912.508
                        38.100
                  91800891.459 5  22087652.664                    22087656.809
                        34.000
                  84832150.732 6  20432472.922                    20432473.621
                        37.700
                  90239779.096 5  21689197.172                    21689202.484
                        32.500
 119408060.792 7  93045239.70944  22722595.320                    22722597.738
        45.100          28.200
 118350825.304 7  92221436.03844  22521413.250                    22521417.188
        43.700          28.500
 124140608.267 6  96732897.59543  23623161.633                    23623164.242
        39.800          19.600
 117769413.334 7  91768395.66845  22410774.930                    22410780.656
        45.500          30.700
 111157814.235 7  86616503.28545  21152628.008                    21152633.477
        47.600          30.900
 118766845.158 7  92545651.32345  22600588.633                    22600595.184
        45.200          32.200
 119226724.567 7  92903982.46244  22688096.984                    22688101.785
        46.300          27.100
 18  3 11 12 54 14.0000000  0 16R05G15R04R06R13R14R15R22R23G28G11G19
                                G10G24G01G17
                  84466661.813 5  20315881.539                    20315883.168
                        34.000
 123312083.163 7  96087351.30343  23465511.664                    23465513.996
        44.700          22.300
                  92170961.834 6  22130069.484                    22130070.734
                        37.300
                  92011067.453 5  22169360.523                    22169360.609
                        33.100
                  84413107.222 5  20324395.922                    20324395.195
                        31.100
                  81202208.501 6  19585708.648                    19585710.992
                        38.400
                  91797973.402 5  22086949.563                    22086953.980
                        33.700
                  84833106.799 6  20432702.297                    20432704.246
                        37.700
                  90237198.430 5  21688577.453                    21688581.711
                        33.200
 119410982.788 7  93047516.57744  22723151.523                    22723153.535
        45.100          27.900
 118351764.347 7  92222167.74844  22521592.102                    22521595.750
        43.400          28.300
 124137277.620 6  96730302.28843  23622527.719                    23622530.270
        39.000          19.000
 117770965.656 7  91769605.25945  22411070.648                    22411075.957
        45.500          30.500
 111156878.940 7  86615774.48345  21152450.195                    21152455.363
        47.800          30.100
 118765828.949 7  92544859.47445  22600396.180                    22600401.957
        45.500          31.400
 119224785.823 7  92902471.75644  22687728.781                    22687732.328
        46.200          29.100
 18  3 11 12 54 15.0000000  0 16R05G15R04R06R13R14R15R22R23G28G11G19
                                G10G24G01G17
                  84467422.897 5  20316063.828                    20316065.793
                        34.100
 123315871.241 7  96090303.06843  23466231.945                    23466235.086
        45.300          23.200
                  92174418.355 6  22130898.461                    22130900.621
                        37.300
                  92008498.032 5  22168741.297                    22168741.328
                        33.100
                  84415571.517 5  20324987.656                    20324988.723
                        30.700
                  81201374.054 6  19585507.680                    19585509.359
                        38.200
                  91795055.613 5  22086248.844                    22086252.297
                        34.000
                  84834063.655 6  20432932.203                    20432934.473
                        37.600
                  90234618.232 5  21687958.234                    21687961.383
                        32.200
 119413905.185 7  93049793.76944  22723707.766                    22723709.785
        45.500          27.800
 118352704.169 7  92222900.05844  22521772.266                    22521774.309
        44.700          28.200
 124133947.347 6  96727707.26842  23621893.289                    23621896.316
        39.200          17.800
 117772518.699 7  91770815.41345  22411366.234                    22411371.551
        45.700          30.000
 111155944.299 8  86615046.19345  21152272.195                    21152277.180
        48.000          30.600
 118764813.473 7  92544068.19645  22600202.563                    22600209.184
        45.500          31.900
 119222847.662 7  92900961.51244  22687360.922                    22687363.742
        46.800          28.900
 18  3 11 12 54 16.0000000  0 16R05G15R04R06R13R14R15R22R23G28G11G19
                                G10G24G01G17
                  84468184.721 5  20316247.445                    20316248.656
                        33.400
 123319659.621 7  96093255.05543  23466952.484                    23466955.707
        45.300          23.900
                  92177875.218 6  22131730.047                    22131730.367
                        37.600
                  92005929.005 5  22168122.234                    22168122.109
                        32.800
                  84418036.332 5  20325581.891                    20325582.156
                        31.200
                  81200540.224 6  19585306.586                    19585308.773
                        38.100
                  91792138.085 5  22085546.898                    22085550.797
                        34.200
                  84835021.212 6  20433164.063                    20433164.914
                        37.400
                  90232038.467 5  21687336.805                    21687341.375
                        33.600
 119416827.956 7  93052071.25344  22724263.883                    22724266.281
        45.500          28.300
 118353644.682 7  92223632.90244  22521952.344                    22521953.090
        45.700          28.500
 124130617.405 6  96725112.54242  23621259.398                    23621262.816
        38.700          17.800
 117774072.395 7  91772026.08445  22411661.914                    22411667.035
        46.200          30.600
 111155010.300 7  86614318.39745  21152094.578                    21152099.703
        47.900          31.200
 118763798.705 7  92543277.47545  22600009.367                    22600015.566
        45.800          32.100
 119220909.992 7  92899451.63344  22686991.500                    22686995.109
        46.200          27.500
 18  3 11 12 54 17.0000000  0 16R05G15R04R06R13R14R15R22R23G28G11G19
                                G10G24G01G17
                  84468947.259 5  20316431.289                    20316432.473
                        33.800
 123323448.315 7  96096207.30543  23467672.930                    23467676.715
        45.100          22.800
                  92181332.426 6  22132559.422                    22132560.766
                        37.500
                  92003360.377 5  22167503.742                    22167503.926
                        33.700
                  84420501.597 5  20326175.375                    20326175.477
                        31.300
                  81199707.008 6  19585105.148                    19585107.188
                        38.000
                  91789220.850 5  22084845.000                    22084848.973
                        34.300
                  84835979.477 6  20433395.352                    20433396.242
                        37.300
                  90229459.118 5  21686715.898                    21686720.883
                        32.400
 119419751.080 7  93054349.00944  22724819.695                    22724822.027
        45.300          28.100
 118354585.952 7  92224366.35444  22522131.531                    22522132.488
        46.700          27.400
 124127287.783 6  96722518.02442  23620626.219                    23620629.074
        38.400          16.900
 117775626.704 7  91773237.23745  22411957.750                    22411962.953
        46.400          31.000
 111154076.939 8  86613591.11345  21151916.813                    21151922.313
        48.100          31.500
 118762784.577 7  92542487.25345  22599816.484                    22599822.844
        45.800          31.700
 119218972.785 7  92897942.10644  22686622.227                    22686626.672
        45.300          26.200
 18  3 11 12 54 18.0000000  0 16R05G15R04R06R13R14R15R22R23G28G11G19
                                G10G24G01G17
                  84469710.534 5  20316614.164                    20316615.691
                        34.000
 123327237.317 7  96099159.78243  23468394.117                    23468398.004
        44.600          22.900
                  92184789.972 6  22133390.117                    22133390.656
                        37.900
                  92000792.145 5  22166884.539                    22166884.840
                        34.200
                  84422967.382 5  20326768.984                    20326769.020
                        30.300
                  81198874.421 6  19584904.695                    19584906.504
                        38.000
                  91786303.842 5  22084142.813                    22084147.172
                        33.800
                  84836938.486 6  20433625.648                    20433627.188
                        37.400
                  90226880.270 5  21686097.227                    21686101.219
                        33.200
 119422674.597 7  93056627.07644  22725376.398                    22725378.922
        45.300          28.300
 118355527.950 7  92225100.39444  22522310.570                    22522312.203
        46.600          27.200
 124123958.468 6  96719923.73142  23619993.086                    23619995.309
        38.900          17.800
 117777181.719 7  91774448.94245  22412253.164                    22412258.773
        46.700          31.100
 111153144.191 8  86612864.29245  21151739.352                    21151744.754
        48.000          32.100
 118761771.178 7  92541697.59445  22599623.383                    22599630.086
        46.000          32.100
 119217036.060 7  92896432.98444  22686253.938                    22686257.367
        45.900          28.300
 18  3 11 12 54 19.0000000  0 16R05G15R04R06R13R14R15R22R23G28G11G19
                                G10G24G01G17
                  84470474.540 5  20316798.680                    20316799.777
                        33.900
 123331026.674 7  96102112.52144  23469115.172                    23469118.813
        44.200          24.000
                  92188247.870 6  22134219.945                    22134221.102
                        38.300
                  91998224.313 5  22166266.047                    22166266.164
                        34.100
                  84425433.674 5  20327363.180                    20327362.727
                        31.500
                  81198042.470 6  19584703.781                    19584705.941
                        38.400
                  91783387.092 5  22083439.945                    22083445.203
                        34.300
                  84837898.241 6  20433856.211                    20433857.910
                        37.400
                  90224301.862 5  21685477.992                    21685481.973
                        33.300
 119425598.493 7  93058905.42644  22725932.547                    22725934.863
        45.400          29.000
 118356470.718 7  92225835.03744  22522488.828                    22522491.563
        46.300          27.800
 124120629.502 6  96717329.70642  23619359.570                    23619361.813
        39.500          16.900
 117778737.394 7  91775661.15545  22412549.422                    22412554.883
        46.600          31.500
 111152212.069 8  86612137.96345  21151561.859                    21151567.488
        48.100          30.900
 118760758.480 7  92540908.48445  22599430.289                    22599437.000
        45.600          31.600
 119215099.863 7  92894924.28344  22685886.773                    22685889.469
        47.400          28.200
 18  3 11 12 54 20.0000000  0 16R05G15R04R06R13R14R15R22R23G28G11G19
                                G10G24G01G17
                  84471239.299 5  20316982.188                    20316983.973
                        33.800
 123334816.384 7  96105065.52043  23469836.305                    23469840.031
        44.300          22.500
                  92191706.109 6  22135050.141                    22135051.184
                        38.400
                  91995656.937 5  22165646.141                    22165648.320
                        34.400
                  84427900.457 4  20327957.680                    20327956.918
                        29.700
                  81197211.149 6  19584502.781                    19584505.539
                        37.600
                  91780470.669 5  22082738.672                    22082743.844
                        34.700
                  84838858.771 6  20434088.203                    20434089.137
                        37.900
                  90221723.937 5  21684857.188                    21684862.379
                        32.900
 119428522.813 7  93061184.11744  22726489.594                    22726491.434
        45.800          27.900
 118357414.298 7  92226570.31044  22522667.914                    22522670.953
        45.800          26.800
 124117300.908 6  96714735.99342  23618726.227                    23618728.371
        39.500          16.900
 117780293.786 7  91776873.92845  22412845.711                    22412850.898
        47.000          31.100
 111151280.661 7  86611412.19145  21151384.758                    21151389.801
        47.600          31.200
 118759746.486 7  92540119.92145  22599237.586                    22599244.711
        45.600          30.900
 119213164.221 7  92893415.99844  22685518.023                    22685521.188
        47.900          28.500
 18  3 11 12 54 21.0000000  0 16R05G15R04R06R13R14R15R22R23G28G11G19
                                G10G24G01G17
                  84472004.816 5  20317166.586                    20317167.953
                        33.800
 123338606.403 7  96108018.77143  23470557.906                    23470561.461
        44.600          23.000
                  92195164.698 6  22135880.867                    22135881.570
                        37.300
                  91993089.980 5  22165026.898                    22165029.652
                        34.100
                  84430367.792 5  20328550.992                    20328551.262
                        31.400
                  81196380.458 6  19584303.211                    19584305.484
                        37.800
                  91777554.511 5  22082036.711                    22082041.859
                        34.400
                  84839820.060 6  20434319.438                    20434320.340
                        37.500
                  90219146.453 5  21684238.438                    21684242.602
                        32.900
 119431447.504 7  93063463.10244  22727046.117                    22727048.113
        46.000          28.500
 118358358.652 7  92227306.18044  22522846.828                    22522850.723
        44.300          27.600
 124113972.662 6  96712142.55742  23618092.680                    23618094.953
        39.800          16.900
 117781850.869 7  91778087.22945  22413142.016                    22413147.305
        47.000          31.500
 111150349.910 7  86610686.93545  21151207.664                    21151213.098
        47.500          30.900
 118758735.250 7  92539331.95645  22599045.031                    22599052.215
        45.000          31.800
 119211229.039 7  92891908.05244  22685148.539                    22685153.004
        46.600          27.300
 18  3 11 12 54 22.0000000  0 16R05G15R04R06R13R14R15R22R23G28G11G19
                                G10G24G01G17
                  84472771.058 5  20317350.797                    20317351.875
                        34.200
 123342396.770 7  96110972.28943  23471279.430                    23471282.418
        45.100          22.600
                  92198623.642 6  22136711.813                    22136712.590
                        37.800
                  91990523.419 5  22164409.719                    22164411.188
                        33.800
                  84432835.589 5  20329145.156                    20329145.188
                        30.700
                  81195550.393 6  19584102.141                    19584105.352
                        37.900
                  91774638.622 5  22081336.117                    22081339.820
                        34.400
                  84840782.102 6  20434551.250                    20434552.855
                        37.800
                  90216569.412 5  21683620.242                    21683624.684
                        32.500
 119434372.612 7  93065742.40344  22727602.539                    22727605.004
        46.000          29.200
 118359303.774 7  92228042.63144  22523026.734                    22523030.445
        44.300          27.800
 124110644.765 6  96709549.36942  23617459.242                    23617461.188
        40.500          16.300
 117783408.629 7  91779301.06345  22413438.203                    22413443.813
        47.200          31.700
 111149419.835 7  86609962.19945  21151030.844                    21151035.973
        47.300          30.900
 118757724.684 7  92538544.50045  22598852.281                    22598859.852
        44.400          31.800
 119209294.370 7  92890400.51544  22684780.500                    22684784.727
        46.600          26.600
 18  3 11 12 54 23.0000000  0 16R05G15R04R06R13R14R15R22R23G28G11G19
                                G10G24G01G17
                  84473538.043 5  20317535.055                    20317536.234
                        34.600
 123346187.440 7  96113926.05243  23472000.930                    23472004.066
        46.000          23.300
                  92202082.902 6  22137541.422                    22137542.910
                        38.000
                  91987957.269 5  22163790.938                    22163792.281
                        34.800
                  84435303.944 5  20329739.797                    20329739.266
                        31.100
                  81194720.980 6  19583902.914                    19583904.773
                        38.100
                  91771723.021 5  22080634.813                    22080639.215
                        34.000
                  84841744.866 6  20434783.250                    20434784.273
                        38.100
                  90213992.778 5  21682999.047                    21683004.945
                        32.700
 119437298.086 7  93068021.98744  22728159.164                    22728161.574
        46.000          28.700
 118360249.679 7  92228779.68144  22523208.000                    22523210.617
        46.000          28.300
 124107317.211 6  96706956.45042  23616826.023                    23616828.141
        40.500          16.900
 117784967.055 7  91780515.41345  22413734.492                    22413740.699
        46.800          31.400
 111148490.365 7  86609237.93445  21150853.680                    21150859.250
        47.000          30.900
 118756714.828 7  92537757.59645  22598660.852                    22598667.520
        44.800          31.000
 119207360.218 8  92888893.38744  22684413.594                    22684416.391
        48.600          27.400
 18  3 11 12 54 24.0000000  0 16R05G15R04R06R13R14R15R22R23G28G11G19
                                G10G24G01G17
                  84474305.737 5  20317719.352                    20317721.035
                        34.000
 123349978.402 7  96116880.04943  23472722.727                    23472725.707
        45.900          22.800
                  92205542.512 6  22138372.969                    22138373.484
                        38.300
                  91985391.575 5  22163173.453                    22163174.441
                        34.300
                  84437772.770 5  20330333.836                    20330333.387
                        31.700
                  81193892.203 6  19583702.695                    19583705.031
                        37.900
                  91768807.654 5  22079932.484                    22079937.168
                        35.000
                  84842708.369 6  20435015.633                    20435017.082
                        37.800
                  90211416.589 5  21682379.898                    21682384.922
                        32.400
 119440223.932 7  93070301.86044  22728716.250                    22728718.566
        46.400          28.500
 118361196.278 7  92229517.27044  22523388.594                    22523390.359
        46.200          27.900
 124103989.981 6  96704363.81842  23616193.906                    23616195.191
        41.000          17.400
 117786526.138 7  91781730.26645  22414031.398                    22414036.969
        46.800          31.600
 111147561.582 7  86608514.20545  21150677.039                    21150682.586
        47.300          30.700
 118755705.688 7  92536971.24345  22598469.039                    22598475.594
        44.800          31.700
 119205426.579 8  92887386.65944  22684046.063                    22684048.844
        48.400          27.400
 18  3 11 12 54 25.0000000  0 16R05G15R04R06R13R14R15R22R23G28G11G19
                                G10G24G01G17
                  84475074.221 5  20317904.859                    20317905.586
                        33.900
 123353769.711 7  96119834.33743  23473443.211                    23473446.676
        45.800          22.600
                  92209002.502 6  22139203.391                    22139204.020
                        37.600
                  91982826.271 5  22162556.406                    22162556.688
                        34.600
                  84440242.131 5  20330929.477                    20330928.531
                        30.600
                  81193064.058 6  19583502.891                    19583505.668
                        37.900
                  91765892.602 5  22079232.836                    22079236.031
                        34.200
                  84843672.653 6  20435247.484                    20435249.168
                        38.000
                  90208840.899 5  21681761.844                    21681766.406
                        32.500
 119443150.192 7  93072582.06244  22729272.750                    22729275.531
        46.000          27.300
 118362143.681 7  92230255.50844  22523569.227                    22523570.973
        46.200          28.000
 124100663.120 6  96701771.45543  23615560.734                    23615561.949
        41.200          19.000
 117788085.936 7  91782945.68545  22414327.648                    22414333.703
        47.000          30.900
 111146633.475 7  86607791.01245  21150500.586                    21150505.820
        47.000          30.600
 118754697.260 7  92536185.44645  22598277.133                    22598283.844
        43.600          30.900
 119203493.452 7  92885880.30544  22683676.656                    22683681.012
        47.000          27.000
 18  3 11 12 54 26.0000000  0 16R05G15R04R06R13R14R15R22R23G28G11G19
                                G10G24G01G17
                  84475843.397 5  20318089.203                    20318091.012
                        34.500
 123357561.325 7  96122788.84943  23474164.875                    23474168.758
        45.300          22.800
                  92212462.798 6  22140034.781                    22140034.852
                        37.200
                  91980261.377 5  22161938.250                    22161938.543
                        33.700
                  84442711.991 5  20331523.555                    20331523.148
                        30.400
                  81192236.493 6  19583303.594                    19583305.434
                        37.500
                  91762977.810 5  22078530.859                    22078534.871
                        33.400
                  84844637.646 6  20435479.414                    20435481.445
                        37.900
                  90206265.590 5  21681142.016                    21681146.547
                        32.700
 119446076.813 7  93074862.55444  22729829.508                    22729832.223
        46.000          27.100
 118363091.811 7  92230994.32044  22523748.555                    22523751.523
        46.000          28.900
 124097336.561 6  96699179.32943  23614928.039                    23614929.293
        40.900          19.600
 117789646.389 7  91784161.61045  22414624.836                    22414630.676
        47.200          31.400
 111145705.971 7  86607068.28045  21150323.734                    21150329.535
        46.500          30.200
 118753689.485 7  92535400.16445  22598085.430                    22598091.758
        43.500          31.400
 119201560.763 7  92884374.30344  22683308.586                    22683313.145
        46.100          27.900
 18  3 11 12 54 27.0000000  0 16R05G15R04R06R13R14R15R22R23G28G11G19
                                G10G24G01G17
                  84476613.326 5  20318274.156                    20318275.930
                        35.200
 123361353.288 7  96125743.63643  23474885.945                    23474890.008
        44.800          22.600
                  92215923.436 6  22140864.961                    22140866.211
                        37.900
                  91977696.878 5  22161320.641                    22161320.602
                        32.900
                  84445182.351 5  20332118.453                    20332118.078
                        31.500
                  81191409.541 6  19583104.328                    19583106.082
                        37.700
                  91760063.298 5  22077830.070                    22077833.695
                        34.000
                  84845603.360 6  20435713.055                    20435713.895
                        38.100
                  90203690.751 5  21680523.539                    21680527.711
                        33.100
 119449003.827 7  93077143.34944  22730387.109                    22730389.383
        46.200          27.900
 118364040.734 7  92231733.75244  22523928.906                    22523931.820
        45.400          27.600
 124094010.370 6  96696587.47643  23614295.047                    23614296.203
        41.400          19.900
 117791207.505 7  91785378.07045  22414921.961                    22414928.191
        46.500          31.500
 111144779.101 7  86606346.04945  21150147.500                    21150153.145
        46.800          31.200
 118752682.424 7  92534615.43845  22597893.688                    22597900.230
        43.600          31.800
 119199628.606 7  92882868.72844  22682941.883                    22682945.113
        47.300          27.200
 18  3 11 12 54 28.0000000  0 16R05G15R04R06R13R14R15R22R23G28G11G19
                                G10G24G01G17
                  84477383.964 5  20318459.836                    20318461.711
                        34.000
 123365145.510 7  96128698.60943  23475607.953                    23475611.473
        44.500          23.000
                  92219384.350 6  22141695.914                    22141697.027
                        37.800
                  91975132.794 5  22160701.539                    22160702.836
                        32.900
                  84447653.203 5  20332713.695                    20332712.895
                        30.900
                  81190583.229 6  19582904.930                    19582907.055
                        37.800
                  91757149.001 5  22077127.469                    22077131.840
                        34.400
                  84846569.813 6  20435945.445                    20435947.016
                        37.800
                  90201116.371 5  21679905.570                    21679908.973
                        33.300
 119451931.198 7  93079424.42044  22730943.672                    22730946.238
        46.300          27.800
 118364990.359 7  92232473.72644  22524109.727                    22524112.637
        45.300          27.700
 124090684.481 6  96693995.86443  23613661.625                    23613663.328
        40.600          20.100
 117792769.297 7  91786595.05745  22415219.305                    22415225.438
        46.300          31.900
 111143852.879 7  86605624.31645  21149971.211                    21149976.617
        46.600          30.700
 118751676.058 7  92533831.26345  22597702.852                    22597708.875
        43.800          32.300
 119197696.994 7  92881363.57744  22682574.742                    22682577.969
        47.600          27.300
 18  3 11 12 54 29.0000000  0 16R05G15R04R06R13R14R15R22R23G28G11G19
                                G10G24G01G17
                  84478155.368 5  20318645.977                    20318647.234
                        34.100
 123368938.081 7  96131653.85244  23476329.352                    23476332.977
        44.400          24.000
                  92222845.565 6  22142527.281                    22142527.816
                        37.900
                  91972569.150 5  22160083.148                    22160084.965
                        32.500
                  84450124.561 5  20333308.836                    20333308.066
                        31.200
                  81189757.552 6  19582706.172                    19582707.492
                        38.100
                  91754235.052 5  22076427.359                    22076431.543
                        34.200
                  84847537.019 6  20436177.969                    20436179.477
                        37.900
                  90198542.447 5  21679286.438                    21679290.496
                        33.700
 119454858.977 7  93081705.79444  22731501.109                    22731503.391
        46.000          28.400
 118365940.770 7  92233214.30044  22524290.180                    22524293.520
        45.100          27.500
 124087358.958 6  96691404.55943  23613028.625                    23613030.527
        40.500          20.600
 117794331.784 7  91787812.56945  22415516.617                    22415522.457
        46.300          31.800
 111142927.306 7  86604903.09145  21149795.328                    21149800.547
        46.600          30.600
 118750670.368 7  92533047.61645  22597510.992                    22597517.547
        44.100          31.700
 119195765.832 7  92879858.77144  22682205.742                    22682210.133
        46.800          26.900
 18  3 11 12 54 30.0000000  0 16R05G15R04R06R13R14R15R22R23G28G11G19
                                G10G24G01G17
                  84478927.524 5  20318831.016                    20318832.613
                        34.300
 123372730.998 7  96134609.37243  23477051.609                    23477055.242
        44.700          22.500
                  92226307.155 6  22143357.367                    22143359.422
                        37.500
                  91970005.877 5  22159465.922                    22159466.328
                        32.600
                  84452596.434 5  20333903.578                    20333903.379
                        31.800
                  81188932.499 6  19582507.453                    19582508.934
                        38.200
                  91751321.338 5  22075726.070                    22075730.516
                        33.900
                  84848504.976 6  20436411.813                    20436412.281
                        37.900
                  90195968.949 5  21678667.313                    21678672.590
                        33.400
 119457787.122 7  93083987.46344  22732058.008                    22732060.422
        45.700          28.100
 118366891.959 7  92233955.47944  22524471.336                    22524474.602
        44.600          26.500
 124084033.759 6  96688813.51043  23612396.422                    23612398.055
        40.400          21.300
 117795894.931 7  91789030.59845  22415813.891                    22415820.129
        45.900          31.300
 111142002.418 7  86604182.40145  21149619.078                    21149624.617
        46.000          31.200
 118749665.423 7  92532264.55245  22597320.539                    22597326.004
        44.300          31.400
 119193835.169 7  92878354.35244  22681837.844                    22681842.602
        45.800          27.100
 18  3 11 12 54 31.0000000  0 16R05G15R04R06R13R14R15R22R23G28G11G19
                                G10G24G01G17
                  84479700.440 5  20319017.773                    20319018.418
                        34.800
 123376524.218 7  96137565.11243  23477774.141                    23477776.918
        45.100          22.600
                  92229769.167 6  22144189.797                    22144190.066
                        37.800
                  91967443.031 5  22158848.344                    22158849.449
                        33.400
                  84455068.827 5  20334498.383                    20334498.371
                        30.800
                  81188108.079 6  19582308.016                    19582310.016
                        38.100
                  91748407.866 5  22075025.344                    22075029.723
                        34.000
                  84849473.693 6  20436644.656                    20436645.969
                        37.600
                  90193395.942 5  21678050.234                    21678054.266
                        33.700
 119460715.663 7  93086269.44044  22732615.430                    22732617.754
        46.000          27.500
 118367843.915 7  92234697.26344  22524652.492                    22524655.313
        44.900          26.700
 124080708.913 6  96686222.74743  23611763.500                    23611765.398
        40.300          21.500
 117797458.773 7  91790249.16145  22416111.008                    22416117.434
        45.700          31.400
 111141078.192 7  86603462.23345  21149443.414                    21149448.781
        45.700          30.600
 118748661.152 7  92531482.00645  22597128.367                    22597135.066
        44.300          31.300
 119191905.034 7  92876850.36844  22681472.508                    22681475.223
        47.000          28.700
 18  3 11 12 54 32.0000000  0 16R05G15R04R06R13R14R15R22R23G28G11G19
                                G10G24G01G17
                  84480474.095 5  20319203.469                    20319204.500
                        34.200
 123380317.795 7  96140521.14543  23478496.102                    23478498.988
        45.600          23.000
                  92233231.508 6  22145020.086                    22145021.266
                        37.600
                  91964880.675 5  22158230.984                    22158231.742
                        33.400
                  84457541.720 5  20335094.000                    20335093.879
                        30.600
                  81187284.302 6  19582109.055                    19582111.078
                        38.000
                  91745494.714 5  22074323.844                    22074328.316
                        34.200
                  84850443.194 6  20436877.563                    20436879.223
                        37.700
                  90190823.397 5  21677430.945                    21677435.504
                        33.300
 119463644.618 7  93088551.74744  22733172.773                    22733175.281
        45.300          28.000
 118368796.637 7  92235439.63544  22524833.969                    22524836.938
        44.600          27.800
 124077384.451 6  96683632.26143  23611131.023                    23611133.000
        39.400          20.900
 117799023.337 7  91791468.29445  22416409.211                    22416415.082
        45.600          32.000
 111140154.638 7  86602742.57945  21149267.359                    21149272.781
        45.500          30.300
 118747657.620 7  92530700.03945  22596937.836                    22596944.289
        44.200          31.100
 119189975.472 7  92875346.81044  22681105.758                    22681108.332
        47.900          27.900
 18  3 11 12 54 33.0000000  0 16R05G15R04R06R13R14R15R22R23G28G11G19
                                G10G24G01G17
                  84481248.442 5  20319389.938                    20319391.297
                        34.800
 123384111.596 7  96143477.34044  23479217.891                    23479220.371
        45.700          24.000
                  92236694.178 6  22145853.055                    22145853.082
                        38.100
                  91962318.647 5  22157614.484                    22157614.430
                        33.500
                  84460015.061 4  20335688.945                    20335689.441
                        28.700
                  81186461.089 6  19581910.469                    19581912.754
                        38.000
                  91742581.783 5  22073622.555                    22073627.270
                        34.200
                  84851413.364 6  20437112.766                    20437113.316
                        37.400
                  90188251.223 5  21676812.813                    21676817.492
                        33.100
 119466573.869 7  93090834.27344  22733729.859                    22733732.109
        45.700          29.200
 118369750.057 7  92236182.55444  22525015.703                    22525018.199
        45.100          27.700
 124074060.220 6  96681041.95743  23610497.883                    23610500.059
        39.100          21.100
 117800588.457 7  91792687.86645  22416707.242                    22416712.934
        45.500          32.100
 111139231.621 7  86602023.33645  21149091.727                    21149097.105
        45.600          30.800
 118746654.701 7  92529918.54445  22596747.047                    22596753.402
        44.100          31.600
 119188046.308 7  92873843.54544  22680737.320                    22680741.238
        46.500          27.600
 18  3 11 12 54 34.0000000  0 16R05G15R04R06R13R14R15R22R23G28G11G19
                                G10G24G01G17
                  84482023.490 5  20319576.008                    20319576.992
                        34.200
 123387905.697 7  96146433.77743  23479939.859                    23479942.684
        45.800          23.200
                  92240157.161 6  22146682.320                    22146684.418
                        38.100
                  91959756.978 5  22156997.758                    22156997.289
                        34.400
                  84462488.869 5  20336285.141                    20336284.629
                        30.100
                  81185638.492 6  19581711.930                    19581714.625
                        37.900
                  91739669.096 5  22072922.523                    22072926.109
                        34.300
                  84852384.242 6  20437345.984                    20437347.195
                        37.400
                  90185679.505 5  21676194.773                    21676198.609
                        33.200
 119469503.501 7  93093117.10444  22734287.914                    22734289.570
        45.900          28.200
 118370704.219 7  92236926.05944  22525197.906                    22525200.242
        45.800          27.500
 124070736.324 6  96678451.91443  23609864.867                    23609868.379
        38.600          20.100
 117802154.290 7  91793907.99945  22417005.375                    22417011.207
        45.700          31.200
 111138309.236 7  86601304.59145  21148916.500                    21148921.613
        45.500          31.100
 118745652.502 7  92529137.61245  22596555.703                    22596562.352
        44.300          30.600
 119186117.589 7  92872340.63444  22680369.156                    22680374.039
        45.200          28.400
 18  3 11 12 54 35.0000000  0 16R05G15R04R06R13R14R15R22R23G28G11G19
                                G10G24G01G17
                  84482799.290 5  20319762.383                    20319764.477
                        34.300
 123391700.139 7  96149390.48643  23480661.305                    23480664.684
        45.300          23.200
                  92243620.479 6  22147514.266                    22147515.809
                        38.000
                  91957195.745 5  22156380.297                    22156380.742
                        34.000
                  84464963.215 5  20336881.719                    20336880.754
                        30.500
                  81184816.512 6  19581514.430                    19581516.152
                        37.800
                  91736756.694 5  22072221.922                    22072225.660
                        33.700
                  84853355.866 6  20437579.336                    20437581.195
                        37.500
                  90183108.234 5  21675577.078                    21675580.465
                        32.300
 119472433.519 7  93095400.24244  22734844.930                    22734847.910
        45.600          28.900
 118371659.151 7  92237670.15944  22525379.258                    22525381.766
        45.700          27.300
 124067412.782 6  96675862.16543  23609232.422                    23609235.641
        38.600          19.900
 117803720.791 7  91795128.64645  22417303.766                    22417309.090
        45.800          31.600
 111137387.492 7  86600586.35345  21148740.883                    21148746.090
        45.500          30.400
 118744650.976 7  92528357.20545  22596366.414                    22596372.000
        44.600          31.900
 119184189.397 7  92870838.16144  22680003.867                    22680007.094
        47.200          29.100
 18  3 11 12 54 36.0000000  0 16R05G15R04R06R13R14R15R22R23G28G11G19
                                G10G24G01G17
                  84483575.820 5  20319949.320                    20319950.824
                        33.800
 123395494.908 7  96152347.46843  23481383.281                    23481386.609
        45.000          22.900
                  92247084.063 6  22148346.258                    22148347.520
                        38.200
                  91954634.962 5  22155763.273                    22155763.738
                        34.600
                  84467438.030 4  20337477.305                    20337476.281
                        28.900
                  81183995.161 6  19581316.172                    19581318.539
                        37.700
                  91733844.559 5  22071521.180                    22071525.754
                        33.800
                  84854328.234 6  20437813.578                    20437815.313
                        37.300
                  90180537.387 5  21674959.109                    21674962.926
                        32.500
 119475363.900 7  93097683.65444  22735403.477                    22735405.254
        45.900          28.000
 118372614.831 7  92238414.85444  22525560.859                    22525563.621
        45.200          26.700
 124064089.572 6  96673272.65943  23608599.781                    23608603.242
        38.700          19.000
 117805287.947 7  91796349.80645  22417601.969                    22417607.488
        45.600          31.700
 111136466.411 7  86599868.62145  21148565.953                    21148571.605
        45.400          30.900
 118743650.177 7  92527577.36345  22596175.180                    22596181.688
        44.500          31.800
 119182261.769 7  92869336.12044  22679638.031                    22679640.484
        47.600          27.900
 18  3 11 12 54 37.0000000  0 16R05G15R04R06R13R14R15R22R23G28G11G19
                                G10G24G01G17
                  84484353.110 5  20320135.578                    20320137.594
                        34.000
 123399290.023 7  96155304.72143  23482105.398                    23482108.840
        44.500          23.400
                  92250548.027 6  22149178.570                    22149178.797
                        37.800
                  91952074.583 5  22155145.773                    22155147.348
                        34.300
                  84469913.374 4  20338073.070                    20338072.410
                        29.500
                  81183174.460 6  19581117.727                    19581120.098
                        37.800
                  91730932.692 5  22070819.766                    22070824.004
                        34.100
                  84855301.355 6  20438047.945                    20438049.672
                        37.400
                  90177967.010 5  21674341.289                    21674344.754
                        33.400
 119478294.679 7  93099967.37344  22735960.898                    22735962.961
        45.900          29.700
 118373571.266 7  92239160.12444  22525742.789                    22525745.273
        44.900          27.900
 124060766.686 6  96670683.40543  23607967.930                    23607970.855
        38.400          19.000
 117806855.784 7  91797571.48945  22417899.578                    22417905.688
        45.400          31.300
 111135546.008 7  86599151.42545  21148390.914                    21148395.684
        45.200          30.800
 118742650.069 7  92526798.06245  22595984.859                    22595991.055
        44.700          32.100
 119180334.649 7  92867834.45944  22679270.281                    22679273.879
        46.800          27.300
 18  3 11 12 54 38.0000000  0 16R05G15R04R06R13R14R15R22R23G28G11G19
                                G10G24G01G17
                  84485131.183 5  20320322.148                    20320324.961
                        33.600
 123403085.493 7  96158262.22943  23482827.602                    23482831.289
        44.500          22.800
                  92254012.400 6  22150009.797                    22150010.652
                        38.200
                  91949514.653 5  22154530.031                    22154530.621
                        34.300
                  84472389.263 4  20338669.508                    20338668.406
                        29.700
                  81182354.423 6  19580919.820                    19580922.703
                        37.600
                  91728021.187 5  22070119.328                    22070124.102
                        33.600
                  84856275.236 6  20438282.594                    20438284.078
                        37.600
                  90175397.146 5  21673724.781                    21673727.074
                        32.900
 119481225.889 7  93102251.42944  22736518.555                    22736520.828
        45.500          28.100
 118374528.520 7  92239906.04544  22525924.711                    22525927.359
        44.700          28.100
 124057444.231 6  96668094.51043  23607335.680                    23607338.520
        39.100          18.300
 117808424.334 7  91798793.73545  22418198.828                    22418204.410
        45.800          31.700
 111134626.306 7  86598434.77345  21148215.703                    21148221.047
        45.200          30.600
 118741650.719 7  92526019.34845  22595794.680                    22595801.082
        44.700          31.100
 119178408.015 7  92866333.17844  22678902.203                    22678907.184
        45.500          27.400
 18  3 11 12 54 39.0000000  0 16R05G15R04R06R13R14R15R22R23G28G11G19
                                G10G24G01G17
                  84485909.979 5  20320510.781                    20320511.813
                        34.100
 123406881.279 7  96161219.98444  23483549.852                    23483553.406
        44.600          24.500
                  92257477.075 6  22150842.891                    22150842.777
                        38.200
                  91946955.146 5  22153912.617                    22153913.809
                        34.200
                  84474865.635 4  20339265.305                    20339264.953
                        29.300
                  81181535.016 6  19580722.539                    19580724.734
                        37.700
                  91725109.866 5  22069419.359                    22069423.719
                        33.700
                  84857249.862 6  20438518.281                    20438519.281
                        37.700
                  90172827.707 5  21673105.859                    21673110.102
                        32.700
 119484157.484 7  93104535.79044  22737076.781                    22737078.344
        46.000          27.400
 118375486.526 7  92240652.53744  22526107.156                    22526109.961
        44.500          27.600
 124054122.054 6  96665505.79343  23606703.305                    23606706.270
        39.200          18.600
 117809993.560 7  91800016.51245  22418497.531                    22418503.316
        46.300          31.600
 111133707.274 7  86597718.64645  21148040.680                    21148045.750
        45.300          31.200
 118740652.062 7  92525241.16845  22595604.617                    22595610.766
        44.700          31.400
 119176481.903 7  92864832.32644  22678537.313                    22678540.313
        46.800          25.600
 18  3 11 12 54 40.0000000  0 16R05G15R04R06R13R14R15R22R23G28G11G19
                                G10G24G01G17
                  84486689.488 5  20320698.094                    20320699.887
                        33.900
 123410677.333 7  96164177.93144  23484272.805                    23484275.980
        44.700          24.700
                  92260942.095 6  22151674.836                    22151674.543
                        38.200
                  91944396.004 5  22153295.625                    22153297.176
                        33.800
                  84477342.515 4  20339861.445                    20339861.160
                        29.900
                  81180716.155 6  19580524.594                    19580527.395
                        37.900
                  91722198.856 5  22068718.242                    22068723.559
                        34.400
                  84858225.181 6  20438753.641                    20438753.531
                        37.800
                  90170258.656 5  21672487.047                    21672492.465
                        32.800
 119487089.420 7  93106820.41544  22737634.594                    22737636.730
        46.100          28.500
 118376445.256 7  92241399.59644  22526290.156                    22526292.395
        45.000          28.200
 124050800.214 6  96662917.35243  23606071.266                    23606074.227
        39.500          19.000
 117811563.432 7  91801239.79945  22418796.477                    22418801.891
        46.700          30.900
 111132788.845 7  86597002.99145  21147865.969                    21147871.316
        45.100          31.600
 118739654.069 7  92524463.51545  22595414.758                    22595420.949
        44.900          31.700
 119174556.292 7  92863331.85344  22678171.789                    22678174.438
        47.300          27.700
 18  3 11 12 54 41.0000000  0 16R05G15R04R06R13R14R15R22R23G28G11G19
                                G10G24G01G17
                  84487469.729 5  20320885.891                    20320887.176
                        34.100
 123414473.730 7  96167136.14843  23484995.516                    23484998.082
        45.000          23.400
                  92264407.476 6  22152505.469                    22152506.551
                        37.500
                  91941837.294 5  22152679.367                    22152680.453
                        33.800
                  84479819.885 5  20340458.164                    20340457.883
                        30.300
                  81179897.912 6  19580327.758                    19580329.879
                        38.000
                  91719288.087 5  22068018.586                    22068022.914
                        34.800
                  84859201.290 6  20438986.078                    20438989.551
                        37.800
                  90167690.104 5  21671871.352                    21671875.453
                        32.500
 119490021.753 7  93109105.34544  22738191.625                    22738194.699
        45.700          28.600
 118377404.747 7  92242147.24144  22526472.930                    22526474.770
        45.400          28.600
 124047478.710 6  96660329.16443  23605439.289                    23605442.145
        39.800          18.300
 117813133.983 7  91802463.61045  22419095.172                    22419100.715
        46.700          31.500
 111131871.059 7  86596287.83145  21147690.828                    21147696.512
        45.100          31.600
 118738656.766 7  92523686.39145  22595225.500                    22595231.371
        45.300          31.300
 119172631.209 7  92861831.78144  22677804.016                    22677807.965
        46.000          27.400
 18  3 11 12 54 42.0000000  0 16R05G15R04R06R13R14R15R22R23G28G11G19
                                G10G24G01G17
                  84488250.737 5  20321073.055                    20321075.352
                        34.100
 123418270.470 7  96170094.64644  23485718.016                    23485720.664
        44.900          24.200
                  92267873.223 6  22153338.156                    22153338.758
                        37.500
                  91939279.007 5  22152063.422                    22152064.270
                        33.200
                  84482297.829 5  20341056.266                    20341054.574
                        30.500
                  81179080.372 6  19580130.500                    19580132.465
                        37.700
                  91716377.656 5  22067317.805                    22067323.086
                        34.700
                  84860178.166 6  20439222.484                    20439223.512
                        37.700
                  90165122.014 5  21671254.180                    21671258.387
                        32.500
 119492954.488 7  93111390.59544  22738750.586                    22738752.480
        45.000          28.600
 118378365.031 7  92242895.51944  22526655.328                    22526657.605
        45.800          28.100
 124044157.604 6  96657741.27442  23604808.094                    23604809.914
        40.600          17.800
 117814705.248 7  91803687.97645  22419393.820                    22419399.898
        46.800          30.600
 111130953.963 7  86595573.21345  21147516.797                    21147522.277
        45.000          30.800
 118737660.206 7  92522909.84845  22595035.391                    22595041.805
        45.600          31.000
 119170706.630 7  92860332.11244  22677436.914                    22677441.473
        45.200          27.700
 18  3 11 12 54 43.0000000  0 16R05G15R04R06R13R14R15R22R23G28G11G19
                                G10G24G01G17
                  84489032.446 5  20321261.602                    20321263.246
                        33.800
 123422067.485 7  96173053.35944  23486440.102                    23486443.305
        44.600          24.400
                  92271339.224 6  22154169.180                    22154170.910
                        38.200
                  91936721.118 5  22151446.641                    22151447.535
                        33.300
                  84484776.229 5  20341651.922                    20341651.094
                        30.300
                  81178263.409 6  19579933.070                    19579934.934
                        37.900
                  91713467.420 5  22066618.070                    22066622.387
                        34.900
                  84861155.728 6  20439459.984                    20439459.527
                        38.100
                  90162554.319 5  21670636.836                    21670640.820
                        32.400
 119495887.574 7  93113676.10944  22739308.945                    22739310.508
        45.300          28.100
 118379326.019 7  92243644.35844  22526837.938                    22526840.734
        44.900          27.800
 124040836.786 6  96655153.60143  23604176.156                    23604178.152
        40.700          18.600
 117816277.141 7  91804912.83045  22419692.695                    22419698.824
        47.000          30.700
 111130037.457 7  86594859.05145  21147342.070                    21147347.797
        45.200          30.900
 118736664.298 7  92522133.81645  22594845.891                    22594851.887
        45.700          31.400
 119168782.528 7  92858832.84344  22677072.633                    22677075.164
        46.700          28.500
 18  3 11 12 54 44.0000000  0 16R05G15R04R06R13R14R15R22R23G28G11G19
                                G10G24G01G17
                  84489814.958 5  20321449.273                    20321451.813
                        34.400
 123425864.858 7  96176012.36044  23487162.438                    23487165.879
        44.400          24.100
                  92274805.615 6  22155003.461                    22155002.789
                        37.600
                  91934163.667 5  22150830.055                    22150831.094
                        33.300
                  84487255.157 5  20342248.977                    20342248.184
                        30.300
                  81177447.156 6  19579736.297                    19579738.289
                        37.600
                  91710557.520 5  22065917.219                    22065921.969
                        34.600
                  84862134.094 6  20439694.125                    20439695.496
                        37.900
                  90159987.138 5  21670020.516                    21670023.641
                        31.900
 119498821.119 7  93115961.98244  22739866.500                    22739869.023
        45.600          27.500
 118380287.854 7  92244393.84944  22527020.195                    22527023.691
        44.700          27.900
 124037516.396 6  96652566.24043  23603544.758                    23603546.457
        40.400          18.300
 117817849.783 7  91806138.26145  22419991.484                    22419998.098
        46.700          31.000
 111129121.666 7  86594145.44645  21147168.008                    21147173.535
        45.100          31.100
 118735669.167 7  92521358.38345  22594656.922                    22594662.711
        46.000          31.100
 119166859.005 7  92857334.00344  22676706.602                    22676709.863
        47.400          28.300
 18  3 11 12 54 45.0000000  0 16R05G15R04R06R13R14R15R22R23G28G11G19
                                G10G24G01G17
                  84490598.156 5  20321638.195                    20321639.492
                        33.700
 123429662.545 7  96178971.59643  23487885.250                    23487888.672
        44.300          22.500
                  92278272.361 6  22155834.398                    22155835.766
                        38.000
                  91931606.593 5  22150214.438                    22150215.266
                        33.300
                  84489734.605 5  20342846.016                    20342844.754
                        30.900
                  81176631.483 6  19579540.070                    19579542.000
                        37.400
                  91707647.894 5  22065218.234                    22065221.961
                        34.700
                  84863113.204 6  20439929.156                    20439931.086
                        37.900
                  90157420.370 5  21669404.102                    21669406.699
                        31.900
 119501754.968 7  93118248.09344  22740425.211                    22740427.410
        45.800          27.700
 118381250.408 7  92245143.89044  22527203.391                    22527206.531
        44.600          28.200
 124034196.281 6  96649979.10642  23602912.508                    23602914.277
        41.000          16.900
 117819423.041 7  91807364.17445  22420291.063                    22420297.633
        46.500          31.100
 111128206.464 7  86593432.30545  21146993.672                    21146999.461
        45.200          30.400
 118734674.702 7  92520583.47945  22594467.242                    22594473.574
        46.000          31.800
 119164935.935 7  92855835.48844  22676339.531                    22676343.566
        45.800          27.600
 18  3 11 12 54 46.0000000  0 16R05G15R04R06R13R14R15R22R23G28G11G19
                                G10G24G01G17
                  84491382.175 5  20321826.492                    20321828.090
                        34.100
 123433460.611 7  96181931.12943  23488607.422                    23488611.270
        43.400          22.200
                  92281739.494 6  22156667.891                    22156668.176
                        38.600
                  91929050.024 5  22149597.563                    22149599.242
                        34.000
                  84492214.555 4  20343443.086                    20343442.043
                        29.900
                  81175816.473 6  19579343.352                    19579345.672
                        37.800
                  91704738.540 5  22064517.094                    22064522.398
                        34.700
                  84864093.098 6  20440165.719                    20440166.906
                        37.500
                  90154854.064 5  21668784.922                    21668790.027
                        32.200
 119504689.290 7  93120534.58044  22740983.766                    22740985.754
        44.700          26.900
 118382213.787 7  92245894.56244  22527386.906                    22527389.754
        44.500          28.000
 124030876.603 6  96647392.32642  23602280.969                    23602282.395
        40.700          17.800
 117820997.060 7  91808590.67845  22420590.383                    22420597.027
        45.700          31.600
 111127291.991 7  86592719.72945  21146819.750                    21146825.500
        45.200          30.200
 118733680.984 7  92519809.15945  22594278.570                    22594284.824
        46.100          31.100
 119163013.409 7  92854337.41144  22675972.766                    22675977.566
        44.900          26.000
 18  3 11 12 54 47.0000000  0 16R05G15R04R06R13R14R15R22R23G28G11G19
                                G10G24G01G17
                  84492166.901 5  20322015.242                    20322017.000
                        33.900
 123437258.989 7  96184890.91143  23489330.711                    23489334.242
        43.400          22.300
                  92285206.905 6  22157500.563                    22157500.621
                        38.900
                  91926493.831 5  22148982.438                    22148983.387
                        34.300
                  84494695.025 5  20344039.859                    20344039.055
                        30.300
                  81175002.089 6  19579146.914                    19579149.254
                        37.900
                  91701829.508 5  22063816.750                    22063822.203
                        35.000
                  84865073.722 6  20440401.609                    20440403.625
                        38.200
                  90152288.241 5  21668169.180                    21668173.070
                        32.800
 119507623.982 7  93122821.35144  22741541.750                    22741544.141
        44.700          28.200
 118383177.906 7  92246645.80844  22527571.078                    22527573.598
        44.200          28.000
 124027557.237 6  96644805.82243  23601649.633                    23601650.871
        40.300          19.300
 117822571.739 7  91809817.69845  22420889.617                    22420896.652
        45.000          31.000
 111126378.138 7  86592007.63045  21146646.180                    21146651.551
        45.400          31.400
 118732687.981 7  92519035.39045  22594089.484                    22594095.359
        46.400          32.200
 119161091.416 7  92852839.77344  22675608.594                    22675611.852
        46.000          27.600
 18  3 11 12 54 48.0000000  0 16R05G15R04R06R13R14R15R22R23G28G11G19
                                G10G24G01G17
                  84492952.335 5  20322204.469                    20322205.227
                        34.400
 123441057.647 7  96187850.90643  23490053.773                    23490057.004
        43.400          22.200
                  92288674.596 6  22158333.242                    22158333.844
                        38.600
                  91923938.057 5  22148365.953                    22148367.887
                        34.500
                  84497175.957 5  20344636.820                    20344636.434
                        30.300
                  81174188.287 6  19578950.500                    19578952.414
                        37.900
                  91698920.673 5  22063116.102                    22063122.051
                        34.600
                  84866055.038 6  20440638.594                    20440639.336
                        38.000
                  90149722.841 5  21667552.305                    21667556.941
                        32.600
 119510558.992 7  93125108.37444  22742100.469                    22742102.590
        45.300          28.000
 118384142.720 7  92247397.60744  22527754.445                    22527756.777
        44.300          28.100
 124024238.177 6  96642219.55743  23601017.859                    23601019.289
        40.500          19.300
 117824147.054 7  91811045.20745  22421189.531                    22421196.324
        44.500          31.400
 111125464.896 7  86591296.01645  21146472.172                    21146477.832
        45.300          31.700
 118731695.625 7  92518262.12845  22593900.023                    22593906.984
        46.000          31.900
 119159169.897 7  92851342.49844  22675243.453                    22675246.570
        47.000          27.700
 18  3 11 12 54 49.0000000  0 16R05G15R04R06R13R14R15R22R23G28G11G19
                                G10G24G01G17
                  84493738.536 5  20322392.844                    20322395.324
                        34.500
 123444856.627 7  96190811.14443  23490777.172                    23490779.730
        44.100          21.800
                  92292142.697 6  22159164.930                    22159166.379
                        38.100
                  91921382.722 5  22147751.172                    22147751.852
                        34.200
                  84499657.426 5  20345235.031                    20345234.090
                        30.500
                  81173375.149 6  19578754.477                    19578756.516
                        37.900
                  91696012.152 5  22062417.289                    22062422.836
                        34.800
                  84867037.093 6  20440875.875                    20440876.004
                        37.600
                  90147157.902 5  21666935.547                    21666940.074
                        32.200
 119513494.413 7  93127395.70844  22742659.383                    22742661.410
        45.100          28.100
 118385108.358 7  92248150.05844  22527937.789                    22527940.547
        44.100          27.900
 124020919.478 6  96639633.56042  23600385.906                    23600387.617
        40.600          17.800
 117825723.059 7  91812273.26345  22421489.789                    22421496.176
        45.000          32.100
 111124552.367 7  86590584.95245  21146298.617                    21146303.926
        45.200          30.500
 118730704.011 7  92517489.44945  22593711.898                    22593717.957
        46.200          32.100
 119157248.920 7  92849845.62544  22674876.852                    22674881.355
        45.800          28.100
 18  3 11 12 54 50.0000000  0 16R05G15R04R06R13R14R15R22R23G28G11G19
                                G10G24G01G17
                  84494525.481 5  20322583.547                    20322585.016
                        33.600
 123448655.959 7  96193771.65743  23491500.445                    23491502.934
        45.000          22.900
                  92295611.103 6  22159998.336                    22159998.266
                        37.700
                  91918827.789 5  22147134.750                    22147136.281
                        34.200
                  84502139.379 5  20345832.438                    20345831.973
                        30.100
                  81172562.628 6  19578558.695                    19578560.219
                        37.900
                  91693103.880 5  22061717.813                    22061723.438
                        34.800
                  84868019.914 6  20441111.469                    20441112.871
                        37.500
                  90144593.418 5  21666318.977                    21666323.789
                        32.700
 119516430.247 7  93129683.37544  22743217.492                    22743219.902
        45.000          28.400
 118386074.737 7  92248903.07644  22528121.477                    22528124.691
        43.900          28.500
 124017601.122 6  96637047.80842  23599753.516                    23599755.586
        40.400          17.800
 117827299.759 7  91813501.85345  22421790.750                    22421796.086
        44.700          31.400
 111123640.480 7  86589874.39545  21146125.195                    21146130.215
        45.500          31.300
 118729713.084 7  92516717.29745  22593522.336                    22593529.293
        45.800          31.400
 119155328.441 7  92848349.16044  22674510.742                    22674515.227
        45.100          27.900
 18  3 11 12 54 51.0000000  0 16R05G15R04R06R13R14R15R22R23G28G11G19
                                G10G24G01G17
                  84495313.188 5  20322771.930                    20322773.383
                        34.300
 123452455.631 7  96196732.45343  23492223.789                    23492226.152
        45.000          22.500
                  92299079.901 6  22160831.047                    22160831.371
                        38.200
                  91916273.316 5  22146520.250                    22146520.715
                        34.800
                  84504621.883 5  20346429.953                    20346429.254
                        30.700
                  81171750.764 6  19578362.711                    19578364.609
                        38.400
                  91690195.916 5  22061019.016                    22061023.156
                        35.000
                  84869003.525 6  20441347.383                    20441349.930
                        37.800
                  90142029.428 5  21665703.953                    21665707.379
                        32.500
 119519366.479 7  93131971.35344  22743776.430                    22743778.586
        45.000          27.800
 118387041.936 7  92249656.72744  22528306.320                    22528308.824
        44.100          27.200
 124014283.172 6  96634462.38543  23599122.750                    23599124.883
        39.500          19.000
 117828877.158 7  91814730.98945  22422090.625                    22422096.359
        45.200          31.200
 111122729.271 7  86589164.35945  21145951.648                    21145957.160
        45.400          30.400
 118728722.910 7  92515945.72645  22593333.695                    22593340.633
        45.600          31.400
 119153408.505 7  92846853.13244  22674146.250                    22674149.715
        46.900          27.600
 18  3 11 12 54 52.0000000  0 16R05G15R04R06R13R14R15R22R23G28G11G19
                                G10G24G01G17
                  84496101.595 5  20322962.164                    20322963.750
                        34.200
 123456255.563 7  96199693.44343  23492946.000                    23492949.371
        45.400          22.900
                  92302549.039 6  22161663.711                    22161665.145
                        37.800
                  91913719.213 5  22145904.984                    22145905.184
                        34.200
                  84507104.842 5  20347027.703                    20347026.828
                        30.800
                  81170939.501 6  19578166.625                    19578168.762
                        38.100
                  91687288.228 5  22060318.789                    22060323.563
                        35.300
                  84869987.837 6  20441585.875                    20441586.504
                        38.000
                  90139465.844 5  21665086.922                    21665091.207
                        32.800
 119522303.057 7  93134259.58844  22744335.516                    22744337.363
        45.200          28.300
 118388009.826 7  92250410.91544  22528490.883                    22528492.676
        44.700          28.000
 124010965.482 6  96631877.16643  23598491.273                    23598493.922
        39.200          18.300
 117830455.185 7  91815960.61445  22422391.156                    22422396.422
        45.600          31.200
 111121818.667 7  86588454.80245  21145778.633                    21145783.766
        45.400          31.100
 118727733.405 7  92515174.67945  22593145.672                    22593152.629
        45.100          31.400
 119151489.047 7  92845357.45644  22673781.922                    22673784.703
        47.500          27.600
