     2.11           OBSERVATION DATA    M (MIXED)           RINEX VERSION / TYPE
teqc  2018Mar15                         20180319 14:17:33UTCPGM / RUN BY / DATE
Linux 2.6.32-573.12.1.x86_64|x86_64|gcc -static|Linux 64|=+ COMMENT
END OF STATIC MODE OBSERVATION                              COMMENT
BIT 2 OF LLI FLAGS DATA COLLECTED UNDER A/S CONDITION       COMMENT
-Unknown-                                                   MARKER NAME
4625                                                        MARKER NUMBER
-Unknown-           -Unknown-                               OBSERVER / AGENCY
5127468778          TRIMBLE             4.63                REC # / TYPE / VERS
47477114                            NONE                    ANT # / TYPE
   291190.2956   433171.6172 -6335431.6580                  APPROX POSITION XYZ
        0.0000        0.0000        0.0000                  ANTENNA: DELTA H/E/N
     1     1                                                WAVELENGTH FACT L1/2
     7    L1    L2    C1    P1    P2    S1    S2            # / TYPES OF OBSERV
    18                                                      LEAP SECONDS
 SNR is mapped to RINEX snr flag value [0-9]                COMMENT
  L1 & L2: min(max(int(snr_dBHz/6), 0), 9)                  COMMENT
  2018     3    15    10    48   19.0000000     GPS         TIME OF FIRST OBS
                                                            END OF HEADER
 18  3 15 10 48 19.0000000  0 16G20R07R09G21R01R24R16R17R18G07G08G11
                                G30G28G15G13
 120067441.781 6  93559092.77444  22848080.219                    22848084.824
        39.400          27.100
                  87922229.200 6  21117363.063                    21117362.801
                        38.800
                  84010272.326 6  20227405.766                    20227405.059
                        38.500
 132467405.104 6 103221397.97943  25207716.523                    25207719.371
        37.100          19.300
                  94269913.669 5  22673748.672                    22673752.215
                        32.500
                  91916270.784 4  22099892.727                    22099893.148
                        25.300
                  84139239.776 5  20251342.508                    20251343.906
                        35.800
                  86588263.580 6  20804254.156                    20804256.566
                        38.800
                  94419736.685 6  22741714.328                    22741716.734
                        36.400
 129118677.679 8 100611987.42544  24570472.000                    24570475.969
        49.300          27.800
 118656255.880 7  92459435.35345  22579534.359                    22579541.352
        47.500          35.400
 130425724.307 6 101630447.43143  24819190.711                    24819194.016
        39.000          22.000
 119286984.402 7  92950914.43045  22699558.508                    22699564.418
        45.900          31.700
 114360948.351 7  89112439.36145  21762165.570                    21762168.785
        46.000          30.600
 112670743.408 8  87795398.64746  21440529.750                    21440533.152
        51.100          36.900
 111910818.451 7  87203238.76645  21295918.727                    21295922.301
        47.800          30.300
 18  3 15 10 48 20.0000000  0 16G20R07R09G21R01R24R16R17R18G07G08G11
                                G30G28G15G13
 120070341.619 6  93561352.40244  22848632.195                    22848636.242
        37.900          27.100
                  87924987.872 6  21118025.125                    21118026.727
                        39.300
                  84008695.649 6  20227024.719                    20227025.332
                        38.400
 132470477.610 6 103223792.13343  25208301.469                    25208303.453
        37.900          19.000
                  94267035.416 5  22673056.867                    22673060.488
                        32.900
                  91919068.521 4  22100564.938                    22100566.055
                        25.100
                  84141343.791 5  20251849.656                    20251849.906
                        35.700
                  86587966.392 6  20804182.289                    20804184.898
                        38.500
                  94416837.249 5  22741017.641                    22741018.527
                        34.800
 129122673.175 8 100615100.79544  24571232.313                    24571236.152
        48.800          26.100
 118657508.351 7  92460411.30445  22579773.031                    22579779.672
        47.100          35.300
 130422593.039 6 101628007.48843  24818594.773                    24818597.914
        38.800          21.800
 119290266.672 7  92953472.04345  22700182.758                    22700189.078
        45.800          31.500
 114360291.220 7  89111927.30945  21762040.164                    21762043.410
        46.000          31.300
 112670702.798 8  87795367.00246  21440521.547                    21440525.273
        50.900          36.400
 111912529.093 8  87204571.73045  21296244.523                    21296247.887
        48.100          31.300
 18  3 15 10 48 21.0000000  0 16G20R07R09G21R01R24R16R17R18G07G08G11
                                G30G28G15G13
 120073241.920 6  93563612.32644  22849187.688                    22849188.012
        41.700          27.300
                  87927747.061 6  21118687.047                    21118690.414
                        38.900
                  84007119.585 6  20226645.688                    20226646.008
                        38.800
 132473550.481 6 103226186.58443  25208887.117                    25208888.129
        38.600          19.600
                  94264157.520 5  22672363.828                    22672367.293
                        33.600
                  91921866.879 3  22101238.305                    22101239.227
                        23.800
                  84143448.447 6  20252354.844                    20252356.453
                        36.000
                  86587670.021 6  20804111.586                    20804114.020
                        39.100
                  94413938.210 5  22740320.344                    22740320.250
                        34.800
 129126668.890 8 100618214.33944  24571993.117                    24571997.086
        48.500          26.400
 118658761.600 7  92461387.86245  22580011.430                    22580018.500
        47.100          35.500
 130419462.132 6 101625567.81643  24817998.273                    24818002.191
        38.700          22.200
 119293549.436 7  92956030.04245  22700807.508                    22700813.852
        46.000          31.700
 114359634.739 7  89111415.77145  21761915.297                    21761918.766
        46.000          31.300
 112670662.963 8  87795335.95946  21440514.125                    21440518.160
        51.000          36.500
 111914240.467 8  87205905.26345  21296570.086                    21296573.484
        48.200          31.500
 18  3 15 10 48 22.0000000  0 16G20R07R09G21R01R24R16R17R18G07G08G11
                                G30G28G15G13
 120076142.762 7  93565872.69444  22849740.477                    22849740.281
        44.500          26.900
                  87930506.762 6  21119349.625                    21119352.527
                        38.100
                  84005544.139 6  20226267.742                    20226266.977
                        39.100
 132476623.663 6 103228581.28643  25209471.289                    25209473.090
        37.200          19.900
                  94261279.964 5  22671672.695                    22671675.539
                        32.900
                  91924665.770 4  22101911.703                    22101912.508
                        25.400
                  84145553.678 6  20252861.922                    20252862.805
                        36.100
                  86587374.435 6  20804040.469                    20804042.699
                        38.900
                  94411039.487 5  22739621.313                    22739621.594
                        35.200
 129130664.823 8 100621328.04744  24572753.422                    24572757.000
        48.400          27.500
 118660015.575 7  92462364.98445  22580250.773                    22580256.469
        46.800          35.200
 130416331.617 6 101623128.45243  24817402.867                    24817406.738
        39.000          22.500
 119296832.651 7  92958588.39445  22701431.977                    22701438.605
        46.100          31.700
 114358978.882 7  89110904.71745  21761791.031                    21761793.633
        46.100          31.300
 112670623.882 8  87795305.50646  21440506.703                    21440510.172
        51.600          36.900
 111915952.562 7  87207239.36145  21296895.922                    21296899.180
        47.900          30.700
 18  3 15 10 48 23.0000000  0 16G20R07R09G21R01R24R16R17R18G07G08G11
                                G30G28G15G13
 120079044.072 7  93568133.47544  22850291.305                    22850292.777
        43.200          27.400
                  87933267.000 6  21120012.109                    21120014.883
                        37.700
                  84003969.243 6  20225887.531                    20225888.035
                        39.100
 132479697.121 6 103230976.19743  25210055.914                    25210057.977
        38.100          20.600
                  94258402.731 5  22670980.523                    22670983.879
                        32.900
                  91927465.167 3  22102584.617                    22102585.043
                        23.900
                  84147659.479 6  20253368.758                    20253369.707
                        36.400
                  86587079.585 6  20803969.313                    20803971.523
                        39.000
                  94408141.075 6  22738921.313                    22738923.730
                        36.000
 129134660.947 8 100624441.89944  24573513.914                    24573517.621
        48.500          27.200
 118661270.241 7  92463342.64445  22580489.977                    22580495.371
        46.600          35.300
 130413201.390 6 101620689.30543  24816807.484                    24816811.063
        38.900          22.600
 119300116.262 7  92961147.05145  22702057.492                    22702063.379
        46.600          31.000
 114358323.638 7  89110394.13545  21761666.719                    21761669.008
        46.300          30.800
 112670585.478 8  87795275.57546  21440499.758                    21440502.930
        51.400          36.400
 111917665.299 8  87208573.95245  21297222.266                    21297224.988
        48.100          30.500
 18  3 15 10 48 24.0000000  0 16G20R07R09G21R01R24R16R17R18G07G08G11
                                G30G28G15G13
 120081945.938 6  93570394.72444  22850840.539                    22850845.473
        40.100          27.100
                  87936027.775 6  21120675.117                    21120677.043
                        37.700
                  84002394.906 6  20225508.313                    20225508.398
                        38.900
 132482770.865 6 103233371.33643  25210640.258                    25210642.984
        38.700          20.900
                  94255525.791 5  22670287.961                    22670291.965
                        33.000
                  91930265.127 3  22103257.789                    22103258.125
                        22.300
                  84149765.849 6  20253875.984                    20253877.102
                        36.100
                  86586785.451 6  20803898.844                    20803901.398
                        38.600
                  94405243.072 6  22738224.102                    22738226.016
                        36.300
 129138657.238 8 100627555.89744  24574274.273                    24574278.406
        48.500          25.800
 118662525.618 7  92464320.85645  22580729.109                    22580734.281
        46.700          35.900
 130410071.496 6 101618250.44543  24816212.078                    24816215.371
        38.300          22.800
 119303400.287 7  92963706.03645  22702682.328                    22702688.570
        45.400          30.300
 114357668.972 7  89109884.00345  21761541.883                    21761544.879
        46.000          30.600
 112670547.789 8  87795246.20946  21440492.859                    21440495.883
        51.100          36.900
 111919378.706 8  87209909.06445  21297548.672                    21297551.266
        48.200          30.800
 18  3 15 10 48 25.0000000  0 16G20R07R09G21R01R24R16R17R18G07G08G11
                                G30G28G15G13
 120084848.460 6  93572656.44444  22851391.375                    22851397.203
        37.400          26.500
                  87938789.079 6  21121339.664                    21121340.652
                        39.000
                  84000821.174 6  20225130.211                    20225129.594
                        39.000
 132485844.908 6 103235766.68243  25211225.242                    25211227.727
        38.900          21.800
                  94252649.201 5  22669597.258                    22669600.000
                        32.900
                  91933065.629 3  22103931.961                    22103931.559
                        23.000
                  84151872.792 6  20254382.766                    20254383.918
                        36.500
                  86586492.099 6  20803828.078                    20803830.734
                        38.900
                  94402345.449 5  22737527.805                    22737528.270
                        35.800
 129142653.733 7 100630670.04544  24575034.836                    24575038.652
        47.900          25.800
 118663781.692 7  92465299.61845  22580968.875                    22580972.973
        47.300          35.400
 130406941.928 6 101615811.82643  24815616.555                    24815619.973
        38.300          22.200
 119306684.760 7  92966265.36645  22703306.984                    22703313.211
        45.400          30.800
 114357014.904 7  89109374.33645  21761417.203                    21761420.168
        45.600          30.700
 112670510.846 8  87795217.41746  21440485.727                    21440488.965
        51.200          37.400
 111921092.797 8  87211244.71945  21297875.203                    21297877.688
        48.300          30.400
 18  3 15 10 48 26.0000000  0 16G20R07R09G21R01R24R16R17R18G07G08G11
                                G30G28G15G13
 120087751.483 6  93574918.49744  22851947.594                    22851949.535
        40.400          27.200
                  87941550.860 6  21122004.938                    21122005.238
                        39.300
                  83999248.007 6  20224750.703                    20224750.984
                        38.900
 132488919.258 6 103238162.27643  25211810.414                    25211812.996
        38.000          21.300
                  94249772.957 5  22668905.539                    22668908.586
                        32.600
                  91935866.647 3  22104603.953                    22104604.504
                        22.300
                  84153980.309 6  20254890.617                    20254891.156
                        36.700
                  86586199.529 6  20803758.680                    20803760.395
                        38.900
                  94399448.189 5  22736829.430                    22736830.523
                        34.300
 129146650.451 8 100633784.36944  24575795.469                    24575798.754
        48.200          25.900
 118665038.460 8  92466278.91945  22581208.117                    22581212.406
        48.500          35.400
 130403812.704 6 101613373.46843  24815021.055                    24815024.547
        39.100          22.600
 119309969.645 7  92968825.01445  22703932.508                    22703938.445
        45.700          30.800
 114356361.454 7  89108865.15245  21761292.352                    21761295.230
        45.800          30.800
 112670474.646 8  87795189.21446  21440478.664                    21440482.043
        51.200          36.700
 111922807.575 8  87212580.91944  21298200.945                    21298203.492
        48.200          29.900
 18  3 15 10 48 27.0000000  0 16G20R07R09G21R01R24R16R17R18G07G08G11
                                G30G28G15G13
 120090655.024 7  93577180.96044  22852501.391                    22852501.898
        43.500          27.100
                  87944313.177 6  21122668.469                    21122669.664
                        39.200
                  83997675.510 6  20224371.578                    20224372.242
                        38.600
 132491994.012 6 103240558.20143  25212394.234                    25212398.113
        36.800          21.300
                  94246897.107 5  22668213.555                    22668216.824
                        32.400
                  91938668.279 4  22105276.664                    22105278.176
                        24.300
                  84156088.490 6  20255397.633                    20255398.758
                        36.700
                  86585907.801 6  20803688.109                    20803689.984
                        38.500
                  94396551.316 5  22736130.273                    22736132.855
                        33.900
 129150647.450 8 100636898.91444  24576556.070                    24576559.523
        48.400          26.800
 118666296.026 8  92467258.83745  22581447.609                    22581451.594
        49.000          34.900
 130400683.947 6 101610935.47843  24814424.898                    24814428.797
        39.700          22.500
 119313255.078 7  92971385.08945  22704557.273                    22704563.645
        45.400          31.800
 114355708.733 7  89108356.53445  21761168.609                    21761171.496
        45.700          30.500
 112670439.268 8  87795161.65046  21440471.727                    21440475.227
        51.200          37.400
 111924523.173 7  87213917.75944  21298527.016                    21298530.324
        47.800          29.400
 18  3 15 10 48 28.0000000  0 17G20R07R09G21R01R24R08R16R17R18G07G08
                                G11G30G28G15G13
 120093559.106 7  93579443.89244  22853052.398                    22853054.805
        43.600          27.400
                  87947076.044 6  21123331.773                    21123334.203
                        38.300
                  83996103.609 6  20223994.039                    20223993.047
                        38.900
 132495069.068 6 103242954.35343  25212978.844                    25212983.199
        36.300          20.900
                  94244021.604 5  22667521.641                    22667525.168
                        33.000
                  91941470.449 4  22105950.336                    22105952.203
                        25.100
                  84132684.91117  20200098.227                    20200098.652
                        42.700
                  84158197.272 6  20255905.234                    20255906.180
                        36.400
                  86585616.855 6  20803618.469                    20803620.387
                        39.200
                  94393654.816 5  22735432.188                    22735434.215
                        35.200
 129154644.673 8 100640013.62844  24577316.461                    24577320.078
        48.800          26.400
 118667554.326 8  92468239.33545  22581686.578                    22581691.211
        49.600          35.400
 130397555.536 6 101608497.74843  24813830.750                    24813833.406
        39.400          22.000
 119316540.961 7  92973945.51945  22705182.297                    22705189.203
        45.300          31.500
 114355056.611 7  89107848.39645  21761044.406                    21761047.230
        45.300          30.400
 112670404.626 8  87795134.66146  21440465.313                    21440468.602
        51.000          37.500
 111926239.455 7  87215255.12844  21298853.695                    21298856.879
        47.600          29.600
 18  3 15 10 48 29.0000000  0 17G20R07R09G21R01R24R08R16R17R18G07G08
                                G11G30G28G15G13
 120096463.746 6  93581707.28144  22853603.398                    22853607.863
        40.800          26.900
                  87949839.464 6  21123992.750                    21123997.750
                        37.400
                  83994532.254 6  20223614.625                    20223615.500
                        38.900
 132498144.397 5 103245350.70243  25213564.563                    25213568.613
        34.800          21.800
                  94241146.424 5  22666830.383                    22666833.113
                        32.300
                  91944273.175 4  22106624.875                    22106625.781
                        26.000
                  84132219.318 7  20199986.336                    20199986.855
                        42.700
                  84160306.630 6  20256412.445                    20256413.992
                        36.400
                  86585326.685 6  20803549.117                    20803550.766
                        39.100
                  94390758.706 6  22734736.047                    22734737.344
                        36.100
 129158642.086 8 100643128.50344  24578077.320                    24578081.051
        48.400          26.300
 118668813.326 8  92469220.38745  22581925.695                    22581930.879
        49.900          34.400
 130394427.460 6 101606060.27843  24813235.227                    24813238.270
        40.000          22.800
 119319827.281 7  92976506.29245  22705808.289                    22705813.863
        45.500          31.300
 114354405.129 7  89107340.75445  21760920.922                    21760923.152
        45.700          30.200
 112670370.715 8  87795108.23146  21440458.984                    21440462.137
        50.800          37.100
 111927956.423 8  87216593.01244  21299180.852                    21299183.617
        48.200          29.300
 18  3 15 10 48 30.0000000  0 17G20R07R09G21R01R24R08R16R17R18G07G08
                                G11G30G28G15G13
 120099368.998 6  93583971.15344  22854155.195                    22854160.613
        37.300          26.900
                  87952603.458 6  21124653.992                    21124659.703
                        37.300
                  83992961.523 6  20223237.609                    20223237.336
                        39.100
 132501220.077 5 103247747.30743  25214149.516                    25214153.871
        33.200          20.900
                  94238271.590 5  22666138.586                    22666141.734
                        33.100
                  91947076.415 4  22107298.195                    22107300.156
                        25.700
                  84131754.434 7  20199874.328                    20199875.438
                        42.800
                  84162416.590 6  20256920.594                    20256921.902
                        36.300
                  86585037.274 6  20803479.898                    20803480.988
                        38.800
                  94387862.956 6  22734040.398                    22734040.234
                        36.400
 129162639.716 8 100646243.53244  24578838.258                    24578842.086
        48.500          24.900
 118670073.060 8  92470202.01745  22582165.203                    22582170.516
        50.500          35.700
 130391299.688 6 101603623.05843  24812640.148                    24812642.910
        39.900          23.400
 119323113.996 7  92979067.36845  22706434.359                    22706439.688
        46.400          31.300
 114353754.235 7  89106833.56145  21760796.383                    21760799.438
        45.500          30.900
 112670337.541 8  87795082.38346  21440452.469                    21440455.918
        51.100          37.100
 111929674.077 8  87217931.43245  21299508.000                    21299510.363
        48.300          30.000
 18  3 15 10 48 31.0000000  0 17G20R07R09G21R01R24R08R16R17R18G07G08
                                G11G30G28G15G13
 120102274.814 6  93586235.38644  22854709.734                    22854713.023
        39.500          26.300
                  87955368.010 6  21125320.969                    21125321.598
                        37.700
                  83991391.352 6  20222859.031                    20222859.109
                        38.900
 132504296.102 5 103250144.17143  25214735.266                    25214739.633
        32.800          20.100
                  94235397.079 5  22665446.539                    22665450.523
                        33.300
                  91949880.179 4  22107972.438                    22107974.438
                        25.100
                  84131290.264 7  20199763.969                    20199764.102
                        42.700
                  84164527.080 6  20257428.906                    20257429.676
                        36.800
                  86584748.624 6  20803410.813                    20803411.641
                        38.900
                  94384967.565 5  22733341.922                    22733343.328
                        35.300
 129166637.520 8 100649358.70044  24579598.836                    24579602.273
        48.300          25.600
 118671333.505 8  92471184.20045  22582404.633                    22582410.633
        50.100          35.300
 130388172.276 6 101601186.12843  24812044.953                    24812047.957
        40.000          23.200
 119326401.150 7  92981628.79245  22707058.922                    22707065.125
        45.600          31.800
 114353103.937 7  89106326.82745  21760673.109                    21760676.102
        45.300          31.300
 112670305.120 8  87795057.12246  21440445.844                    21440449.797
        51.000          37.100
 111931392.386 8  87219270.38044  21299835.203                    21299837.672
        48.800          29.100
 18  3 15 10 48 32.0000000  0 17G20R07R09G21R01R24R08R16R17R18G07G08
                                G11G30G28G15G13
 120105181.073 7  93588499.94344  22855265.820                    22855266.313
        43.200          26.800
                  87958132.979 6  21125989.633                    21125986.016
                        38.300
                  83989821.769 6  20222481.375                    20222481.000
                        39.100
 132507372.399 5 103252541.24743  25215321.727                    25215325.090
        34.300          20.400
                  94232522.936 5  22664755.094                    22664759.539
                        33.700
                  91952684.464 4  22108646.938                    22108648.715
                        24.600
                  84130826.831 7  20199652.578                    20199652.895
                        42.800
                  84166638.180 6  20257936.375                    20257937.828
                        36.700
                  86584460.740 6  20803341.695                    20803342.199
                        38.900
                  94382072.543 5  22732642.234                    22732645.762
                        34.500
 129170635.539 8 100652474.04344  24580359.648                    24580363.609
        48.400          24.900
 118672594.686 8  92472166.95545  22582644.523                    22582650.500
        50.400          34.700
 130385045.211 6 101598749.44943  24811449.477                    24811452.434
        40.400          22.900
 119329688.757 7  92984190.56345  22707684.102                    22707690.691
        45.600          31.400
 114352454.271 7  89105820.58845  21760549.336                    21760552.035
        45.900          31.500
 112670273.429 8  87795032.42946  21440439.852                    21440443.582
        50.700          37.000
 111933111.426 8  87220609.89545  21300161.430                    21300164.602
        48.300          30.000
 18  3 15 10 48 33.0000000  0 17G20R07R09G21R01R24R08R16R17R18G07G08
                                G11G30G28G15G13
 120108087.815 7  93590764.93144  22855818.938                    22855819.754
        43.400          27.600
                  87960898.439 6  21126652.992                    21126651.348
                        38.900
                  83988252.781 6  20222104.180                    20222103.941
                        39.100
 132510448.961 5 103254938.51743  25215907.195                    25215910.559
        34.100          19.900
                  94229649.078 5  22664064.914                    22664067.801
                        33.700
                  91955489.255 4  22109321.633                    22109322.699
                        26.300
                  84130364.121 7  20199541.188                    20199541.410
                        42.800
                  84168749.847 6  20258444.430                    20258446.305
                        36.900
                  86584173.609 6  20803272.406                    20803273.828
                        38.900
                  94379177.900 5  22731945.609                    22731947.723
                        35.100
 129174633.777 8 100655589.54644  24581120.367                    24581124.023
        48.800          24.600
 118673856.557 8  92473150.24945  22582884.484                    22582890.594
        50.000          35.300
 130381918.516 6 101596313.06543  24810854.766                    24810857.910
        40.500          23.600
 119332976.783 7  92986752.65245  22708310.508                    22708316.434
        46.000          31.600
 114351805.225 7  89105314.83945  21760425.672                    21760428.660
        45.700          30.500
 112670242.453 8  87795008.29346  21440434.547                    21440437.465
        50.700          37.200
 111934831.143 8  87221949.93845  21300488.516                    21300491.543
        48.200          30.400
 18  3 15 10 48 34.0000000  0 17G20R07R09G21R01R24R08R16R17R18G07G08
                                G11G30G28G15G13
 120110995.064 6  93593030.35744  22856370.000                    22856373.340
        41.700          26.500
                  87963664.407 6  21127314.617                    21127317.094
                        39.100
                  83986684.294 6  20221725.102                    20221726.125
                        38.800
 132513525.831 6 103257336.03543  25216493.344                    25216495.672
        36.700          20.600
                  94226775.546 5  22663373.438                    22663376.672
                        33.600
                  91958294.568 4  22109996.719                    22109997.230
                        24.900
                  84129902.104 7  20199430.086                    20199430.539
                        42.600
                  84170862.050 6  20258954.133                    20258954.898
                        36.700
                  86583887.217 6  20803203.547                    20803204.797
                        39.100
                  94376283.605 5  22731249.922                    22731250.473
                        35.300
 129178632.157 8 100658705.16444  24581881.500                    24581885.066
        48.600          24.600
 118675119.096 8  92474134.05645  22583124.250                    22583130.695
        49.300          35.000
 130378792.071 6 101593876.87343  24810259.813                    24810263.227
        40.600          22.000
 119336265.160 7  92989315.02245  22708936.531                    22708942.559
        45.900          31.900
 114351156.691 7  89104809.49245  21760302.609                    21760305.664
        45.600          31.200
 112670212.148 8  87794984.67946  21440428.773                    21440431.695
        51.000          37.300
 111936551.494 7  87223290.46745  21300816.102                    21300819.215
        47.900          30.200
 18  3 15 10 48 35.0000000  0 17G20R07R09G21R01R24R08R16R17R18G07G08
                                G11G30G28G15G13
 120113902.944 6  93595296.28044  22856920.352                    22856926.828
        38.700          26.700
                  87966430.964 6  21127976.641                    21127982.156
                        38.500
                  83985116.461 6  20221348.984                    20221348.758
                        38.500
 132516603.003 6 103259733.83243  25217079.836                    25217081.930
        36.900          20.400
                  94223902.351 5  22662682.977                    22662686.008
                        33.500
                  91961100.453 4  22110672.180                    22110671.852
                        25.000
                  84129440.818 7  20199319.570                    20199319.770
                        42.700
                  84172974.909 6  20259461.680                    20259463.113
                        36.400
                  86583601.650 6  20803134.523                    20803136.156
                        39.300
                  94373389.676 6  22730553.250                    22730553.766
                        36.600
 129182630.777 8 100661820.97343  24582642.023                    24582645.504
        48.300          22.900
 118676382.417 8  92475118.46745  22583364.461                    22583371.367
        49.000          34.900
 130375666.040 6 101591440.99543  24809665.000                    24809667.855
        40.500          23.000
 119339554.073 7  92991877.81645  22709561.555                    22709568.348
        45.500          31.400
 114350508.831 7  89104304.66045  21760178.969                    21760181.719
        45.700          31.200
 112670182.626 8  87794961.67646  21440423.133                    21440426.098
        51.100          37.300
 111938272.575 8  87224631.56945  21301143.891                    21301146.824
        48.200          30.700
 18  3 15 10 48 36.0000000  0 17G20R07R09G21R01R24R08R16R17R18G07G08
                                G11G30G28G15G13
 120116811.424 6  93597562.61644  22857475.281                    22857479.762
        39.200          26.500
                  87969198.086 6  21128641.414                    21128646.242
                        38.000
                  83983549.226 6  20220970.430                    20220971.168
                        38.300
 132519680.539 6 103262131.92843  25217664.797                    25217667.598
        36.800          19.600
                  94221029.521 5  22661991.625                    22661995.031
                        33.200
                  91963906.875 4  22111344.820                    22111346.336
                        24.200
                  84128980.291 7  20199208.688                    20199209.535
                        42.900
                  84175088.364 6  20259970.867                    20259972.109
                        36.400
                  86583316.874 6  20803065.453                    20803067.621
                        39.100
                  94370496.094 5  22729854.906                    22729857.523
                        35.600
 129186629.629 8 100664936.96144  24583403.133                    24583406.656
        48.300          24.400
 118677646.453 8  92476103.43545  22583604.445                    22583611.438
        48.300          34.500
 130372540.365 6 101589005.39543  24809070.414                    24809073.270
        40.300          22.800
 119342843.381 7  92994440.91245  22710188.469                    22710194.012
        46.000          30.900
 114349861.632 7  89103800.35745  21760055.938                    21760058.621
        46.100          30.700
 112670153.878 8  87794939.27746  21440417.414                    21440420.340
        51.100          37.100
 111939994.379 8  87225973.23744  21301471.563                    21301474.699
        48.200          29.800
 18  3 15 10 48 37.0000000  0 17G20R07R09G21R01R24R08R16R17R18G07G08
                                G11G30G28G15G13
 120119720.379 7  93599829.29844  22858031.289                    22858033.109
        42.100          26.500
                  87971965.648 6  21129308.617                    21129309.820
                        37.900
                  83981982.577 6  20220593.992                    20220593.809
                        38.400
 132522758.367 6 103264530.26343  25218250.328                    25218253.012
        37.600          19.600
                  94218157.034 5  22661301.039                    22661303.984
                        34.100
                  91966713.864 4  22112020.273                    22112021.789
                        24.400
                  84128520.473 7  20199098.453                    20199099.523
                        42.700
                  84177202.399 6  20260479.453                    20260480.949
                        36.900
                  86583032.828 6  20802998.375                    20802999.723
                        38.700
                  94367602.914 5  22729157.820                    22729160.609
                        35.300
 129190628.689 8 100668053.12743  24584164.336                    24584167.668
        48.300          22.500
 118678911.228 7  92477088.97745  22583844.875                    22583852.230
        47.900          34.000
 130369415.028 6 101586570.06143  24808475.313                    24808478.566
        39.800          22.800
 119346133.173 7  92997004.38445  22710814.078                    22710820.008
        46.400          31.200
 114349215.022 7  89103296.50945  21759932.945                    21759935.836
        46.500          30.600
 112670125.854 8  87794917.43746  21440412.117                    21440415.492
        51.100          37.300
 111941716.867 7  87227315.44145  21301799.102                    21301802.379
        47.900          30.500
 18  3 15 10 48 38.0000000  0 17G20R07R09G21R01R24R08R16R17R18G07G08
                                G11G30G28G15G13
 120122629.838 7  93602096.40044  22858584.695                    22858587.477
        42.200          26.000
                  87974733.725 6  21129972.766                    21129974.129
                        38.100
                  83980416.541 6  20220217.109                    20220217.059
                        38.600
 132525836.470 6 103266928.79143  25218835.445                    25218838.973
        37.900          19.600
                  94215284.878 5  22660610.109                    22660613.125
                        32.900
                  91969521.424 3  22112696.414                    22112697.207
                        22.800
                  84128061.392 7  20198987.789                    20198988.895
                        42.600
                  84179316.995 6  20260988.398                    20260989.621
                        36.700
                  86582749.571 6  20802929.484                    20802931.238
                        38.700
                  94364710.132 5  22728461.813                    22728462.910
                        34.300
 129194627.958 7 100671169.44343  24584925.141                    24584928.938
        47.500          22.600
 118680176.710 7  92478075.06445  22584085.945                    22584093.215
        47.200          34.000
 130366290.039 6 101584134.99643  24807881.656                    24807884.027
        39.900          23.600
 119349423.387 7  92999568.18345  22711440.102                    22711446.250
        46.000          31.700
 114348569.044 7  89102793.15145  21759810.055                    21759812.938
        46.400          30.600
 112670098.572 8  87794896.16946  21440407.008                    21440410.410
        51.200          37.000
 111943440.064 7  87228658.19745  21302126.078                    21302130.367
        47.500          30.400
 18  3 15 10 48 39.0000000  0 16G20R07R09G21R01R24R16R17R18G07G08G11
                                G30G28G15G13
 120125539.909 6  93604364.01344  22859136.055                    22859141.148
        40.000          27.600
                  87977502.359 6  21130637.047                    21130639.141
                        38.600
                  83978851.034 6  20219838.461                    20219840.090
                        38.300
 132528914.938 6 103269327.62543  25219420.547                    25219424.148
        36.700          19.000
                  94212413.086 5  22659918.859                    22659922.523
                        33.100
                  91972329.503 4  22113370.164                    22113372.082
                        24.300
                  84181432.186 6  20261497.453                    20261498.840
                        36.400
                  86582467.097 6  20802861.867                    20802863.547
                        38.800
                  94361817.705 5  22727766.180                    22727766.465
                        35.500
 129198627.436 7 100674285.91343  24585686.188                    24585689.789
        47.500          23.900
 118681442.937 7  92479061.72645  22584327.234                    22584334.020
        46.900          34.200
 130363165.420 6 101581700.23443  24807286.805                    24807289.477
        40.300          23.200
 119352714.028 7  93002132.31345  22712066.406                    22712072.570
        45.400          30.800
 114347923.701 7  89102290.28645  21759687.102                    21759690.152
        46.600          30.900
 112670072.029 8  87794875.48346  21440401.977                    21440405.098
        51.400          37.000
 111945163.955 7  87230001.48245  21302454.906                    21302458.035
        47.900          31.400
 18  3 15 10 48 40.0000000  0 16G20R07R09G21R01R24R16R17R18G07G08G11
                                G30G28G15G13
 120128450.521 6  93606632.02244  22859689.734                    22859694.625
        38.300          26.700
                  87980271.553 6  21131301.883                    21131304.523
                        38.900
                  83977286.145 6  20219463.008                    20219463.105
                        38.200
 132531993.646 6 103271726.64643  25220006.102                    25220009.973
        36.600          18.600
                  94209541.623 5  22659228.492                    22659231.609
                        32.900
                  91975138.148 4  22114046.031                    22114047.348
                        25.200
                  84183547.936 6  20262006.367                    20262008.148
                        37.000
                  86582185.405 6  20802794.063                    20802796.242
                        38.900
                  94358925.601 6  22727070.164                    22727070.059
                        36.400
 129202627.129 7 100677402.55943  24586447.297                    24586450.805
        47.200          22.600
 118682709.885 7  92480048.94945  22584568.789                    22584575.055
        46.900          34.100
 130360041.145 6 101579265.75643  24806691.805                    24806694.906
        40.800          23.400
 119356005.132 7  93004696.80645  22712692.641                    22712698.695
        45.500          31.100
 114347278.977 7  89101787.89845  21759563.969                    21759567.102
        46.000          30.300
 112670046.232 8  87794855.38046  21440397.180                    21440400.227
        51.000          37.100
 111946888.545 8  87231345.29745  21302783.586                    21302786.188
        48.000          30.400
 18  3 15 10 48 41.0000000  0 16G20R07R09G21R01R24R16R17R18G07G08G11
                                G30G28G15G13
 120131361.654 6  93608900.41744  22860245.875                    22860248.469
        40.500          26.700
                  87983041.254 6  21131969.320                    21131969.469
                        38.300
                  83975721.881 6  20219087.672                    20219086.234
                        38.600
 132535072.694 6 103274125.91743  25220592.586                    25220596.133
        36.700          18.600
                  94206670.524 5  22658537.961                    22658541.629
                        33.400
                  91977947.288 4  22114720.797                    22114722.246
                        25.100
                  84185664.259 6  20262515.563                    20262517.102
                        36.800
                  86581904.466 6  20802725.781                    20802728.586
                        39.300
                  94356033.854 6  22726370.953                    22726374.016
                        36.700
 129206627.016 7 100680519.34143  24587208.664                    24587212.016
        47.600          22.300
 118683977.569 7  92481036.75345  22584810.391                    22584816.168
        47.300          34.800
 130356917.206 6 101576831.51043  24806097.602                    24806100.590
        40.500          23.900
 119359296.657 7  93007261.63245  22713319.477                    22713325.582
        46.100          31.200
 114346634.854 7  89101285.98545  21759441.938                    21759444.609
        45.900          30.600
 112670021.149 8  87794835.83346  21440392.250                    21440395.660
        50.700          37.000
 111948613.819 8  87232689.66145  21303112.266                    21303114.418
        49.000          30.000
 18  3 15 10 48 42.0000000  0 16G20R07R09G21R01R24R16R17R18G07G08G11
                                G30G28G15G13
 120134273.297 6  93611169.21944  22860800.313                    22860802.348
        41.400          27.900
                  87985811.498 6  21132634.984                    21132635.617
                        38.500
                  83974158.161 6  20218709.438                    20218709.586
                        38.500
 132538152.082 6 103276525.44843  25221178.477                    25221181.984
        37.300          19.000
                  94203799.724 5  22657848.031                    22657850.746
                        33.300
                  91980756.962 4  22115396.875                    22115398.125
                        25.700
                  84187781.186 6  20263026.195                    20263027.199
                        36.300
                  86581624.324 6  20802658.398                    20802661.273
                        39.000
                  94353142.559 6  22725674.750                    22725677.668
                        36.400
 129210627.129 7 100683636.30043  24587969.672                    24587973.117
        47.600          22.800
 118685245.954 7  92482025.10445  22585052.273                    22585057.645
        47.000          34.700
 130353793.645 6 101574397.56543  24805502.977                    24805506.055
        40.100          22.200
 119362588.647 7  93009826.82645  22713944.891                    22713951.172
        46.000          31.600
 114345991.352 7  89100784.55245  21759319.453                    21759322.215
        46.200          30.400
 112669996.827 8  87794816.88346  21440387.516                    21440390.988
        50.800          37.100
 111950339.782 8  87234034.57045  21303440.641                    21303442.832
        48.700          30.200
 18  3 15 10 48 43.0000000  0 16G20R07R09G21R01R24R16R17R18G07G08G11
                                G30G28G15G13
 120137185.496 6  93613438.47144  22861354.000                    22861356.879
        41.600          28.400
                  87988582.212 6  21133299.492                    21133301.074
                        38.000
                  83972595.039 6  20218333.844                    20218333.305
                        38.400
 132541231.746 6 103278925.18043  25221764.102                    25221767.703
        37.000          18.600
                  94200929.275 5  22657157.336                    22657160.270
                        33.500
                  91983567.168 4  22116072.750                    22116073.262
                        26.800
                  84189898.686 6  20263535.422                    20263536.668
                        36.200
                  86581344.935 6  20802591.367                    20802593.586
                        39.000
                  94350251.635 5  22724980.398                    22724981.555
                        34.800
 129214627.434 7 100686753.42043  24588731.047                    24588734.359
        47.300          23.400
 118686515.070 7  92483014.02145  22585294.188                    22585299.352
        47.300          34.600
 130350670.411 6 101571963.86943  24804909.156                    24804911.949
        40.400          22.900
 119365881.040 7  93012392.33245  22714571.844                    22714578.648
        45.500          30.900
 114345348.474 7  89100283.60245  21759197.234                    21759200.039
        46.400          30.500
 112669973.235 8  87794798.50046  21440383.055                    21440386.035
        50.800          36.600
 111952066.435 8  87235380.01644  21303769.047                    21303771.863
        48.600          29.700
 18  3 15 10 48 44.0000000  0 16G20R07R09G21R01R24R16R17R18G07G08G11
                                G30G28G15G13
 120140098.241 6  93615708.15644  22861907.125                    22861910.945
        40.600          27.200
                  87991353.514 6  21133963.766                    21133966.605
                        38.300
                  83971032.541 6  20217958.352                    20217957.723
                        38.200
 132544311.732 6 103281325.16743  25222350.086                    25222353.973
        36.500          19.000
                  94198059.153 5  22656466.602                    22656470.445
                        33.200
                  91986377.922 4  22116749.438                    22116749.453
                        25.700
                  84192016.797 6  20264045.531                    20264046.914
                        36.100
                  86581066.327 6  20802524.414                    20802527.113
                        39.100
                  94347361.037 5  22724284.102                    22724285.504
                        34.500
 129218627.935 7 100689870.69243  24589492.383                    24589495.617
        47.800          22.000
 118687784.905 8  92484003.50645  22585535.906                    22585541.234
        48.400          34.900
 130347547.556 6 101569530.46143  24804314.531                    24804317.582
        40.500          22.900
 119369173.895 7  93014958.19145  22715198.281                    22715204.645
        45.100          31.100
 114344706.230 7  89099783.15045  21759074.875                    21759077.539
        45.800          30.200
 112669950.403 8  87794780.70546  21440379.016                    21440382.246
        50.800          36.800
 111953793.797 8  87236726.02145  21304097.281                    21304100.191
        48.200          30.700
 18  3 15 10 48 45.0000000  0 16G20R07R09G21R01R24R16R17R18G07G08G11
                                G30G28G15G13
 120143011.515 6  93617978.25544  22862461.016                    22862465.344
        40.200          27.900
                  87994125.314 6  21134628.352                    21134631.898
                        38.600
                  83969470.571 6  20217580.391                    20217580.855
                        38.500
 132547391.976 6 103283725.35643  25222936.188                    25222939.934
        37.500          19.300
                  94195189.358 5  22655776.836                    22655780.359
                        33.200
                  91989189.216 4  22117425.672                    22117425.539
                        26.800
                  84194135.475 6  20264554.766                    20264556.113
                        36.400
                  86580788.457 6  20802457.836                    20802460.078
                        39.300
                  94344470.749 5  22723586.680                    22723588.719
                        35.800
 129222628.636 7 100692988.12843  24590253.523                    24590257.285
        47.900          21.700
 118689055.439 8  92484993.54845  22585777.766                    22585783.000
        49.100          35.100
 130344424.996 6 101567097.31143  24803720.141                    24803723.289
        40.600          22.000
 119372467.151 7  93017524.36145  22715825.063                    22715831.117
        45.500          31.500
 114344064.552 7  89099283.14645  21758953.000                    21758955.254
        45.400          30.400
 112669928.264 8  87794763.45446  21440374.711                    21440377.934
        51.100          36.700
 111955521.844 8  87238072.56145  21304426.219                    21304429.574
        48.100          30.100
 18  3 15 10 48 46.0000000  0 16G20R07R09G21R01R24R16R17R18G07G08G11
                                G30G28G15G13
 120145925.303 6  93620248.73744  22863016.055                    22863020.043
        39.900          28.000
                  87996897.623 6  21135295.727                    21135297.832
                        38.900
                  83967909.177 6  20217205.008                    20217204.867
                        38.500
 132550472.614 6 103286125.85543  25223522.656                    25223526.449
        36.800          20.100
                  94192319.884 5  22655086.297                    22655089.672
                        32.700
                  91992001.036 4  22118101.836                    22118101.465
                        25.400
                  84196254.711 6  20265065.547                    20265066.480
                        36.500
                  86580511.377 6  20802391.125                    20802393.395
                        39.400
                  94341580.813 6  22722890.023                    22722892.789
                        36.700
 129226629.551 8 100696105.72543  24591014.711                    24591018.215
        48.000          21.700
 118690326.666 8  92485984.12645  22586019.633                    22586024.742
        49.800          34.800
 130341302.753 6 101564664.39643  24803126.031                    24803129.273
        40.200          22.600
 119375760.832 7  93020090.86645  22716451.648                    22716458.301
        45.700          32.300
 114343423.486 7  89098783.61045  21758830.875                    21758833.609
        45.100          30.400
 112669906.862 8  87794746.78446  21440370.484                    21440373.910
        50.900          36.200
 111957250.539 7  87239419.59444  21304754.695                    21304758.336
        47.600          29.800
 18  3 15 10 48 47.0000000  0 16G20R07R09G21R01R24R16R17R18G07G08G11
                                G30G28G15G13
 120148839.638 6  93622519.62644  22863571.164                    22863574.340
        41.500          26.900
                  87999670.416 6  21135961.695                    21135964.445
                        39.000
                  83966348.423 6  20216831.086                    20216829.348
                        38.900
 132553553.479 5 103288526.52643  25224108.742                    25224112.281
        35.000          20.100
                  94189450.770 5  22654396.219                    22654399.598
                        33.100
                  91994813.367 4  22118777.125                    22118778.266
                        24.800
                  84198374.537 6  20265574.695                    20265577.359
                        36.800
                  86580235.064 6  20802324.930                    20802327.176
                        39.400
                  94338691.299 6  22722195.828                    22722196.949
                        37.100
 129230630.686 8 100699223.48843  24591775.969                    24591779.828
        48.200          21.700
 118691598.595 8  92486975.24545  22586261.266                    22586266.730
        49.600          34.900
 130338180.898 6 101562231.78743  24802532.281                    24802535.035
        39.500          22.800
 119379054.938 7  93022657.69945  22717079.281                    22717084.977
        45.700          32.000
 114342783.031 7  89098284.55345  21758709.172                    21758711.383
        45.500          30.500
 112669886.190 8  87794730.67346  21440366.773                    21440369.934
        51.100          36.400
 111958979.957 7  87240767.19244  21305083.750                    21305087.234
        47.800          29.400
 18  3 15 10 48 48.0000000  0 16G20R07R09G21R01R24R16R17R18G07G08G11
                                G30G28G15G13
 120151754.507 7  93624790.94344  22864126.250                    22864129.273
        42.700          27.600
                  88002443.736 6  21136628.234                    21136630.582
                        38.600
                  83964788.212 6  20216453.266                    20216453.957
                        38.900
 132556634.620 5 103290927.40043  25224695.953                    25224698.836
        35.900          20.900
                  94186582.021 5  22653706.469                    22653709.410
                        33.300
                  91997626.243 3  22119453.313                    22119454.184
                        23.900
                  84200494.936 6  20266085.922                    20266087.512
                        36.500
                  86579959.527 6  20802259.117                    20802260.836
                        39.100
                  94335802.177 5  22721500.648                    22721501.887
                        35.900
 129234632.032 8 100702341.40643  24592537.867                    24592541.156
        48.100          21.700
 118692871.244 8  92487966.92745  22586503.203                    22586508.746
        49.900          34.800
 130335059.396 6 101559799.46243  24801937.750                    24801941.051
        39.300          22.500
 119382349.506 7  93025224.89645  22717705.859                    22717712.301
        46.000          31.600
 114342143.202 7  89097785.98145  21758587.070                    21758590.031
        45.800          30.800
 112669866.293 8  87794715.17246  21440362.867                    21440366.020
        51.400          36.800
 111960710.076 8  87242115.32144  21305413.680                    21305416.270
        48.000          29.700
 18  3 15 10 48 49.0000000  0 16G20R07R09G21R01R24R16R17R18G07G08G11
                                G30G28G15G13
 120154669.865 7  93627062.65644  22864680.945                    22864684.371
        42.600          26.800
                  88005217.564 6  21137294.398                    21137297.094
                        38.600
                  83963228.575 6  20216077.695                    20216078.230
                        38.400
 132559716.140 5 103293328.56343  25225282.063                    25225285.555
        35.900          20.600
                  94183713.600 5  22653016.813                    22653020.039
                        34.100
                  92000439.677 4  22120129.055                    22120130.961
                        24.600
                  84202615.923 6  20266596.367                    20266597.379
                        36.800
                  86579684.742 6  20802193.461                    20802194.844
                        38.800
                  94332913.410 5  22720803.430                    22720806.082
                        35.000
 129238633.547 8 100705459.48043  24593299.242                    24593302.672
        48.200          21.500
 118694144.637 8  92488959.18845  22586744.969                    22586751.250
        49.800          34.700
 130331938.250 6 101557367.39743  24801343.930                    24801347.379
        38.600          22.500
 119385644.491 7  93027792.41545  22718332.680                    22718338.852
        46.300          31.200
 114341503.988 7  89097287.89645  21758465.695                    21758468.375
        46.000          30.000
 112669847.098 8  87794700.21746  21440359.492                    21440362.695
        51.700          36.900
 111962440.857 8  87243463.97045  21305743.602                    21305745.688
        49.100          30.300
 18  3 15 10 48 50.0000000  0 16G20R07R09G21R01R24R16R17R18G07G08G11
                                G30G28G15G13
 120157585.765 6  93629334.79644  22865234.953                    22865239.004
        41.000          27.000
                  88007991.893 6  21137960.430                    21137963.617
                        38.900
                  83961669.535 6  20215703.570                    20215702.961
                        38.500
 132562797.901 5 103295729.91543  25225869.000                    25225871.805
        35.500          21.100
                  94180845.491 5  22652326.539                    22652330.281
                        33.500
                  92003253.596 3  22120805.680                    22120807.734
                        23.800
                  84204737.484 6  20267106.930                    20267108.270
                        37.000
                  86579410.687 6  20802127.758                    20802128.957
                        39.100
                  94330024.970 5  22720106.875                    22720109.727
                        35.600
 129242635.254 8 100708577.69043  24594060.719                    24594063.977
        48.300          21.300
 118695418.704 8  92489951.98245  22586987.172                    22586993.715
        49.500          35.300
 130328817.354 6 101554935.52343  24800750.250                    24800753.148
        38.300          21.800
 119388939.871 7  93030360.24145  22718960.188                    22718966.168
        46.500          30.900
 114340865.352 7  89096790.25644  21758344.070                    21758346.715
        46.300          29.900
 112669828.595 8  87794685.80446  21440355.922                    21440358.891
        51.900          36.400
 111964172.302 8  87244813.14845  21306072.828                    21306074.895
        49.400          30.400
 18  3 15 10 48 51.0000000  0 16G20R07R09G21R01R24R16R17R18G07G08G11
                                G30G28G15G13
 120160502.197 6  93631607.36044  22865789.414                    22865794.109
        40.200          26.500
                  88010766.734 6  21138627.070                    21138629.629
                        38.700
                  83960111.054 6  20215329.008                    20215327.984
                        38.500
 132565879.906 6 103298131.44143  25226455.250                    25226459.078
        36.500          21.300
                  94177977.713 5  22651636.461                    22651639.848
                        34.000
                  92006068.026 4  22121480.633                    22121483.656
                        24.000
                  84206859.589 6  20267617.313                    20267619.012
                        36.900
                  86579137.414 6  20802062.281                    20802063.188
                        39.100
                  94327136.921 6  22719411.680                    22719413.563
                        36.200
 129246637.148 8 100711696.05843  24594822.031                    24594825.645
        48.500          20.600
 118696693.432 8  92490945.30245  22587229.914                    22587236.324
        49.400          35.300
 130325696.814 6 101552503.93843  24800156.445                    24800159.520
        37.300          21.100
 119392235.671 7  93032928.39745  22719587.102                    22719593.270
        45.900          31.500
 114340227.309 7  89096293.08144  21758222.570                    21758225.363
        46.100          29.700
 112669810.835 8  87794671.96546  21440352.508                    21440355.453
        51.700          36.600
 111965904.380 8  87246162.84045  21306402.164                    21306405.098
        49.200          30.900
 18  3 15 10 48 52.0000000  0 16G20R07R09G21R01R24R16R17R18G07G08G11
                                G30G28G15G13
 120163419.128 6  93633880.29044  22866344.773                    22866348.977
        40.900          26.100
                  88013542.097 6  21139294.063                    21139296.328
                        38.400
                  83958553.130 6  20214951.453                    20214952.164
                        38.700
 132568962.232 6 103300533.24543  25227042.484                    25227045.313
        37.100          21.500
                  94175110.280 5  22650947.453                    22650951.168
                        34.100
                  92008882.988 3  22122157.953                    22122160.961
                        23.200
                  84208982.305 6  20268128.328                    20268130.215
                        36.600
                  86578864.909 6  20801996.914                    20801998.367
                        39.100
                  94324249.259 6  22718717.531                    22718718.246
                        37.300
 129250639.245 8 100714814.57943  24595583.711                    24595587.125
        48.400          20.100
 118697968.893 8  92491939.17645  22587472.859                    22587478.801
        49.400          35.700
 130322576.626 6 101550072.62343  24799563.047                    24799565.637
        37.000          20.100
 119395531.903 7  93035496.88745  22720214.039                    22720220.500
        45.500          31.700
 114339589.915 7  89095796.40745  21758101.492                    21758104.074
        45.700          30.000
 112669793.800 8  87794658.69346  21440349.148                    21440351.980
        52.000          36.500
 111967637.182 8  87247513.08645  21306731.031                    21306734.801
        48.700          30.500
 18  3 15 10 48 53.0000000  0 16G20R07R09G21R01R24R16R17R18G07G08G11
                                G30G28G15G13
 120166336.631 6  93636153.65644  22866900.305                    22866904.223
        39.600          26.800
                  88016317.959 6  21139960.016                    21139962.512
                        38.200
                  83956995.818 6  20214577.500                    20214577.238
                        38.700
 132572044.843 6 103302935.25543  25227628.766                    25227632.336
        37.500          21.300
                  94172243.147 5  22650257.039                    22650260.723
                        33.800
                  92011698.464 3  22122835.414                    22122837.730
                        22.300
                  84211105.572 6  20268638.945                    20268640.750
                        36.200
                  86578593.164 6  20801932.109                    20801932.543
                        38.900
                  94321361.896 6  22718021.398                    22718023.148
                        36.900
 129254641.505 8 100717933.22743  24596345.422                    24596349.109
        48.600          20.900
 118699245.049 8  92492933.57945  22587715.609                    22587721.691
        48.900          35.400
 130319456.764 6 101547641.56043  24798968.672                    24798972.117
        36.400          20.100
 119398828.534 7  93038065.69445  22720841.430                    22720847.922
        45.500          31.100
 114338953.073 7  89095300.16645  21757980.219                    21757982.555
        45.300          30.300
 112669777.465 8  87794645.96445  21440345.758                    21440349.121
        51.700          35.900
 111969370.653 8  87248863.85145  21307060.859                    21307064.359
        48.000          30.400
 18  3 15 10 48 54.0000000  0 16G20R07R09G21R01R24R16R17R18G07G08G11
                                G30G28G15G13
 120169254.621 6  93638427.39844  22867456.352                    22867459.195
        40.900          27.700
                  88019094.343 6  21140626.375                    21140628.320
                        38.100
                  83955439.087 6  20214203.180                    20214202.563
                        38.700
 132575127.731 6 103305337.50343  25228215.789                    25228219.281
        37.400          21.100
                  94169376.340 5  22649568.172                    22649571.750
                        34.100
                  92014514.477 3  22123513.578                    22123514.402
                        22.100
                  84213229.391 6  20269150.680                    20269151.961
                        36.100
                  86578322.156 6  20801866.875                    20801867.684
                        38.900
                  94318474.865 6  22717325.516                    22717328.063
                        36.100
 129258643.954 8 100721052.01643  24597107.094                    24597110.473
        48.800          20.900
 118700521.940 8  92493928.56345  22587958.102                    22587964.824
        48.700          35.100
 130316337.227 5 101545210.75443  24798375.469                    24798378.105
        35.400          21.100
 119402125.605 7  93040634.84445  22721468.891                    22721475.133
        45.800          30.800
 114338316.842 7  89094804.40145  21757859.023                    21757862.063
        45.000          30.500
 112669761.866 8  87794633.80946  21440342.797                    21440346.148
        51.600          36.400
 111971104.823 7  87250215.15145  21307391.102                    21307394.395
        47.800          31.400
 18  3 15 10 48 55.0000000  0 16G20R07R09G21R01R24R16R17R18G07G08G11
                                G30G28G15G13
 120172173.099 7  93640701.51044  22868012.461                    22868014.641
        42.300          26.500
                  88021871.269 6  21141293.703                    21141295.035
                        38.100
                  83953882.856 6  20213826.688                    20213827.773
                        38.900
 132578210.892 6 103307739.98643  25228801.781                    25228805.746
        37.300          19.600
                  94166509.844 5  22648878.797                    22648882.184
                        34.200
                  92017331.008 3  22124192.352                    22124191.387
                        23.200
                  84215353.738 5  20269662.188                    20269663.660
                        35.800
                  86578051.900 6  20801801.086                    20801802.422
                        39.000
                  94315588.183 6  22716630.453                    22716632.465
                        36.100
 129262646.578 8 100724170.94943  24597868.297                    24597872.121
        48.700          20.600
 118701799.505 8  92494924.07045  22588201.367                    22588207.809
        48.400          35.000
 130313218.028 5 101542780.21143  24797781.672                    24797785.332
        34.400          19.900
 119405423.072 7  93043204.29245  22722096.539                    22722102.500
        46.100          31.200
 114337681.163 7  89094309.07845  21757738.125                    21757740.773
        45.300          30.800
 112669746.969 8  87794622.19846  21440339.930                    21440343.664
        51.400          36.800
 111972839.628 7  87251566.93845  21307720.969                    21307724.551
        47.300          30.000
 18  3 15 10 48 56.0000000  0 16G20R07R09G21R01R24R16R17R18G07G08G11
                                G30G28G15G13
 120175092.063 6  93642976.02844  22868567.383                    22868569.961
        41.900          27.900
                  88024648.652 6  21141961.055                    21141962.449
                        39.000
                  83952327.265 6  20213455.219                    20213452.938
                        38.700
 132581294.329 6 103310142.65543  25229389.844                    25229392.383
        36.900          19.900
                  94163643.641 5  22648189.531                    22648192.879
                        33.900
                  92020148.062 4  22124870.719                    22124869.457
                        24.900
                  84217478.674 6  20270173.656                    20270174.633
                        36.200
                  86577782.413 6  20801736.352                    20801738.668
                        39.200
                  94312701.857 6  22715935.813                    22715936.121
                        36.500
 129266649.366 8 100727290.02343  24598630.523                    24598634.215
        48.600          20.400
 118703077.735 8  92495920.09845  22588444.555                    22588451.035
        48.000          35.000
 130310099.077 5 101540349.85743  24797188.141                    24797191.547
        33.700          19.300
 119408720.945 7  93045774.05345  22722724.680                    22722730.664
        46.300          31.500
 114337046.093 7  89093814.22245  21757617.195                    21757619.992
        46.000          30.200
 112669732.766 8  87794611.13246  21440337.273                    21440340.582
        51.700          36.700
 111974575.097 7  87252919.24544  21308051.734                    21308054.805
        47.600          29.800
 18  3 15 10 48 57.0000000  0 16G20R07R09G21R01R24R16R17R18G07G08G11
                                G30G28G15G13
 120178011.556 6  93645250.97844  22869122.289                    22869125.898
        41.800          27.900
                  88027426.578 6  21142629.414                    21142631.113
                        39.100
                  83950772.233 6  20213079.367                    20213079.336
                        38.700
 132584378.085 6 103312545.57043  25229976.000                    25229979.270
        36.900          19.300
                  94160777.805 5  22647499.875                    22647503.773
                        33.300
                  92022965.629 4  22125547.242                    22125546.648
                        24.600
                  84219604.191 6  20270684.984                    20270686.070
                        36.400
                  86577513.715 6  20801672.367                    20801673.375
                        39.400
                  94309815.907 6  22715241.453                    22715241.840
                        36.700
 129270652.368 8 100730409.23743  24599392.492                    24599395.516
        48.800          19.900
 118704356.713 8  92496916.70645  22588688.063                    22588694.434
        48.200          35.700
 130306980.578 5 101537919.84742  24796594.781                    24796597.895
        33.100          17.400
 119412019.239 7  93048344.15645  22723351.961                    22723357.863
        45.100          31.100
 114336411.678 7  89093319.87745  21757497.055                    21757499.523
        45.600          30.700
 112669719.320 8  87794600.65446  21440334.695                    21440338.297
        52.000          36.900
 111976311.271 8  87254272.09744  21308382.328                    21308385.129
        48.000          29.700
 18  3 15 10 48 58.0000000  0 16G20R07R09G21R01R24R16R17R18G07G08G11
                                G30G28G15G13
 120180931.572 6  93647526.34144  22869676.945                    22869681.582
        40.900          26.800
                  88030204.958 6  21143296.406                    21143298.926
                        39.300
                  83949217.707 6  20212703.563                    20212704.414
                        38.400
 132587462.136 6 103314948.75943  25230561.688                    25230566.078
        36.200          18.600
                  94157912.259 5  22646810.508                    22646814.223
                        32.700
                  92025783.698 4  22126224.750                    22126224.113
                        25.400
                  84221730.274 6  20271196.656                    20271198.387
                        36.400
                  86577245.725 6  20801607.352                    20801609.258
                        38.900
                  94306930.295 6  22714544.555                    22714547.004
                        37.200
 129274655.526 8 100733528.57143  24600153.953                    24600157.496
        48.600          19.300
 118705636.373 7  92497913.84145  22588931.703                    22588937.953
        47.700          35.900
 130303862.260 5 101535490.01543  24796001.328                    24796004.219
        31.500          19.000
 119415317.952 7  93050914.58345  22723979.742                    22723985.813
        45.200          30.800
 114335777.825 7  89092825.96245  21757376.047                    21757378.637
        45.900          30.400
 112669706.576 8  87794590.72746  21440332.305                    21440335.555
        51.600          36.700
 111978048.082 8  87255625.44745  21308713.570                    21308715.621
        48.500          30.400
 18  3 15 10 48 59.0000000  0 16G20R07R09G21R01R24R16R17R18G07G08G11
                                G30G28G15G13
 120183852.102 6  93649802.08944  22870232.492                    22870237.352
        39.400          26.600
                  88032983.756 6  21143962.383                    21143966.988
                        38.700
                  83947663.762 6  20212330.695                    20212330.836
                        38.400
 132590546.367 6 103317352.08043  25231149.172                    25231152.891
        36.200          18.300
                  94155046.986 5  22646121.188                    22646125.195
                        32.800
                  92028602.257 4  22126902.063                    22126901.961
                        25.800
                  84223856.850 6  20271709.164                    20271710.348
                        36.200
                  86576978.442 6  20801543.695                    20801545.035
                        39.300
                  94304044.971 6  22713848.766                    22713851.957
                        36.200
 129278658.803 8 100736648.00843  24600915.758                    24600919.477
        48.600          19.300
 118706916.674 7  92498911.47045  22589175.414                    22589181.586
        47.900          35.800
 130300744.249 5 101533060.40543  24795407.031                    24795411.277
        30.300          18.300
 119418616.997 7  93053485.28245  22724607.070                    22724613.602
        45.100          30.900
 114335144.499 7  89092332.45545  21757255.156                    21757258.375
        45.900          30.400
 112669694.495 8  87794581.31346  21440330.070                    21440333.711
        51.600          36.900
 111979785.502 8  87256979.28144  21309044.086                    21309046.340
        49.100          29.900
 18  3 15 10 49  0.0000000  0 16G20R07R09G21R01R24R16R17R18G07G08G11
                                G30G28G15G13
 120186773.102 6  93652078.18944  22870788.773                    22870793.055
        40.100          26.700
                  88035763.090 6  21144630.266                    21144633.340
                        38.000
                  83946110.378 6  20211956.875                    20211956.430
                        38.600
 132593630.903 5 103319755.58942  25231735.500                    25231739.375
        34.600          16.900
                  94152182.035 5  22645432.609                    22645436.105
                        33.300
                  92031421.325 4  22127577.828                    22127579.625
                        26.000
                  84225983.962 6  20272219.734                    20272222.391
                        36.700
                  86576711.890 6  20801479.492                    20801480.395
                        39.300
                  94301160.031 6  22713154.828                    22713157.137
                        36.400
 129282662.252 8 100739767.57243  24601677.430                    24601681.297
        49.000          19.300
 118708197.663 7  92499909.64345  22589419.328                    22589425.301
        47.600          35.500
 130297626.596 4 101530631.07542  24794813.766                    24794817.914
        29.900          17.800
 119421916.460 7  93056056.28745  22725235.102                    22725241.180
        45.500          31.400
 114334511.770 7  89091839.41745  21757134.492                    21757137.844
        46.000          30.000
 112669683.108 8  87794572.44446  21440327.492                    21440331.117
        51.600          36.400
 111981523.578 8  87258333.63245  21309374.570                    21309376.957
        49.100          30.400
 18  3 15 10 49  1.0000000  0 16G20R07R09G21R01R24R16R17R18G07G08G11
                                G30G28G15G13
 120189694.668 6  93654354.70344  22871346.453                    22871349.141
        41.100          26.400
                  88038542.967 6  21145298.711                    21145299.590
                        37.900
                  83944557.588 6  20211582.992                    20211583.055
                        38.600
 132596715.749 5 103322159.34842  25232322.742                    25232326.508
        34.900          16.900
                  94149317.448 5  22644743.602                    22644747.164
                        33.300
                  92034240.927 4  22128255.500                    22128257.836
                        27.700
                  84228111.685 6  20272733.109                    20272733.996
                        36.400
                  86576446.135 6  20801415.758                    20801417.254
                        39.200
                  94298275.482 5  22712461.273                    22712461.930
                        35.800
 129286665.919 8 100742887.31743  24602439.477                    24602443.082
        49.000          19.900
 118709479.343 8  92500908.34445  22589663.242                    22589669.395
        48.000          35.500
 130294509.244 4 101528201.99042  24794221.164                    24794224.820
        28.300          16.300
 119425216.360 7  93058627.64145  22725863.063                    22725869.305
        46.100          31.600
 114333879.658 7  89091346.87044  21757014.742                    21757017.477
        45.400          29.800
 112669672.458 8  87794564.14246  21440325.680                    21440329.090
        52.000          36.700
 111983262.339 8  87259688.51845  21309705.031                    21309707.828
        48.700          30.400
 18  3 15 10 49  2.0000000  0 16G20R07R09G21R01R24R16R17R18G07G08G11
                                G30G28G15G13
 120192616.653 6  93656631.55044  22871903.039                    22871905.246
        41.300          27.500
                  88041323.307 6  21145967.773                    21145967.383
                        38.200
                  83943005.313 6  20211208.609                    20211209.176
                        38.800
 132599800.892 5 103324563.36542  25232909.891                    25232913.539
        35.100          17.800
                  94146453.157 5  22644054.836                    22644058.672
                        32.900
                  92037061.029 4  22128933.031                    22128935.555
                        26.600
                  84230239.966 6  20273244.602                    20273246.395
                        36.700
                  86576181.110 6  20801351.500                    20801353.434
                        39.300
                  94295391.223 6  22711766.266                    22711767.617
                        36.000
 129290669.720 8 100746007.17343  24603201.367                    24603204.680
        48.900          19.900
 118710761.693 8  92501907.57545  22589907.258                    22589913.285
        48.500          35.100
 130291392.242 4 101525773.15542  24793627.680                    24793631.672
        28.300          16.300
 119428516.620 7  93061199.27345  22726491.133                    22726497.102
        46.300          31.900
 114333248.083 7  89090854.73445  21756894.672                    21756897.543
        45.700          30.100
 112669662.499 8  87794556.38346  21440323.930                    21440327.496
        52.100          36.900
 111985001.784 8  87261043.94645  21310035.188                    21310038.938
        48.500          30.200
 18  3 15 10 49  3.0000000  0 16G20R07R09G21R01R24R16R17R18G07G08G11
                                G30G28G15G13
 120195539.126 6  93658908.81044  22872458.422                    22872461.367
        41.800          27.900
                  88044104.116 6  21146634.820                    21146635.586
                        38.500
                  83941453.618 6  20210835.594                    20210835.418
                        38.900
 132602886.232 6 103326967.51442  25233497.328                    25233500.617
        36.300          17.800
                  94143589.153 5  22643365.648                    22643369.332
                        33.600
                  92039881.631 4  22129611.539                    22129614.406
                        26.500
                  84232368.784 6  20273756.875                    20273758.820
                        36.800
                  86575916.830 6  20801288.648                    20801289.988
                        39.100
                  94292507.279 6  22711070.883                    22711073.379
                        36.800
 129294673.705 8 100749127.17143  24603963.188                    24603966.777
        48.700          19.900
 118712044.727 8  92502907.33845  22590151.492                    22590157.129
        48.300          34.500
 130288275.483 4 101523344.52442  24793034.852                    24793038.773
        28.000          17.400
 119431817.278 7  93063771.20545  22727119.250                    22727125.398
        45.900          31.500
 114332617.074 7  89090363.04445  21756774.516                    21756777.566
        45.500          30.600
 112669653.228 8  87794549.16046  21440322.086                    21440325.445
        52.200          36.400
 111986741.857 8  87262399.84544  21310366.227                    21310370.125
        48.000          29.800
 18  3 15 10 49  4.0000000  0 16G20R07R09G21R01R24R16R17R18G07G08G11
                                G30G28G15G13
 120198462.155 6  93661186.51644  22873014.102                    22873017.844
        41.200          27.400
                  88046885.463 6  21147302.219                    21147305.066
                        38.700
                  83939902.521 6  20210463.102                    20210462.188
                        38.700
 132605971.905 6 103329371.92842  25234085.266                    25234087.855
        37.500          17.800
                  94140725.513 5  22642677.133                    22642680.258
                        33.400
                  92042702.768 4  22130290.969                    22130292.543
                        26.000
                  84234498.183 6  20274269.609                    20274271.641
                        36.500
                  86575653.288 6  20801225.133                    20801226.066
                        38.800
                  94289623.729 6  22710376.102                    22710378.633
                        36.700
 129298677.876 8 100752247.32143  24604725.211                    24604728.668
        49.000          19.600
 118713328.465 8  92503907.64845  22590395.766                    22590401.855
        48.700          34.900
 130285159.098 4 101520916.22942  24792442.266                    24792445.594
        29.600          16.900
 119435118.388 7  93066343.49945  22727747.609                    22727753.824
        45.400          31.200
 114331986.724 7  89089871.86445  21756654.289                    21756657.250
        45.800          30.200
 112669644.701 8  87794542.51946  21440320.641                    21440324.004
        51.800          36.500
 111988482.616 8  87263756.26745  21310698.602                    21310700.867
        48.800          30.100
 18  3 15 10 49  5.0000000  0 16G20R07R09G21R01R24R16R17R18G07G08G11
                                G30G28G15G13
 120201385.729 6  93663464.63844  22873569.008                    22873573.742
        41.000          27.500
                  88049667.330 6  21147968.281                    21147973.359
                        38.800
                  83938351.980 6  20210088.367                    20210088.852
                        38.900
 132609057.865 6 103331776.59243  25234672.875                    25234674.816
        37.900          18.300
                  94137862.200 5  22641988.125                    22641991.895
                        33.400
                  92045524.375 4  22130970.203                    22130971.234
                        25.600
                  84236628.164 6  20274782.500                    20274783.773
                        36.800
                  86575390.528 6  20801161.156                    20801163.711
                        39.000
                  94286740.582 6  22709682.641                    22709684.715
                        36.500
 129302682.243 8 100755367.61843  24605487.406                    24605490.633
        48.800          19.900
 118714612.916 8  92504908.52545  22590640.445                    22590646.184
        49.200          35.100
 130282043.054 5 101518488.14842  24791848.789                    24791852.465
        30.300          16.300
 119438419.912 7  93068916.12145  22728375.586                    22728381.918
        45.600          32.100
 114331356.960 7  89089381.13745  21756534.414                    21756537.617
        46.200          30.400
 112669636.896 8  87794536.43746  21440319.414                    21440322.441
        51.900          36.000
 111990224.051 8  87265113.21545  21311030.750                    21311032.664
        50.200          30.300
 18  3 15 10 49  6.0000000  0 16G20R07R09G21R01R24R16R17R18G07G08G11
                                G30G28G15G13
 120204309.863 6  93665743.18344  22874126.039                    22874130.180
        40.700          26.900
                  88052449.769 6  21148635.922                    21148641.156
                        38.600
                  83936802.038 6  20209716.164                    20209715.320
                        38.500
 132612144.127 6 103334181.46943  25235259.797                    25235262.563
        37.900          19.900
                  94134999.223 5  22641299.617                    22641303.492
                        33.500
                  92048346.538 4  22131647.781                    22131649.191
                        24.800
                  84238758.732 6  20275295.094                    20275297.109
                        36.000
                  86575128.551 6  20801098.313                    20801100.410
                        39.100
                  94283857.809 6  22708989.117                    22708990.203
                        36.000
 129306686.822 8 100758488.06643  24606249.313                    24606252.164
        49.300          20.100
 118715898.069 8  92505909.95445  22590884.859                    22590890.852
        49.000          34.700
 130278927.413 4 101516060.39342  24791256.945                    24791259.855
        29.900          16.900
 119441721.866 7  93071489.07045  22729003.414                    22729010.023
        45.700          31.300
 114330727.819 7  89088890.89745  21756414.961                    21756417.715
        46.700          30.800
 112669629.831 8  87794530.92846  21440317.977                    21440321.555
        52.000          36.000
 111991966.188 8  87266470.72445  21311361.789                    21311363.961
        50.300          30.200
 18  3 15 10 49  7.0000000  0 16G20R07R09G21R01R24R16R17R18G07G08G11
                                G30G28G15G13
 120207234.495 6  93668022.10444  22874683.281                    22874686.754
        40.200          26.900
                  88055232.644 6  21149308.578                    21149308.398
                        38.100
                  83935252.690 6  20209342.383                    20209342.586
                        38.200
 132615230.687 6 103336586.59143  25235846.828                    25235849.680
        38.300          19.000
                  94132136.610 5  22640611.453                    22640615.047
                        33.800
                  92051169.279 3  22132327.953                    22132328.344
                        23.300
                  84240889.890 6  20275808.625                    20275809.406
                        36.400
                  86574867.348 6  20801035.844                    20801037.578
                        38.800
                  94280975.393 5  22708294.070                    22708295.703
                        35.800
 129310691.609 8 100761608.66843  24607010.867                    24607014.945
        49.100          18.600
 118717183.962 8  92506911.95245  22591129.078                    22591135.223
        48.600          34.300
 130275812.058 4 101513632.85042  24790663.164                    24790666.891
        28.900          17.400
 119445024.270 7  93074062.37045  22729632.109                    22729638.391
        46.400          31.600
 114330099.307 7  89088401.14645  21756295.469                    21756298.016
        46.400          30.800
 112669623.516 8  87794526.00846  21440316.711                    21440319.887
        51.900          36.100
 111993709.009 8  87267828.77445  21311693.023                    21311695.914
        49.700          30.000
 18  3 15 10 49  8.0000000  0 16G20R07R09G21R01R24R16R17R18G07G08G11
                                G30G28G15G13
 120210159.689 6  93670301.47744  22875239.352                    22875243.469
        39.400          27.100
                  88058015.985 6  21149978.633                    21149976.742
                        38.500
                  83933703.894 6  20208968.367                    20208969.469
                        38.300
 132618317.534 6 103338991.95543  25236434.164                    25236437.297
        38.000          19.900
                  94129274.296 5  22639922.688                    22639926.207
                        33.900
                  92053992.539 3  22133007.109                    22133007.215
                        22.800
                  84243021.583 6  20276321.797                    20276322.910
                        36.700
                  86574606.890 6  20800972.992                    20800974.988
                        39.200
                  94278093.307 6  22707598.844                    22707601.633
                        36.300
 129314696.580 8 100764729.42743  24607773.328                    24607776.770
        49.000          19.300
 118718470.541 8  92507914.49145  22591374.039                    22591380.219
        48.800          35.500
 130272697.018 5 101511205.55142  24790070.664                    24790074.332
        30.300          17.400
 119448327.065 7  93076635.97145  22730260.930                    22730267.113
        46.300          31.600
 114329471.405 7  89087911.87145  21756175.867                    21756178.594
        45.600          30.600
 112669617.916 8  87794521.64546  21440315.969                    21440318.602
        51.900          36.000
 111995452.502 8  87269187.35644  21312023.781                    21312027.711
        48.700          29.600
 18  3 15 10 49  9.0000000  0 16G20R07R09G21R01R24R16R17R18G07G08G11
                                G30G28G15G13
 120213085.404 6  93672581.23344  22875797.109                    22875799.953
        40.400          27.500
                  88060799.872 6  21150647.203                    21150645.828
                        38.500
                  83932155.732 6  20208596.984                    20208597.152
                        38.400
 132621404.697 6 103341397.54143  25237021.023                    25237024.992
        37.400          20.900
                  94126412.319 5  22639234.773                    22639237.500
                        33.700
                  92056816.328 3  22133685.047                    22133686.613
                        21.600
                  84245153.902 6  20276834.297                    20276836.086
                        36.400
                  86574347.199 6  20800909.891                    20800912.809
                        38.800
                  94275211.591 6  22706905.094                    22706907.320
                        37.000
 129318701.774 8 100767850.35043  24608535.664                    24608538.879
        49.100          18.600
 118719757.846 8  92508917.58145  22591618.875                    22591625.457
        48.300          34.800
 130269582.377 5 101508778.57543  24789477.359                    24789481.379
        31.800          18.300
 119451630.320 7  93079209.93445  22730889.211                    22730895.836
        46.000          31.400
 114328844.092 7  89087423.06345  21756056.258                    21756059.336
        45.200          30.800
 112669613.063 8  87794517.85845  21440314.797                    21440317.902
        51.900          35.400
 111997196.739 7  87270546.50345  21312355.758                    21312359.762
        47.600          30.000
 18  3 15 10 49 10.0000000  0 16G20R07R09G21R01R24R16R17R18G07G08G11
                                G30G28G15G13
 120216011.635 6  93674861.40944  22876354.477                    22876356.887
        41.500          27.100
                  88063584.310 6  21151313.367                    21151315.199
                        38.700
                  83930608.188 6  20208225.281                    20208224.273
                        38.200
 132624492.170 6 103343803.35843  25237609.383                    25237612.391
        37.700          21.300
                  94123550.706 5  22638546.477                    22638548.781
                        33.800
                  92059640.678 3  22134364.016                    22134364.699
                        22.300
                  84247286.752 6  20277348.031                    20277349.113
                        36.600
                  86574088.299 6  20800847.320                    20800850.523
                        38.600
                  94272330.268 6  22706212.289                    22706213.941
                        37.000
 129322707.123 8 100770971.40443  24609297.719                    24609301.086
        49.400          19.300
 118721045.856 8  92509921.22645  22591864.125                    22591870.281
        48.800          35.400
 130266468.154 5 101506351.91743  24788884.703                    24788888.605
        31.500          18.300
 119454933.995 7  93081784.22245  22731518.063                    22731524.516
        45.900          31.600
 114328217.421 7  89086934.75145  21755937.078                    21755939.949
        45.700          30.100
 112669608.938 8  87794514.64445  21440313.789                    21440316.906
        51.800          35.700
 111998941.640 8  87271906.15644  21312688.867                    21312691.547
        48.200          29.800
 18  3 15 10 49 11.0000000  0 16G20R07R09G21R01R24R16R17R18G07G08G11
                                G30G28G15G13
 120218938.323 7  93677141.94644  22876911.180                    22876913.715
        42.400          26.500
                  88066369.255 6  21151979.336                    21151984.398
                        38.900
                  83929061.111 6  20207851.438                    20207851.699
                        38.400
 132627579.845 6 103346209.34343  25238196.352                    25238199.805
        37.500          20.400
                  94120689.375 5  22637858.234                    22637861.148
                        33.700
                  92062465.481 4  22135042.609                    22135043.980
                        24.200
                  84249420.181 6  20277861.414                    20277862.754
                        36.500
                  86573830.166 6  20800785.266                    20800788.035
                        38.700
                  94269449.279 6  22705517.383                    22705520.203
                        37.000
 129326712.680 8 100774092.63743  24610059.789                    24610063.301
        49.600          19.000
 118722334.562 8  92510925.41145  22592109.148                    22592115.637
        48.300          34.600
 130263354.141 5 101503925.41342  24788292.828                    24788296.566
        32.600          17.800
 119458238.063 7  93084358.81845  22732147.367                    22732153.309
        46.400          31.000
 114327591.299 7  89086446.86845  21755817.641                    21755820.414
        46.100          30.200
 112669605.485 8  87794511.95846  21440312.664                    21440316.547
        51.500          36.000
 112000687.158 8  87273266.28844  21313021.656                    21313023.516
        49.600          29.600
 18  3 15 10 49 12.0000000  0 16G20R07R09G21R01R24R16R17R18G07G08G11
                                G30G28G15G13
 120221865.545 7  93679422.91544  22877467.195                    22877470.645
        42.100          26.800
                  88069154.733 6  21152647.336                    21152653.746
                        38.500
                  83927514.611 6  20207478.242                    20207479.090
                        38.200
 132630667.863 5 103348615.58943  25238783.523                    25238787.676
        35.700          20.100
                  94117828.392 5  22637169.836                    22637173.082
                        33.600
                  92065290.809 4  22135722.078                    22135723.043
                        24.000
                  84251554.155 6  20278374.852                    20278376.383
                        36.700
                  86573572.763 6  20800723.633                    20800726.840
                        39.300
                  94266568.627 6  22704823.680                    22704826.324
                        36.700
 129330718.389 8 100777213.98443  24610822.289                    24610825.766
        49.500          19.300
 118723623.933 8  92511930.11245  22592354.281                    22592361.172
        48.100          35.000
 130260240.459 5 101501499.16442  24787700.375                    24787703.844
        33.200          17.800
 119461542.532 7  93086933.73045  22732775.656                    22732781.766
        46.300          30.900
 114326965.768 7  89085959.44245  21755699.250                    21755701.527
        46.400          30.500
 112669602.770 8  87794509.84646  21440312.555                    21440315.785
        52.100          36.000
 112002433.333 8  87274626.94745  21313354.297                    21313355.902
        50.300          30.500
 18  3 15 10 49 13.0000000  0 16G20R07R09G21R01R24R16R17R18G07G08G11
                                G30G28G15G13
 120224793.290 6  93681704.30844  22878023.758                    22878028.359
        40.400          25.800
                  88071940.677 6  21153319.727                    21153322.113
                        37.600
                  83925968.744 6  20207107.547                    20207106.949
                        38.000
 132633756.158 5 103351022.03743  25239371.211                    25239375.500
        34.800          19.900
                  94114967.727 5  22636481.875                    22636484.961
                        33.400
                  92068116.645 4  22136401.078                    22136402.449
                        26.300
                  84253688.711 6  20278888.188                    20278890.113
                        36.700
                  86573316.120 6  20800661.242                    20800664.766
                        38.700
                  94263688.344 6  22704129.719                    22704131.637
                        36.400
 129334724.293 8 100780335.48243  24611584.773                    24611588.051
        49.600          20.400
 118724914.046 8  92512935.39845  22592599.742                    22592606.270
        48.000          35.100
 130257127.128 5 101499073.17242  24787107.172                    24787111.813
        34.300          17.800
 119464847.441 7  93089508.98745  22733404.125                    22733410.320
        45.600          30.700
 114326340.838 7  89085472.48345  21755579.852                    21755582.578
        46.300          30.000
 112669600.763 8  87794508.28746  21440312.102                    21440315.434
        52.000          36.200
 112004180.207 8  87275988.15744  21313685.914                    21313688.645
        49.600          29.500
 18  3 15 10 49 14.0000000  0 16G20R07R09G21R01R24R16R17R18G07G08G11
                                G30G28G15G13
 120227721.637 6  93683986.14844  22878580.320                    22878584.891
        39.400          25.800
                  88074727.090 6  21153992.719                    21153990.992
                        37.900
                  83924423.441 6  20206734.891                    20206734.711
                        38.100
 132636844.748 5 103353428.70543  25239958.805                    25239963.418
        35.200          20.100
                  94112107.401 5  22635793.844                    22635797.418
                        33.700
                  92070943.041 4  22137078.742                    22137081.836
                        26.100
                  84255823.847 6  20279403.094                    20279404.074
                        36.700
                  86573060.260 6  20800600.461                    20800603.629
                        38.700
                  94260808.459 6  22703436.383                    22703438.574
                        37.200
 129338730.404 8 100783457.12843  24612347.023                    24612350.352
        49.500          19.600
 118726204.873 7  92513941.24345  22592845.258                    22592852.152
        47.500          35.300
 130254014.179 5 101496647.49543  24786515.117                    24786518.805
        33.800          18.300
 119468152.761 7  93092084.56245  22734033.398                    22734039.387
        46.000          30.600
 114325716.549 7  89084986.01644  21755461.234                    21755464.059
        46.200          29.900
 112669599.514 8  87794507.31446  21440312.336                    21440315.340
        51.700          36.300
 112005927.783 8  87277349.91345  21314017.664                    21314021.176
        48.900          30.000
 18  3 15 10 49 15.0000000  0 16G20R07R09G21R01R24R16R17R18G07G08G11
                                G30G28G15G13
 120230650.456 6  93686268.33244  22879139.414                    22879142.406
        39.600          26.400
                  88077513.985 6  21154660.961                    21154660.215
                        38.400
                  83922878.729 6  20206363.242                    20206362.910
                        38.700
 132639933.670 5 103355835.63843  25240547.047                    25240551.141
        34.900          19.600
                  94109247.404 5  22635105.781                    22635109.324
                        33.700
                  92073769.922 4  22137759.109                    22137761.699
                        26.600
                  84257959.557 6  20279916.445                    20279918.207
                        36.700
                  86572805.151 6  20800539.867                    20800542.414
                        38.700
                  94257928.906 6  22702743.266                    22702744.973
                        37.800
 129342736.701 8 100786578.92343  24613109.414                    24613112.789
        49.300          19.300
 118727496.399 7  92514947.62945  22593091.234                    22593097.773
        47.300          34.100
 130250901.506 5 101494222.03343  24785922.234                    24785926.781
        34.300          19.000
 119471458.507 7  93094660.45944  22734663.063                    22734668.555
        46.500          29.700
 114325092.836 7  89084500.01245  21755342.383                    21755345.449
        46.000          30.700
 112669598.988 8  87794506.90246  21440312.180                    21440314.930
        52.000          36.600
 112007676.043 8  87278712.19744  21314350.141                    21314353.621
        48.900          29.100
 18  3 15 10 49 16.0000000  0 16G20R07R09G21R01R24R16R17R18G07G08G11
                                G30G28G15G13
 120233579.751 6  93688550.87244  22879697.445                    22879699.953
        40.300          27.300
                  88080301.485 6  21155328.711                    21155329.379
                        38.500
                  83921334.567 6  20205990.578                    20205991.602
                        38.400
 132643022.844 5 103358242.80043  25241134.820                    25241138.867
        35.100          19.000
                  94106387.757 5  22634418.102                    22634421.813
                        32.900
                  92076597.306 4  22138438.992                    22138441.496
                        25.700
                  84260095.832 6  20280431.250                    20280431.891
                        36.700
                  86572550.811 6  20800478.828                    20800481.148
                        38.600
                  94255049.731 6  22702049.516                    22702051.754
                        37.300
 129346743.192 8 100789700.84943  24613871.977                    24613875.188
        49.100          20.100
 118728788.627 7  92515954.55145  22593337.508                    22593343.559
        47.000          34.500
 130247789.237 5 101491796.89643  24785330.594                    24785334.375
        34.300          19.000
 119474764.673 7  93097236.68945  22735291.625                    22735297.746
        46.800          30.200
 114324469.747 7  89084014.48445  21755224.344                    21755226.656
        46.200          30.600
 112669599.158 8  87794507.03546  21440312.055                    21440315.082
        51.900          36.600
 112009424.968 8  87280074.99544  21314683.242                    21314686.520
        48.900          29.900
 18  3 15 10 49 17.0000000  0 16G20R07R09G21R01R24R16R17R18G07G08G11
                                G30G28G15G13
 120236509.576 6  93690833.83044  22880254.820                    22880257.531
        40.700          26.600
                  88083089.484 6  21155996.977                    21155999.543
                        38.500
                  83919790.986 6  20205619.742                    20205619.328
                        38.300
 132646112.313 5 103360650.19043  25241723.273                    25241726.816
        35.800          19.900
                  94103528.386 5  22633729.945                    22633733.820
                        32.500
                  92079425.213 4  22139119.906                    22139121.387
                        26.100
                  84262232.659 6  20280945.031                    20280946.539
                        36.800
                  86572297.170 6  20800418.172                    20800419.621
                        38.500
                  94252170.887 6  22701355.266                    22701358.156
                        37.200
 129350749.845 8 100792822.93443  24614634.148                    24614637.691
        49.400          20.400
 118730081.542 7  92516962.01345  22593583.555                    22593589.699
        46.800          34.600
 130244677.262 5 101489371.99043  24784737.320                    24784742.141
        33.700          18.300
 119478071.241 7  93099813.24345  22735920.539                    22735927.023
        45.900          30.500
 114323847.202 7  89083529.38245  21755105.328                    21755108.016
        46.500          30.900
 112669600.054 8  87794507.73146  21440311.453                    21440315.445
        51.600          36.400
 112011174.554 8  87281438.30044  21315016.539                    21315019.586
        48.900          29.700
 18  3 15 10 49 18.0000000  0 16G20R07R09G21R01R24R16R17R18G07G08G11
                                G30G28G15G13
 120239439.899 6  93693117.19344  22880812.781                    22880814.945
        41.600          26.700
                  88085877.924 6  21156667.773                    21156669.445
                        38.300
                  83918247.979 6  20205248.391                    20205248.586
                        38.300
 132649202.004 5 103363057.75143  25242310.609                    25242314.855
        35.800          19.000
                  94100669.350 5  22633042.625                    22633046.313
                        33.400
                  92082253.642 4  22139799.852                    22139801.438
                        24.800
                  84264370.023 6  20281459.289                    20281461.156
                        36.700
                  86572044.274 6  20800358.289                    20800359.434
                        38.900
                  94249292.414 6  22700661.453                    22700664.793
                        36.700
 129354756.666 8 100795945.12343  24615396.602                    24615400.488
        49.300          20.900
 118731375.100 7  92517969.97045  22593830.438                    22593835.824
        47.200          34.300
 130241565.595 5 101486947.31643  24784146.195                    24784150.152
        34.000          20.600
 119481378.194 7  93102390.08745  22736550.281                    22736556.477
        46.300          31.500
 114323225.262 7  89083044.75645  21754987.195                    21754989.816
        46.700          31.100
 112669601.646 8  87794508.98046  21440311.664                    21440315.582
        51.600          36.500
 112012924.781 8  87282802.11144  21315349.430                    21315352.422
        48.700          29.800
 18  3 15 10 49 19.0000000  0 16G20R07R09G21R01R24R16R17R18G07G08G11
                                G30G28G15G13
 120242370.697 7  93695400.93844  22881370.430                    22881372.953
        42.500          26.700
                  88088666.846 6  21157337.227                    21157339.254
                        38.600
                  83916705.479 6  20204876.602                    20204876.398
                        38.300
 132652292.006 6 103365465.54143  25242899.039                    25242902.578
        36.200          18.600
                  94097810.621 5  22632355.664                    22632358.648
                        32.800
                  92085082.572 4  22140482.695                    22140481.695
                        25.900
                  84266507.945 6  20281974.578                    20281975.723
                        36.600
                  86571792.162 6  20800298.125                    20800298.988
                        39.300
                  94246414.268 6  22699969.758                    22699971.215
                        36.900
 129358763.668 8 100799067.48343  24616159.188                    24616162.559
        49.400          19.600
 118732669.358 8  92518978.47045  22594076.711                    22594081.926
        48.000          34.600
 130238454.220 5 101484522.87143  24783554.031                    24783557.852
        34.500          19.900
 119484685.540 7  93104967.23845  22737179.656                    22737185.766
        46.200          31.300
 114322603.908 7  89082560.58345  21754869.055                    21754871.250
        47.000          30.500
 112669603.945 8  87794510.76646  21440312.703                    21440316.199
        52.100          36.500
 112014675.672 8  87284166.44345  21315682.414                    21315685.750
        48.600          30.400
 18  3 15 10 49 20.0000000  0 16G20R07R09G21R01R24R16R17R18G07G08G11
                                G30G28G15G13
 120245302.039 7  93697685.13144  22881927.703                    22881931.043
        42.100          25.900
                  88091456.262 6  21158007.367                    21158009.809
                        38.200
                  83915163.627 6  20204507.344                    20204505.723
                        38.200
 132655382.318 6 103367873.57243  25243486.727                    25243490.727
        36.200          19.000
                  94094952.249 5  22631667.961                    22631670.930
                        33.500
                  92087912.037 4  22141163.563                    22141162.266
                        25.600
                  84268646.448 6  20282488.984                    20282490.043
                        36.400
                  86571540.809 6  20800238.273                    20800238.551
                        38.800
                  94243536.458 6  22699277.031                    22699277.844
                        37.400
 129362770.850 8 100802189.97643  24616921.852                    24616925.102
        49.400          20.400
 118733964.332 8  92519987.53045  22594323.438                    22594328.559
        48.800          34.900
 130235343.248 5 101482098.73943  24782962.414                    24782965.520
        34.800          20.900
 119487993.315 7  93107544.73345  22737808.672                    22737815.766
        45.800          30.400
 114321983.166 7  89082076.88744  21754750.953                    21754753.484
        46.600          28.900
 112669606.951 8  87794513.10946  21440313.414                    21440316.840
        52.100          36.100
 112016427.257 8  87285531.31344  21316016.008                    21316018.836
        48.700          29.600
 18  3 15 10 49 21.0000000  0 16G20R07R09G21R01R24R16R17R18G07G08G11
                                G30G28G15G13
 120248233.888 6  93699969.71844  22882483.570                    22882489.273
        38.800          26.800
                  88094246.189 6  21158676.820                    21158679.988
                        38.000
                  83913622.273 6  20204133.258                    20204134.406
                        38.700
 132658472.886 6 103370281.77943  25244074.922                    25244078.578
        36.000          19.000
                  94092094.196 5  22630980.805                    22630983.887
                        33.300
                  92090742.019 3  22141844.094                    22141843.137
                        23.600
                  84270785.452 6  20283003.789                    20283005.211
                        36.200
                  86571290.223 6  20800177.969                    20800177.988
                        38.900
                  94240658.989 6  22698582.563                    22698585.250
                        38.600
 129366778.194 8 100805312.58443  24617684.234                    24617687.602
        49.600          19.600
 118735259.999 8  92520997.14645  22594569.930                    22594575.184
        49.500          34.600
 130232232.574 5 101479674.85343  24782371.313                    24782373.926
        34.900          20.400
 119491301.495 7  93110122.53345  22738438.047                    22738444.902
        45.300          30.900
 114321362.983 7  89081593.62545  21754632.906                    21754635.418
        46.200          30.800
 112669610.672 8  87794516.00646  21440314.195                    21440317.859
        52.100          36.700
 112018179.474 8  87286896.67545  21316350.055                    21316352.715
        49.200          30.800
 18  3 15 10 49 22.0000000  0 16G20R07R09G21R01R24R16R17R18G07G08G11
                                G30G28G15G13
 120251166.364 6  93702254.75744  22883041.805                    22883046.176
        38.500          25.300
                  88097036.654 6  21159346.523                    21159350.402
                        38.400
                  83912081.524 6  20203762.797                    20203763.402
                        38.300
 132661563.720 6 103372690.25243  25244663.391                    25244666.828
        36.000          19.300
                  94089236.451 5  22630292.875                    22630296.613
                        33.900
                  92093572.524 4  22142523.805                    22142523.543
                        24.800
                  84272925.044 6  20283518.289                    20283520.328
                        36.200
                  86571040.375 6  20800118.180                    20800118.270
                        38.900
                  94237781.876 6  22697889.602                    22697892.313
                        38.000
 129370785.743 8 100808435.34043  24618447.000                    24618450.309
        49.500          20.900
 118736556.358 8  92522007.30045  22594816.609                    22594821.801
        49.600          35.200
 130229122.238 5 101477251.21443  24781779.172                    24781782.129
        35.200          20.900
 119494610.090 7  93112700.65145  22739068.445                    22739074.238
        45.900          30.900
 114320743.420 7  89081110.85445  21754515.008                    21754517.535
        46.300          30.400
 112669615.116 8  87794519.47346  21440314.555                    21440318.148
        51.900          36.400
 112019932.375 8  87288262.57145  21316683.617                    21316686.391
        49.100          30.500
 18  3 15 10 49 23.0000000  0 16G20R07R09G21R01R24R16R17R18G07G08G11
                                G30G28G15G13
 120254099.243 7  93704540.06444  22883603.195                    22883604.457
        42.300          25.700
                  88099827.589 6  21160018.813                    21160020.352
                        38.300
                  83910541.356 6  20203392.695                    20203392.773
                        38.500
 132664654.842 5 103375098.92343  25245251.992                    25245254.668
        35.600          18.300
                  94086379.066 5  22629605.133                    22629608.742
                        34.500
                  92096403.568 3  22143204.242                    22143204.168
                        22.500
                  84275065.201 6  20284034.039                    20284035.488
                        36.200
                  86570791.302 6  20800058.289                    20800058.625
                        39.000
                  94234905.189 6  22697198.086                    22697199.430
                        37.500
 129374793.438 8 100811558.21243  24619209.680                    24619213.105
        49.300          19.600
 118737853.401 8  92523017.99545  22595063.383                    22595068.824
        49.400          35.200
 130226012.190 5 101474827.80543  24781186.516                    24781190.305
        35.900          21.500
 119497919.080 7  93115279.08245  22739697.797                    22739703.914
        45.700          30.400
 114320124.431 7  89080628.53245  21754396.922                    21754399.727
        46.400          30.400
 112669620.276 8  87794523.48746  21440315.563                    21440319.109
        51.800          36.700
 112021685.934 8  87289628.99844  21317016.211                    21317020.195
        48.600          29.900
 18  3 15 10 49 24.0000000  0 16G20R07R09G21R01R24R16R17R18G07G08G11
                                G30G28G15G13
 120257032.590 7  93706825.77644  22884162.477                    22884163.148
        43.500          26.200
                  88102619.008 6  21160690.047                    21160690.465
                        38.100
                  83909001.777 6  20203021.797                    20203021.891
                        38.200
 132667746.218 6 103377507.78943  25245840.594                    25245842.582
        36.800          19.000
                  94083521.998 5  22628918.703                    22628922.063
                        33.400
                  92099235.143 3  22143884.258                    22143884.895
                        22.800
                  84277205.978 6  20284548.320                    20284550.512
                        36.200
                  86570543.003 6  20799998.461                    20799998.961
                        39.200
                  94232028.860 6  22696504.586                    22696506.813
                        37.400
 129378801.360 8 100814681.25043  24619972.039                    24619975.863
        49.600          19.900
 118739151.145 8  92524029.22245  22595310.008                    22595315.762
        49.200          34.600
 130222902.520 6 101472404.68143  24780594.797                    24780598.422
        36.000          21.500
 119501228.517 7  93117857.86545  22740327.313                    22740333.723
        45.400          30.200
 114319506.085 7  89080146.71145  21754279.320                    21754281.867
        46.400          30.900
 112669626.174 8  87794528.08146  21440317.125                    21440320.039
        52.500          36.500
 112023440.214 7  87290995.97644  21317349.758                    21317353.902
        47.800          29.300
 18  3 15 10 49 25.0000000  0 16G20R07R09G21R01R24R16R17R18G07G08G11
                                G30G28G15G13
 120259966.515 7  93709111.97144  22884719.102                    22884721.414
        42.100          25.800
                  88105410.970 6  21161360.844                    21161361.207
                        37.500
                  83907462.846 6  20202652.266                    20202651.285
                        38.400
 132670837.970 6 103379916.95743  25246428.383                    25246430.977
        37.000          19.300
                  94080665.294 5  22628231.789                    22628234.457
                        33.600
                  92102067.233 3  22144564.352                    22144565.660
                        23.000
                  84279347.319 6  20285064.664                    20285065.914
                        36.100
                  86570295.487 6  20799938.430                    20799939.617
                        39.300
                  94229152.901 6  22695811.352                    22695813.441
                        37.700
 129382809.495 8 100817804.47843  24620735.180                    24620738.457
        48.900          20.600
 118740449.640 8  92525041.03645  22595556.383                    22595563.109
        49.300          35.100
 130219793.227 5 101469981.85943  24780003.234                    24780006.770
        35.500          21.100
 119504538.415 7  93120437.01245  22740957.516                    22740963.559
        45.900          30.900
 114318888.362 7  89079665.36445  21754161.617                    21754164.270
        46.800          30.700
 112669632.831 8  87794533.27146  21440318.617                    21440321.574
        52.000          36.300
 112025195.210 8  87292363.49745  21317683.969                    21317687.594
        48.000          30.200
 18  3 15 10 49 26.0000000  0 16G20R07R09G21R01R24R16R17R18G07G08G11
                                G30G28G15G13
 120262901.022 6  93711398.65944  22885273.945                    22885280.277
        37.700          26.800
                  88108203.455 6  21162029.992                    21162030.934
                        38.100
                  83905924.436 6  20202279.273                    20202280.563
                        38.600
 132673929.995 6 103382326.33743  25247017.320                    25247019.387
        37.500          19.000
                  94077808.938 5  22627544.547                    22627547.977
                        34.000
                  92104899.838 3  22145244.219                    22145246.801
                        22.500
                  84281489.250 6  20285579.984                    20285581.012
                        36.200
                  86570048.738 6  20799879.203                    20799879.605
                        39.300
                  94226277.272 6  22695118.836                    22695121.109
                        38.300
 129386817.849 8 100820927.87443  24621497.688                    24621501.363
        49.100          20.400
 118741748.844 8  92526053.41545  22595803.867                    22595810.484
        49.800          35.000
 130216684.293 5 101467559.32643  24779411.953                    24779415.531
        35.600          20.900
 119507848.727 7  93123016.46644  22741587.781                    22741593.547
        45.900          29.800
 114318271.278 7  89079184.52245  21754044.641                    21754047.082
        46.700          30.000
 112669640.232 8  87794539.04246  21440319.797                    21440323.230
        52.000          36.600
 112026950.854 8  87293731.52644  21318018.914                    21318021.777
        48.700          29.600
 18  3 15 10 49 27.0000000  0 16G20R07R09G21R01R24R16R17R18G07G08G11
                                G30G28G15G13
 120265836.104 6  93713685.72944  22885833.297                    22885838.027
        38.700          26.700
                  88110996.476 6  21162700.531                    21162701.355
                        37.700
                  83904386.601 6  20201910.375                    20201910.191
                        38.500
 132677022.271 6 103384735.91543  25247605.172                    25247608.172
        37.700          20.400
                  94074952.894 5  22626856.477                    22626860.797
                        34.100
                  92107732.906 4  22145923.984                    22145927.734
                        24.000
                  84283631.725 6  20286096.070                    20286096.949
                        36.000
                  86569802.721 6  20799819.727                    20799820.816
                        39.300
                  94223402.057 6  22694427.141                    22694428.883
                        37.500
 129390826.334 8 100824051.38943  24622260.969                    24622263.988
        48.800          20.600
 118743048.737 8  92527066.33545  22596051.031                    22596057.965
        49.100          35.100
 130213575.631 5 101465137.01243  24778820.078                    24778824.074
        35.300          20.600
 119511159.425 7  93125596.24044  22742217.203                    22742223.586
        45.600          29.800
 114317654.747 7  89078704.10645  21753927.000                    21753929.984
        46.100          30.400
 112669648.313 8  87794545.34346  21440320.688                    21440324.547
        51.700          36.500
 112028707.161 8  87295100.06845  21318353.680                    21318355.891
        49.300          30.100
 18  3 15 10 49 28.0000000  0 16G20R07R09G21R01R24R16R17R18G07G08G11
                                G30G28G15G13
 120268771.558 6  93715973.06344  22886394.211                    22886396.566
        41.200          26.800
                  88113790.002 6  21163370.063                    21163372.574
                        37.900
                  83902849.360 6  20201540.367                    20201540.129
                        38.100
 132680114.878 5 103387145.75243  25248193.297                    25248196.965
        35.900          19.900
                  94072097.151 5  22626170.523                    22626174.016
                        34.000
                  92110566.531 3  22146606.281                    22146608.770
                        23.300
                  84285774.752 6  20286610.945                    20286613.043
                        36.000
                  86569557.477 6  20799760.219                    20799761.477
                        39.400
                  94220527.181 6  22693735.094                    22693736.566
                        36.700
 129394835.015 8 100827175.03943  24623023.211                    24623026.207
        49.300          20.900
 118744349.284 8  92528079.75245  22596298.188                    22596305.246
        48.200          35.100
 130210467.334 5 101462714.96343  24778228.758                    24778232.617
        34.800          20.900
 119514470.553 7  93128176.34045  22742847.172                    22742853.910
        45.500          30.400
 114317038.811 7  89078224.15344  21753810.469                    21753812.563
        45.700          29.700
 112669657.094 8  87794552.18746  21440322.570                    21440326.133
        51.300          36.400
 112030464.117 8  87296469.12545  21318687.570                    21318690.758
        49.500          30.200
 18  3 15 10 49 29.0000000  0 17G20R07R09G21R01R24R16R17R18G07G08G11
                                G30G28G10G15G13
 120271707.559 7  93718260.83544  22886952.828                    22886955.641
        42.000          26.000
                  88116584.067 6  21164041.461                    21164044.578
                        38.000
                  83901312.700 6  20201171.906                    20201170.746
                        38.000
 132683207.739 6 103389555.78243  25248781.617                    25248785.129
        36.400          19.300
                  94069241.771 5  22625483.688                    22625487.168
                        33.700
                  92113400.669 3  22147286.555                    22147290.461
                        23.800
                  84287918.367 6  20287127.461                    20287129.121
                        36.200
                  86569312.956 6  20799701.617                    20799703.426
                        39.100
                  94217652.672 6  22693041.555                    22693044.254
                        36.100
 129398843.875 8 100830298.81343  24623786.008                    24623789.438
        49.500          21.100
 118745650.571 8  92529093.73445  22596545.484                    22596552.949
        48.000          35.700
 130207359.364 5 101460293.16543  24777637.242                    24777640.957
        35.100          20.400
 119517782.101 7  93130756.75745  22743477.695                    22743483.848
        45.900          30.200
 114316423.516 7  89077744.70545  21753693.273                    21753695.598
        46.200          30.100
 125284120.64415                  23840775.969
        33.100
 112669666.634 8  87794559.61946  21440324.742                    21440328.270
        51.400          36.500
 112032221.773 8  87297838.74045  21319021.227                    21319024.781
        48.800          30.000
 18  3 15 10 49 30.0000000  0 17G20R07R09G21R01R24R16R17R18G07G08G11
                                G30G28G10G15G13
 120274644.083 6  93720549.04744  22887510.234                    22887514.359
        40.500          26.500
                  88119378.540 6  21164714.883                    21164716.934
                        38.500
                  83899776.578 6  20200801.055                    20200800.754
                        38.500
 132686300.877 5 103391966.02243  25249370.859                    25249373.848
        35.800          19.300
                  94066386.701 5  22624797.984                    22624800.535
                        33.300
                  92116235.291 4  22147970.492                    22147971.777
                        26.200
                  84290062.539 6  20287642.672                    20287644.809
                        36.500
                  86569069.217 6  20799643.234                    20799644.836
                        39.300
                  94214778.454 6  22692349.023                    22692352.031
                        37.000
 129402852.922 8 100833422.76043  24624549.438                    24624552.398
        49.100          20.400
 118746952.534 7  92530108.24645  22596793.273                    22596800.395
        47.600          35.400
 130204251.740 5 101457871.62843  24777045.781                    24777049.555
        34.300          21.100
 119521094.031 7  93133337.48045  22744108.359                    22744113.883
        46.300          30.400
 114315808.766 7  89077265.68344  21753575.039                    21753578.477
        45.900          29.500
 125281521.13015                  23840281.211
        32.400
 112669676.867 8  87794567.59646  21440326.531                    21440329.820
        51.400          36.300
 112033980.091 8  87299208.86245  21319355.898                    21319359.824
        48.200          30.500
 18  3 15 10 49 31.0000000  0 17G20R07R09G21R01R24R16R17R18G07G08G11
                                G30G28G10G15G13
 120277581.149 6  93722837.66344  22888069.594                    22888072.715
        40.900          26.100
                  88122173.453 6  21165386.570                    21165388.391
                        38.300
                  83898241.015 6  20200430.047                    20200430.105
                        38.400
 132689394.301 5 103394376.48143  25249958.828                    25249962.613
        34.900          19.900
                  94063531.972 5  22624111.172                    22624113.922
                        32.800
                  92119070.479 4  22148652.953                    22148653.555
                        24.900
                  84292207.257 6  20288160.063                    20288160.680
                        36.700
                  86568826.238 6  20799584.250                    20799586.055
                        39.400
                  94211904.653 6  22691656.656                    22691659.027
                        38.100
 129406862.142 8 100836546.83643  24625312.445                    24625315.523
        49.300          20.600
 118748255.201 7  92531123.30845  22597040.953                    22597048.672
        47.000          35.000
 130201144.432 5 101455450.35943  24776454.406                    24776458.145
        34.500          19.900
 119524406.376 7  93135918.52845  22744738.273                    22744744.570
        45.800          30.200
 114315194.623 7  89076787.13445  21753458.695                    21753461.215
        46.200          30.600
 125278922.041 5                  23839786.445
        33.700
 112669687.823 8  87794576.13246  21440329.148                    21440332.363
        51.600          36.100
 112035739.096 8  87300579.51345  21319691.063                    21319693.863
        48.700          30.200
 18  3 15 10 49 32.0000000  0 17G20R07R09G21R01R24R16R17R18G07G08G11
                                G30G28G10G15G13
 120280518.688 6  93725126.64844  22888629.664                    22888632.047
        41.600          26.500
                  88124968.911 6  21166057.492                    21166059.973
                        37.900
                  83896706.129 6  20200062.727                    20200061.199
                        38.100
 132692488.041 5 103396787.16743  25250546.297                    25250551.398
        34.400          19.900
                  94060677.587 5  22623424.469                    22623427.949
                        32.900
                  92121906.139 4  22149335.672                    22149335.199
                        26.300
                  84294352.556 6  20288675.805                    20288677.754
                        36.900
                  86568584.042 6  20799526.641                    20799527.336
                        38.900
                  94209031.260 6  22690965.813                    22690967.184
                        38.400
 129410871.568 8 100839671.06743  24626074.930                    24626078.414
        49.200          20.400
 118749558.585 7  92532138.92945  22597289.070                    22597296.242
        46.400          35.400
 130198037.448 5 101453029.33643  24775863.648                    24775866.840
        34.600          19.900
 119527719.160 7  93138499.92345  22745368.414                    22745374.375
        45.700          30.900
 114314581.073 7  89076309.04345  21753341.914                    21753344.535
        45.900          30.000
 125276323.508 5                  23839291.641
        33.200
 112669699.510 8  87794585.24045  21440331.055                    21440334.363
        51.000          35.900
 112037498.777 8  87301950.68545  21320026.484                    21320029.207
        49.300          30.900
 18  3 15 10 49 33.0000000  0 17G20R07R09G21R01R24R16R17R18G07G08G11
                                G30G28G10G15G13
 120283456.758 7  93727416.05944  22889188.359                    22889191.398
        42.200          25.400
                  88127764.919 6  21166727.195                    21166731.699
                        37.100
                  83895171.727 6  20199691.906                    20199692.418
                        38.000
 132695582.045 5 103399198.04943  25251135.250                    25251140.227
        35.000          20.400
                  94057823.511 5  22622738.211                    22622741.039
                        32.900
                  92124742.340 4  22150017.898                    22150017.621
                        26.400
                  84296498.442 6  20289193.188                    20289193.973
                        36.600
                  86568342.584 6  20799468.547                    20799470.129
                        38.600
                  94206158.204 6  22690274.531                    22690276.469
                        38.200
 129414881.174 8 100842795.41743  24626838.016                    24626841.344
        49.300          20.400
 118750862.676 7  92533155.10745  22597537.484                    22597544.348
        46.300          34.000
 130194930.833 5 101450608.60643  24775271.750                    24775275.961
        34.500          19.900
 119531032.354 7  93141081.63245  22745999.516                    22746005.406
        45.600          30.800
 114313968.146 7  89075831.43545  21753226.195                    21753227.953
        46.400          30.700
 125273725.190 5                  23838796.719
        32.500
 112669711.883 8  87794594.88046  21440333.133                    21440337.023
        51.600          36.600
 112039259.094 8  87303322.36445  21320361.594                    21320364.289
        49.200          30.600
 18  3 15 10 49 34.0000000  0 17G20R07R09G21R01R24R16R17R18G07G08G11
                                G30G28G10G15G13
 120286395.307 6  93729705.84444  22889747.398                    22889750.609
        41.400          26.500
                  88130561.516 6  21167397.984                    21167401.469
                        36.500
                  83893637.906 6  20199322.094                    20199322.539
                        37.700
 132698676.321 5 103401609.16743  25251724.141                    25251728.965
        33.900          19.900
                  94054969.752 5  22622051.234                    22622054.570
                        32.800
                  92127579.086 4  22150699.977                    22150699.277
                        25.600
                  84298644.829 6  20289709.641                    20289710.719
                        36.500
                  86568101.885 6  20799410.703                    20799412.047
                        38.300
                  94203285.437 6  22689580.734                    22689584.113
                        37.300
 129418890.933 8 100845919.91143  24627600.672                    24627604.535
        49.100          21.300
 118752167.467 7  92534171.82245  22597785.898                    22597792.887
        46.300          34.000
 130191824.479 5 101448188.09543  24774681.445                    24774684.793
        34.300          19.900
 119534345.922 7  93143663.63645  22746629.539                    22746635.961
        46.000          30.400
 114313355.794 7  89075354.27445  21753109.672                    21753111.512
        46.200          30.000
 125271127.383 5                  23838302.414
        32.600
 112669724.983 8  87794605.09045  21440335.555                    21440339.184
        51.300          35.800
 112041020.087 8  87304694.57245  21320695.859                    21320699.188
        48.800          30.200
 18  3 15 10 49 35.0000000  0 17G20R07R09G21R01R24R16R17R18G07G08G11
                                G30G28G10G15G13
 120289334.432 6  93731996.07644  22890306.570                    22890310.039
        41.700          25.400
                  88133358.604 6  21168073.133                    21168072.160
                        37.600
                  83892104.697 6  20198953.102                    20198953.434
                        37.900
 132701770.965 5 103404020.55543  25252313.094                    25252318.523
        33.300          19.000
                  94052116.341 5  22621364.852                    22621368.465
                        34.000
                  92130416.414 4  22151381.680                    22151381.547
                        27.000
                  84300791.850 6  20290225.711                    20290227.266
                        36.900
                  86567861.953 6  20799352.977                    20799354.242
                        38.900
                  94200413.079 6  22688889.242                    22688891.598
                        37.400
 129422900.910 8 100849044.55943  24628364.289                    24628367.398
        49.200          20.400
 118753472.988 7  92535189.10645  22598034.438                    22598040.906
        46.000          34.600
 130188718.550 5 101445767.89443  24774089.352                    24774093.719
        34.200          19.600
 119537659.968 7  93146246.01345  22747260.359                    22747266.273
        45.200          30.700
 114312744.082 7  89074877.61345  21752992.734                    21752995.469
        45.600          30.700
 125268530.027 5                  23837807.367
        33.300
 112669738.839 8  87794615.88446  21440338.195                    21440342.016
        51.600          36.200
 112042781.796 8  87306067.33945  21321029.891                    21321034.164
        48.100          30.400
 18  3 15 10 49 36.0000000  0 17G20R07R09G21R01R24R16R17R18G07G08G11
                                G30G28G10G15G13
 120292274.057 6  93734286.71844  22890865.609                    22890869.496
        40.500          26.700
                  88136156.081 6  21168746.695                    21168744.039
                        38.000
                  83890572.092 6  20198584.984                    20198584.391
                        37.900
 132704865.832 5 103406432.12043  25252902.445                    25252907.352
        33.900          19.000
                  94049263.272 5  22620678.219                    22620682.148
                        32.800
                  92133254.196 4  22152062.875                    22152064.602
                        25.500
                  84302939.420 6  20290742.898                    20290743.988
                        36.900
                  86567622.752 6  20799296.039                    20799297.000
                        38.700
                  94197541.086 6  22688198.195                    22688199.051
                        38.300
 129426911.074 8 100852169.36543  24629127.117                    24629130.867
        48.700          20.100
 118754779.205 7  92536206.91945  22598283.547                    22598289.199
        46.400          34.600
 130185612.939 5 101443347.94643  24773498.609                    24773502.574
        34.000          20.100
 119540974.419 7  93148828.69845  22747890.711                    22747896.859
        45.400          30.200
 114312132.976 7  89074401.42944  21752875.641                    21752878.957
        46.300          29.600
 125265933.159 5                  23837313.797
        33.600
 112669753.408 8  87794627.23646  21440341.164                    21440344.715
        51.500          36.100
 112044544.190 7  87307440.62845  21321365.609                    21321369.270
        47.900          30.200
 18  3 15 10 49 37.0000000  0 17G20R07R09G21R01R24R16R17R18G07G08G11
                                G30G28G10G15G13
 120295214.205 6  93736577.76044  22891423.523                    22891429.109
        37.700          25.700
                  88138954.026 6  21169418.367                    21169417.207
                        38.600
                  83889040.000 6  20198216.039                    20198215.914
                        37.900
 132707960.952 5 103408843.89743  25253491.844                    25253496.316
        34.900          19.600
                  94046410.495 5  22619992.469                    22619995.496
                        33.400
                  92136092.480 4  22152745.273                    22152746.906
                        24.600
                  84305087.535 6  20291259.219                    20291260.941
                        36.200
                  86567384.252 6  20799239.281                    20799239.520
                        38.700
                  94194669.398 6  22687507.469                    22687507.871
                        38.900
 129430921.382 8 100855294.27643  24629890.219                    24629893.578
        48.700          19.600
 118756086.070 7  92537225.24045  22598532.719                    22598538.219
        46.900          35.100
 130182507.607 5 101440928.17843  24772907.430                    24772911.691
        34.400          19.300
 119544289.234 7  93151411.66645  22748521.898                    22748527.691
        46.100          30.400
 114311522.403 7  89073925.66045  21752759.906                    21752762.641
        46.100          30.200
 125263336.641 5                  23836820.883
        33.700
 112669768.678 8  87794639.13846  21440344.305                    21440348.000
        51.800          36.300
 112046307.211 8  87308814.39445  21321701.719                    21321704.703
        48.700          31.200
 18  3 15 10 49 38.0000000  0 17G20R07R09G21R01R24R16R17R18G07G08G11
                                G30G28G10G15G13
 120298154.875 6  93738869.15644  22891984.563                    22891987.547
        39.400          25.100
                  88141752.479 6  21170087.656                    21170091.172
                        38.600
                  83887508.459 6  20197846.008                    20197846.879
                        38.100
 132711056.352 5 103411255.86343  25254080.844                    25254085.254
        35.000          18.600
                  94043558.023 5  22619307.211                    22619309.543
                        32.800
                  92138931.223 3  22153426.906                    22153428.895
                        22.700
                  84307236.179 6  20291776.781                    20291778.266
                        36.500
                  86567146.525 6  20799181.992                    20799182.945
                        38.600
                  94191798.069 6  22686814.969                    22686817.051
                        38.800
 129434931.859 8 100858419.33943  24630653.500                    24630657.207
        48.900          19.300
 118757393.588 7  92538244.07845  22598782.047                    22598786.941
        47.800          34.700
 130179402.611 5 101438508.69643  24772316.023                    24772320.410
        34.500          19.000
 119547604.434 7  93153994.93145  22749152.984                    22749159.020
        46.300          30.500
 114310912.427 7  89073450.35545  21752644.219                    21752646.508
        46.300          30.400
 125260740.592 5                  23836325.758
        34.000
 112669784.597 8  87794651.54046  21440347.180                    21440350.641
        51.600          36.600
 112048070.864 8  87310188.65845  21322038.461                    21322040.797
        49.600          30.000
 18  3 15 10 49 39.0000000  0 17G20R07R09G21R01R24R16R17R18G07G08G11
                                G30G28G10G15G13
 120301095.952 7  93741160.85644  22892547.422                    22892547.645
        42.400          24.900
                  88144551.497 6  21170757.219                    21170762.891
                        38.600
                  83885977.545 6  20197478.672                    20197478.293
                        38.400
 132714152.008 5 103413668.05743  25254670.734                    25254674.473
        35.900          19.000
                  94040705.871 5  22618620.141                    22618623.723
                        32.900
                  92141770.509 3  22154109.008                    22154112.246
                        22.800
                  84309385.389 6  20292293.617                    20292296.004
                        36.400
                  86566909.567 6  20799125.492                    20799125.738
                        38.900
                  94188927.127 6  22686122.523                    22686125.871
                        38.200
 129438942.500 8 100861544.51643  24631416.336                    24631420.262
        48.400          19.900
 118758701.789 8  92539263.45345  22599031.469                    22599035.785
        48.600          34.600
 130176297.947 5 101436089.46943  24771726.336                    24771729.648
        34.000          19.300
 119550920.069 7  93156578.54744  22749783.352                    22749789.910
        45.500          29.400
 114310303.056 7  89072975.52045  21752528.469                    21752530.770
        46.000          30.200
 125258144.863 5                  23835833.039
        34.500
 112669801.260 8  87794664.52446  21440350.094                    21440353.910
        51.600          36.200
 112049835.188 8  87311563.45145  21322373.828                    21322376.430
        49.500          30.800
 18  3 15 10 49 40.0000000  0 17G20R07R09G21R01R24R16R17R18G07G08G11
                                G30G28G10G15G13
 120304037.523 7  93743452.97744  22893106.781                    22893107.613
        43.100          27.000
                  88147351.044 6  21171431.305                    21171434.707
                        37.600
                  83884447.129 6  20197108.781                    20197110.262
                        38.000
 132717247.952 6 103416080.46243  25255260.305                    25255263.238
        37.300          18.300
                  94037854.048 5  22617934.477                    22617937.727
                        32.900
                  92144610.274 3  22154791.023                    22154793.902
                        22.100
                  84311535.135 6  20292812.875                    20292812.625
                        36.000
                  86566673.368 6  20799069.008                    20799069.043
                        38.600
                  94186056.575 6  22685432.133                    22685433.891
                        37.800
 129442953.329 8 100864669.82943  24632180.125                    24632183.609
        48.200          20.100
 118760010.708 8  92540283.39545  22599280.117                    22599284.898
        49.300          34.700
 130173193.562 5 101433670.48542  24771135.617                    24771138.891
        33.200          17.800
 119554236.090 7  93159162.45945  22750414.180                    22750420.605
        45.400          30.400
 114309694.257 7  89072501.13744  21752412.109                    21752415.156
        45.900          29.600
 125255549.746 5                  23835338.734
        34.100
 112669818.646 8  87794678.07446  21440353.516                    21440357.332
        51.300          36.200
 112051600.168 8  87312938.77345  21322709.578                    21322712.273
        49.300          30.900
 18  3 15 10 49 41.0000000  0 17G20R07R09G21R01R24R16R17R18G07G08G11
                                G30G28G10G15G13
 120306979.609 6  93745745.55844  22893663.953                    22893667.906
        40.900          24.800
                  88150151.038 6  21172107.570                    21172105.801
                        37.600
                  83882917.377 6  20196743.039                    20196741.629
                        38.400
 132720344.171 6 103418493.11043  25255849.344                    25255852.676
        38.000          18.600
                  94035002.568 5  22617248.742                    22617252.141
                        33.600
                  92147450.621 3  22155473.336                    22155476.957
                        22.300
                  84313685.471 5  20293328.820                    20293330.613
                        35.900
                  86566437.930 6  20799012.344                    20799012.738
                        38.800
                  94183186.346 6  22684741.602                    22684742.367
                        37.700
 129446964.351 8 100867795.31943  24632943.273                    24632946.762
        48.600          19.900
 118761320.315 8  92541303.87445  22599529.227                    22599534.316
        49.800          35.200
 130170089.570 5 101431251.81342  24770545.305                    24770548.527
        33.000          17.800
 119557552.532 7  93161746.69645  22751045.891                    22751051.996
        45.700          30.200
 114309086.055 7  89072027.21044  21752296.328                    21752299.641
        45.900          29.800
 125252954.934 5                  23834844.719
        33.800
 112669836.755 8  87794692.18345  21440356.844                    21440360.508
        51.200          35.900
 112053365.841 8  87314314.63345  21323045.328                    21323048.629
        48.800          30.200
 18  3 15 10 49 42.0000000  0 17G20R07R09G21R01R24R16R17R18G07G08G11
                                G30G28G10G15G13
 120309922.293 6  93748038.59944  22894222.164                    22894227.660
        36.600          25.800
                  88152951.480 6  21172780.758                    21172778.598
                        37.600
                  83881388.161 6  20196374.633                    20196373.625
                        38.200
 132723440.652 6 103420905.97943  25256438.391                    25256442.219
        37.100          19.300
                  94032151.423 5  22616563.117                    22616566.273
                        32.800
                  92150291.438 3  22156157.375                    22156159.473
                        23.000
                  84315836.343 5  20293847.531                    20293847.965
                        35.800
                  86566203.243 6  20798955.367                    20798956.277
                        38.900
                  94180316.461 6  22684049.250                    22684051.137
                        38.900
 129450975.527 8 100870920.90343  24633706.445                    24633709.902
        48.600          20.600
 118762630.620 8  92542324.89745  22599778.148                    22599783.652
        49.600          35.500
 130166985.865 5 101428833.34443  24769954.938                    24769957.809
        33.200          18.600
 119560869.367 7  93164331.24644  22751677.094                    22751683.086
        46.000          29.800
 114308478.449 7  89071553.74544  21752180.813                    21752183.652
        45.600          29.800
 125250360.621 5                  23834351.117
        33.000
 112669855.571 8  87794706.84345  21440360.805                    21440364.270
        51.800          35.800
 112055132.154 8  87315690.98244  21323381.203                    21323384.469
        49.000          29.800
 18  3 15 10 49 43.0000000  0 17G20R07R09G21R01R24R16R17R18G07G08G11
                                G30G28G10G15G13
 120312865.484 6  93750331.98044  22894783.055                    22894787.324
        37.900          25.400
                  88155752.420 6  21173451.641                    21173451.750
                        38.400
                  83879859.452 6  20196003.945                    20196005.125
                        38.100
 132726537.406 6 103423319.04643  25257027.781                    25257031.031
        36.800          19.000
                  94029300.580 5  22615877.609                    22615880.832
                        32.600
                  92153132.731 4  22156841.305                    22156842.797
                        24.200
                  84317987.787 6  20294364.352                    20294366.305
                        36.500
                  86565969.295 6  20798899.570                    20798899.695
                        38.600
                  94177446.897 6  22683357.109                    22683360.512
                        39.100
 129454986.861 8 100874046.60443  24634469.750                    24634473.309
        48.600          21.800
 118763941.603 8  92543346.45545  22600027.117                    22600033.355
        49.200          35.100
 130163882.503 5 101426415.13042  24769363.547                    24769367.313
        33.600          17.800
 119564186.588 7  93166916.09744  22752307.578                    22752314.223
        45.000          29.800
 114307871.423 7  89071080.74245  21752065.813                    21752068.043
        44.900          30.500
 125247766.703 5                  23833857.609
        33.400
 112669875.066 8  87794722.03245  21440364.180                    21440367.965
        51.900          35.800
 112056899.116 8  87317067.83345  21323717.914                    21323720.676
        49.000          30.300
 18  3 15 10 49 44.0000000  0 17G20R07R09G21R01R24R16R17R18G07G08G11
                                G30G28G10G15G13
 120315809.151 6  93752625.70444  22895345.609                    22895347.484
        40.900          24.900
                  88158553.897 6  21174123.406                    21174125.168
                        38.300
                  83878331.399 6  20195638.406                    20195636.715
                        38.200
 132729634.452 6 103425732.33843  25257617.133                    25257620.410
        37.900          18.300
                  94026450.072 5  22615191.961                    22615194.590
                        33.000
                  92155974.565 3  22157525.398                    22157526.500
                        23.200
                  84320139.821 6  20294883.234                    20294883.996
                        36.400
                  86565736.121 6  20798843.094                    20798843.969
                        38.600
                  94174577.775 6  22682666.938                    22682669.258
                        38.600
 129458998.421 8 100877172.48143  24635233.398                    24635236.957
        48.500          20.900
 118765253.301 8  92544368.56645  22600276.492                    22600283.250
        49.600          35.000
 130160779.444 5 101423997.19142  24768773.180                    24768776.895
        33.000          17.800
 119567504.260 7  93169501.29544  22752939.219                    22752945.332
        45.500          29.900
 114307265.023 7  89070608.22344  21751950.258                    21751952.586
        45.400          29.500
 125245173.214 5                  23833364.617
        33.600
 112669895.313 8  87794737.81045  21440368.023                    21440371.680
        51.700          35.900
 112058666.763 8  87318445.22745  21324054.102                    21324057.152
        49.300          30.700
 18  3 15 10 49 45.0000000  0 17G20R07R09G21R01R24R16R17R18G07G08G11
                                G30G28G10G15G13
 120318753.286 6  93754919.81644  22895906.430                    22895908.266
        41.800          26.000
                  88161355.874 6  21174796.023                    21174798.336
                        37.500
                  83876803.903 6  20195269.203                    20195269.793
                        38.600
 132732731.776 6 103428145.88543  25258206.398                    25258209.844
        37.500          19.000
                  94023599.915 5  22614506.359                    22614509.699
                        33.600
                  92158816.917 4  22158209.258                    22158209.113
                        26.000
                  84322292.414 6  20295399.641                    20295401.867
                        36.500
                  86565503.715 6  20798787.055                    20798788.059
                        38.700
                  94171708.994 6  22681977.430                    22681978.086
                        37.900
 129463010.164 8 100880298.52243  24635996.500                    24636000.387
        48.300          20.100
 118766565.691 8  92545391.22045  22600526.477                    22600532.777
        49.800          34.900
 130157676.807 5 101421579.54443  24768182.984                    24768186.359
        32.800          18.300
 119570822.327 7  93172086.80244  22753570.727                    22753576.867
        45.500          29.700
 114306659.223 7  89070136.17544  21751834.523                    21751837.504
        45.800          29.600
 125242580.190 5                  23832871.578
        34.400
 112669916.290 8  87794754.15946  21440372.195                    21440375.289
        52.000          36.200
 112060435.080 8  87319823.14245  21324390.258                    21324393.465
        48.700          30.200
 18  3 15 10 49 46.0000000  0 17G20R07R09G21R01R24R16R17R18G07G08G11
                                G30G28G10G15G13
 120321697.984 6  93757214.39544  22896464.930                    22896468.449
        41.300          25.500
                  88164158.342 6  21175468.500                    21175471.766
                        37.100
                  83875276.982 6  20194901.844                    20194901.824
                        38.600
 132735829.444 6 103430559.68643  25258794.578                    25258799.195
        37.400          18.300
                  94020750.098 5  22613821.305                    22613824.086
                        33.100
                  92161659.795 4  22158893.391                    22158893.266
                        25.700
                  84324445.558 6  20295918.992                    20295919.852
                        36.500
                  86565272.076 6  20798731.797                    20798732.496
                        38.600
                  94168840.553 6  22681285.586                    22681287.355
                        38.000
 129467022.072 7 100883424.67643  24636760.148                    24636763.855
        47.900          20.900
 118767878.793 8  92546414.41945  22600775.977                    22600782.742
        49.800          35.100
 130154574.460 5 101419162.12242  24767591.859                    24767596.055
        32.800          17.800
 119574140.821 7  93174672.63645  22754202.219                    22754208.430
        45.500          30.300
 114306054.029 7  89069664.59345  21751719.344                    21751722.219
        45.900          30.000
 125239987.617 5                  23832377.250
        35.100
 112669937.984 8  87794771.06346  21440376.625                    21440379.758
        52.100          36.100
 112062204.106 8  87321201.60244  21324726.469                    21324730.379
        48.000          29.700
 18  3 15 10 49 47.0000000  0 17G20R07R09G21R01R24R16R17R18G07G08G11
                                G30G28G10G15G13
 120324643.152 6  93759509.34844  22897024.633                    22897028.695
        40.100          26.200
                  88166961.285 6  21176140.383                    21176144.355
                        36.900
                  83873750.613 6  20194534.203                    20194533.840
                        38.500
 132738927.301 6 103432973.59642  25259385.195                    25259388.102
        38.700          17.800
                  94017900.596 5  22613135.133                    22613139.020
                        33.100
                  92164503.141 4  22159576.945                    22159577.195
                        26.100
                  84326599.230 6  20296437.891                    20296438.680
                        36.300
                  86565041.189 6  20798675.797                    20798676.723
                        38.900
                  94165972.438 6  22680593.281                    22680596.434
                        38.300
 129471034.158 8 100886550.98443  24637523.852                    24637527.379
        48.000          21.100
 118769192.566 8  92547438.13845  22601025.836                    22601032.188
        49.900          35.000
 130151472.416 5 101416744.95542  24767002.109                    24767005.824
        31.900          16.900
 119577459.695 7  93177258.77545  22754833.664                    22754839.879
        45.300          30.300
 114305449.404 7  89069193.46044  21751604.289                    21751607.059
        45.800          29.700
 125237395.442 5                  23831883.773
        34.500
 112669960.361 8  87794788.50146  21440380.969                    21440383.848
        52.200          36.600
 112063973.786 7  87322580.56645  21325063.617                    21325066.703
        47.700          30.000
 18  3 15 10 49 48.0000000  0 17G20R07R09G21R01R24R16R17R18G07G08G11
                                G30G28G10G15G13
 120327588.884 6  93761804.74344  22897584.445                    22897589.469
        39.400          25.000
                  88169764.782 6  21176813.664                    21176816.766
                        37.100
                  83872224.833 6  20194167.258                    20194167.273
                        38.600
 132742025.444 6 103435387.73642  25259974.617                    25259977.871
        37.800          17.800
                  94015051.417 5  22612450.156                    22612453.270
                        33.200
                  92167347.031 4  22160260.453                    22160260.816
                        25.200
                  84328753.485 6  20296955.523                    20296956.703
                        36.700
                  86564811.034 6  20798620.820                    20798621.773
                        38.500
                  94163104.719 6  22679903.188                    22679905.918
                        38.800
 129475046.421 8 100889677.41143  24638286.945                    24638291.289
        48.200          20.600
 118770507.039 8  92548462.40245  22601275.656                    22601282.770
        49.500          35.000
 130148370.735 5 101414328.06442  24766412.094                    24766415.617
        32.400          17.400
 119580779.011 7  93179845.24844  22755465.742                    22755471.492
        45.400          29.800
 114304845.388 7  89068722.79645  21751489.242                    21751492.133
        46.100          30.700
 125234803.768 5                  23831390.719
        33.900
 112669983.477 8  87794806.51546  21440385.016                    21440388.383
        52.300          36.700
 112065744.116 8  87323960.03244  21325400.727                    21325403.605
        48.400          29.900
 18  3 15 10 49 49.0000000  0 17G20R07R09G21R01R24R16R17R18G07G08G11
                                G30G28G10G15G13
 120330535.084 6  93764100.49444  22898145.742                    22898149.914
        39.400          25.100
                  88172568.756 6  21177491.383                    21177489.820
                        37.900
                  83870699.609 6  20193799.563                    20193800.035
                        38.700
 132745123.923 6 103437802.15742  25260562.930                    25260568.082
        36.200          17.800
                  94012202.566 5  22611764.375                    22611767.723
                        33.200
                  92170191.432 4  22160943.828                    22160944.730
                        24.900
                  84330908.306 6  20297475.484                    20297475.746
                        36.800
                  86564581.638 6  20798565.188                    20798566.676
                        38.500
                  94160237.390 6  22679214.625                    22679215.840
                        38.900
 129479058.862 7 100892803.99343  24639050.617                    24639054.063
        47.900          20.400
 118771822.209 8  92549487.21145  22601525.688                    22601532.750
        49.200          34.600
 130145269.337 5 101411911.39742  24765820.719                    24765825.188
        32.600          17.800
 119584098.710 7  93182432.01945  22756097.375                    22756103.410
        45.500          30.500
 114304241.933 7  89068252.57344  21751373.836                    21751377.316
        46.400          29.700
 125232212.469 5                  23830897.508
        34.500
 112670007.285 8  87794825.07046  21440389.508                    21440393.004
        52.300          36.000
 112067515.101 8  87325340.01845  21325738.352                    21325740.637
        48.600          30.800
 18  3 15 10 49 50.0000000  0 17G20R07R09G21R01R24R16R17R18G07G08G11
                                G30G28G10G15G13
 120333481.821 6  93766396.64244  22898707.914                    22898710.660
        40.800          25.100
                  88175373.169 6  21178168.516                    21178164.219
                        38.300
                  83869174.991 6  20193432.477                    20193432.402
                        38.300
 132748222.652 6 103440216.72943  25261152.734                    25261157.078
        36.600          18.600
                  94009354.035 5  22611079.352                    22611082.602
                        32.900
                  92173036.319 4  22161627.969                    22161628.695
                        25.000
                  84333063.691 6  20297992.492                    20297994.855
                        36.600
                  86564353.001 6  20798509.773                    20798511.660
                        38.900
                  94157370.406 6  22678522.602                    22678525.305
                        38.000
 129483071.478 7 100895930.72843  24639814.094                    24639818.195
        47.800          20.400
 118773138.057 8  92550512.55445  22601776.523                    22601783.535
        48.900          34.800
 130142168.361 5 101409495.03942  24765230.805                    24765235.207
        33.000          16.900
 119587418.799 7  93185019.10444  22756729.633                    22756735.199
        46.200          28.800
 114303639.117 7  89067782.85544  21751259.734                    21751262.508
        46.500          29.700
 125229621.529 5                  23830404.711
        34.300
 112670031.839 8  87794844.20146  21440393.984                    21440397.313
        52.100          36.600
 112069286.764 8  87326720.53344  21326075.281                    21326078.055
        48.700          29.900
 18  3 15 10 49 51.0000000  0 17G20R07R09G21R01R24R16R17R18G07G08G11
                                G30G28G10G15G13
 120336428.996 7  93768693.13244  22899268.648                    22899271.805
        42.100          26.500
                  88178178.065 6  21178840.000                    21178839.105
                        37.800
                  83867650.924 6  20193067.078                    20193065.484
                        38.400
 132751321.648 5 103442631.54443  25261742.375                    25261747.262
        34.600          18.600
                  94006505.805 5  22610394.344                    22610398.035
                        33.600
                  92175881.703 3  22162311.086                    22162313.039
                        23.000
                  84335219.622 6  20298512.750                    20298513.859
                        36.200
                  86564125.103 6  20798454.750                    20798456.449
                        38.600
                  94154503.724 6  22677830.820                    22677834.227
                        37.900
 129487084.269 7 100899057.55643  24640577.945                    24640581.367
        47.800          20.400
 118774454.575 8  92551538.41845  22602026.641                    22602033.828
        48.200          34.500
 130139067.617 5 101407078.86942  24764641.297                    24764644.918
        33.600          16.900
 119590739.295 7  93187606.51645  22757360.055                    22757366.992
        45.800          30.300
 114303036.838 7  89067313.54944  21751145.531                    21751147.785
        46.900          29.800
 125227031.147 5                  23829911.227
        34.300
 112670057.063 8  87794863.85346  21440398.758                    21440402.176
        52.500          36.500
 112071059.075 8  87328101.56344  21326412.320                    21326415.152
        48.900          29.800
 18  3 15 10 49 52.0000000  0 17G20R07R09G21R01R24R16R17R18G07G08G11
                                G30G28G10G15G13
 120339376.627 6  93770989.99644  22899829.000                    22899832.406
        41.400          25.300
                  88180983.439 6  21179511.297                    21179513.539
                        37.600
                  83866127.332 6  20192697.617                    20192699.191
                        38.600
 132754420.856 5 103445046.49943  25262331.453                    25262336.746
        32.000          18.600
                  94003657.853 5  22609709.266                    22609712.480
                        32.700
                  92178727.568 3  22162995.641                    22162997.902
                        21.900
                  84337376.045 6  20299031.430                    20299032.379
                        36.800
                  86563897.882 6  20798400.195                    20798402.078
                        38.900
                  94151637.352 6  22677140.758                    22677143.320
                        38.800
 129491097.143 7 100902184.48143  24641341.664                    24641345.250
        47.300          19.900
 118775771.699 7  92552564.74645  22602277.250                    22602284.691
        47.400          34.700
 130135967.170 5 101404662.92842  24764051.609                    24764054.746
        33.900          17.400
 119594060.148 7  93190194.20245  22757992.141                    22757998.949
        45.400          30.900
 114302435.117 7  89066844.67244  21751030.813                    21751033.316
        46.800          29.700
 125224441.089 5                  23829418.625
        34.800
 112670082.929 8  87794884.01146  21440403.945                    21440407.188
        52.300          37.000
 112072831.975 8  87329483.04044  21326749.680                    21326752.805
        48.800          29.700
 18  3 15 10 49 53.0000000  0 17G20R07R09G21R01R24R16R17R18G07G08G11
                                G30G28G10G15G13
 120342324.777 6  93773287.24944  22900389.219                    22900393.508
        40.400          26.700
                  88183789.319 6  21180180.664                    21180187.023
                        37.500
                  83864604.323 6  20192332.375                    20192331.965
                        38.000
 132757520.395 5 103447461.68442  25262922.094                    25262926.383
        33.800          17.800
                  94000810.238 5  22609024.930                    22609027.938
                        32.900
                  92181573.964 3  22163678.789                    22163681.719
                        23.200
                  84339532.996 6  20299551.258                    20299551.840
                        36.400
                  86563671.422 6  20798345.766                    20798347.191
                        39.100
                  94148771.358 6  22676452.297                    22676453.219
                        38.700
 129495110.177 7 100905311.51343  24642105.375                    24642108.762
        47.200          19.600
 118777089.534 7  92553591.62645  22602527.914                    22602535.277
        47.000          34.700
 130132867.017 5 101402247.24642  24763461.539                    24763464.895
        33.700          17.800
 119597381.359 7  93192782.15045  22758625.195                    22758630.820
        46.300          30.200
 114301833.955 7  89066376.23445  21750916.344                    21750918.973
        46.400          30.900
 125221851.381 5                  23828925.516
        35.300
 112670109.501 8  87794904.71446  21440409.133                    21440412.125
        51.900          37.100
 112074605.530 8  87330865.03144  21327087.180                    21327089.941
        49.200          29.900
 18  3 15 10 49 54.0000000  0 17G20R07R09G21R01R24R16R17R18G07G08G11
                                G30G28G10G15G13
 120345273.430 6  93775584.89544  22900951.453                    22900954.492
        41.300          24.500
                  88186595.768 6  21180854.383                    21180859.844
                        37.100
                  83863081.917 6  20191965.203                    20191965.266
                        38.200
 132760620.111 5 103449877.00043  25263513.391                    25263516.469
        35.200          18.600
                  93997962.925 5  22608339.977                    22608343.055
                        32.900
                  92184420.871 3  22164364.148                    22164365.973
                        23.000
                  84341690.543 6  20300068.680                    20300070.996
                        36.200
                  86563445.721 6  20798291.180                    20798293.320
                        39.100
                  94145905.706 6  22675762.219                    22675763.793
                        38.400
 129499123.416 7 100908438.72243  24642868.844                    24642872.645
        47.500          19.000
 118778408.035 7  92554619.02545  22602779.195                    22602785.691
        46.400          35.000
 130129767.237 5 101399831.85543  24762871.867                    24762875.316
        33.200          19.000
 119600703.010 7  93195370.44844  22759256.555                    22759263.172
        45.800          29.900
 114301233.391 7  89065908.26945  21750801.367                    21750804.543
        46.000          30.200
 125219262.146 5                  23828432.313
        35.700
 112670136.789 8  87794925.97646  21440414.438                    21440417.547
        52.100          36.900
 112076379.741 8  87332247.54245  21327424.773                    21327427.816
        49.200          30.700
 18  3 15 10 49 55.0000000  0 17G20R07R09G21R01R24R16R17R18G07G08G11
                                G30G28G10G15G13
 120348222.596 7  93777882.93344  22901513.422                    22901515.766
        42.400          24.400
                  88189402.622 6  21181535.883                    21181532.113
                        37.600
                  83861560.100 6  20191599.992                    20191599.270
                        38.300
 132763720.179 5 103452292.62542  25264103.406                    25264106.375
        35.400          17.800
                  93995115.976 5  22607654.969                    22607658.434
                        33.200
                  92187268.282 3  22165049.023                    22165050.266
                        22.500
                  84343848.649 6  20300590.273                    20300590.102
                        36.800
                  86563220.795 6  20798236.828                    20798239.488
                        39.300
                  94143040.412 6  22675070.781                    22675073.559
                        38.700
 129503136.848 7 100911566.07943  24643632.406                    24643636.160
        47.300          19.300
 118779727.282 7  92555647.00045  22603030.336                    22603036.781
        45.800          34.600
 130126667.760 5 101397416.68842  24762281.398                    24762285.281
        33.900          17.400
 119604025.073 7  93197959.06844  22759888.492                    22759895.137
        45.100          29.900
 114300633.443 7  89065440.77945  21750687.758                    21750690.395
        46.300          30.300
 125216673.439 5                  23827939.852
        35.600
 112670164.814 8  87794947.81746  21440419.547                    21440423.176
        51.700          36.700
 112078154.652 8  87333630.59145  21327762.461                    21327765.742
        49.000          30.400
 18  3 15 10 49 56.0000000  0 17G20R07R09G21R01R24R16R17R18G07G08G11
                                G30G28G10G15G13
 120351172.269 7  93780181.38044  22902074.320                    22902077.359
        42.300          25.700
                  88192209.875 6  21182210.969                    21182207.563
                        38.200
                  83860038.812 6  20191232.414                    20191232.863
                        38.300
 132766820.505 5 103454708.46242  25264693.414                    25264696.602
        34.600          17.800
                  93992269.357 5  22606970.344                    22606973.891
                        33.200
                  92190116.179 3  22165735.031                    22165734.664
                        22.700
                  84346007.314 6  20301108.633                    20301110.277
                        36.400
                  86562996.629 6  20798182.406                    20798185.156
                        39.500
                  94140175.475 6  22674380.406                    22674383.320
                        38.300
 129507150.424 7 100914693.54543  24644396.320                    24644400.328
        46.300          20.100
 118781047.235 7  92556675.53145  22603282.078                    22603288.082
        46.000          35.200
 130123568.624 5 101395001.76642  24761691.766                    24761695.563
        34.700          17.400
 119607347.525 7  93200547.99244  22760520.367                    22760527.320
        45.000          29.900
 114300034.101 7  89064973.75945  21750574.406                    21750576.887
        46.400          30.700
 125214085.039 6                  23827447.867
        36.100
 112670193.540 8  87794970.19645  21440424.820                    21440428.336
        51.700          35.900
 112079930.205 8  87335014.14645  21328099.469                    21328103.277
        48.300          30.000
 18  3 15 10 49 57.0000000  0 17G20R07R09G21R01R24R16R17R18G07G08G11
                                G30G28G10G15G13
 120354122.480 6  93782480.26544  22902634.242                    22902638.488
        40.500          25.100
                  88195017.744 6  21182883.344                    21182883.199
                        38.900
                  83858518.163 6  20190866.445                    20190866.117
                        38.400
 132769921.107 5 103457124.49542  25265283.250                    25265286.617
        35.900          16.900
                  93989423.092 5  22606286.203                    22606289.246
                        33.400
                  92192964.620 3  22166418.883                    22166419.727
                        21.400
                  84348166.553 6  20301628.539                    20301629.711
                        36.100
                  86562773.230 6  20798128.992                    20798132.129
                        39.400
                  94137310.953 6  22673691.469                    22673692.852
                        38.200
 129511164.236 7 100917821.17143  24645160.117                    24645163.879
        46.100          19.900
 118782367.909 7  92557704.62945  22603533.781                    22603539.594
        46.800          35.400
 130120469.918 5 101392587.17243  24761102.391                    24761105.930
        35.400          19.300
 119610670.433 7  93203137.26745  22761154.133                    22761159.555
        45.800          30.900
 114299435.368 7  89064507.22344  21750460.219                    21750462.801
        46.600          29.600
 125211497.229 6                  23826955.273
        36.000
 112670223.033 8  87794993.18545  21440430.695                    21440433.785
        51.600          35.700
 112081706.494 8  87336398.26144  21328437.859                    21328441.332
        48.100          29.300
 18  3 15 10 49 58.0000000  0 17G20R07R09G21R01R24R16R17R18G07G08G11
                                G30G28G10G15G13
 120357073.265 6  93784779.58644  22903195.617                    22903200.023
        40.000          25.800
                  88197826.224 6  21183554.695                    21183558.711
                        38.800
                  83856998.128 6  20190500.664                    20190500.688
                        38.700
 132773022.039 6 103459540.81142  25265874.516                    25265877.051
        37.300          17.400
                  93986577.214 5  22605601.227                    22605604.504
                        33.200
                  92195813.651 4  22167104.047                    22167104.848
                        24.400
                  84350326.410 6  20302147.469                    20302149.855
                        36.400
                  86562550.666 6  20798075.578                    20798078.957
                        39.500
                  94134446.830 6  22673001.313                    22673002.961
                        38.700
 129515178.285 7 100920949.00043  24645924.016                    24645927.602
        45.800          19.300
 118783689.370 7  92558734.34145  22603785.828                    22603791.637
        47.500          35.600
 130117371.540 5 101390172.87043  24760512.133                    24760516.316
        35.300          19.300
 119613993.798 7  93205726.90244  22761786.047                    22761791.793
        45.700          29.400
 114298837.305 7  89064041.19845  21750346.406                    21750348.820
        46.600          30.800
 125208909.835 5                  23826462.563
        35.500
 112670253.293 8  87795016.76245  21440436.305                    21440439.805
        51.500          35.900
 112083483.507 8  87337782.94045  21328776.500                    21328779.715
        48.100          30.100
 18  3 15 10 49 59.0000000  0 17G20R07R09G21R01R24R16R17R18G07G08G11
                                G30G28G10G15G13
 120360024.545 6  93787079.29144  22903757.711                    22903761.758
        39.200          25.700
                  88200635.241 6  21184227.000                    21184233.887
                        38.300
                  83855478.612 6  20190133.328                    20190134.563
                        38.500
 132776123.242 6 103461957.33343  25266463.289                    25266467.027
        36.800          18.300
                  93983731.628 5  22604916.273                    22604919.789
                        33.400
                  92198663.128 4  22167788.703                    22167790.199
                        24.800
                  84352486.803 6  20302668.023                    20302669.008
                        36.200
                  86562328.825 6  20798021.961                    20798025.340
                        39.300
                  94131583.021 6  22672311.844                    22672313.543
                        39.000
 129519192.477 7 100924076.93842  24646687.742                    24646691.465
        46.200          17.800
 118785011.469 8  92559764.54345  22604037.563                    22604042.480
        48.000          34.800
 130114273.537 5 101387758.82843  24759922.727                    24759926.844
        35.000          18.600
 119617317.587 7  93208316.87244  22762418.289                    22762424.637
        44.900          29.700
 114298239.818 7  89063575.62744  21750232.414                    21750234.895
        46.400          29.500
 125206322.869 5                  23825970.766
        35.300
 112670284.255 8  87795040.88646  21440442.273                    21440445.801
        51.900          36.200
 112085261.152 8  87339168.11245  21329114.844                    21329117.953
        48.300          30.500
 18  3 15 10 50  0.0000000  0 17G20R07R09G21R01R24R16R17R18G07G08G11
                                G30G28G10G15G13
 120362976.349 6  93789379.39644  22904319.375                    22904323.438
        38.300          26.700
                  88203444.706 6  21184903.977                    21184907.016
                        37.500
                  83853959.759 6  20189770.828                    20189768.816
                        38.700
 132779224.744 6 103464374.11242  25267053.156                    25267057.008
        36.500          17.800
                  93980886.354 5  22604232.508                    22604235.563
                        32.400
                  92201513.128 4  22168474.156                    22168475.469
                        27.000
                  84354647.740 6  20303187.234                    20303189.648
                        36.700
                  86562107.729 6  20797969.125                    20797972.246
                        39.400
                  94128719.564 6  22671620.930                    22671623.859
                        38.900
 129523206.833 7 100927205.03443  24647451.813                    24647455.492
        45.800          18.600
 118786334.269 8  92560795.29545  22604289.063                    22604294.477
        48.600          35.400
 130111175.790 5 101385345.00043  24759333.703                    24759337.535
        34.800          18.600
 119620641.721 7  93210907.10244  22763051.508                    22763057.336
        45.500          29.400
 114297642.926 7  89063110.51344  21750118.789                    21750121.672
        46.300          29.500
 125203736.356 6                  23825478.508
        36.000
 112670315.924 8  87795065.56646  21440448.125                    21440451.184
        51.800          36.100
 112087039.446 8  87340553.79145  21329453.383                    21329456.223
        48.300          30.900
 18  3 15 10 50  1.0000000  0 16G20R07R09G21R01R24R16R17R18G08G11G30
                                G28G10G15G13
 120365928.622 6  93791679.84844  22904882.250                    22904885.016
        39.800          27.100
                  88206254.521 6  21185582.883                    21185581.223
                        37.000
                  83852441.399 6  20189404.766                    20189403.957
                        38.300
 132782326.452 6 103466791.02843  25267644.000                    25267647.215
        38.400          18.300
                  93978041.392 5  22603548.281                    22603550.859
                        33.000
                  92204363.646 4  22169160.664                    22169161.109
                        26.300
                  84356809.237 6  20303708.438                    20303709.676
                        36.000
                  86561887.378 6  20797916.086                    20797918.852
                        39.100
                  94125856.487 6  22670932.883                    22670934.484
                        38.600
 118787657.711 8  92561826.54845  22604540.789                    22604545.934
        49.400          35.200
 130108078.358 5 101382931.41243  24758743.141                    24758747.727
        34.800          19.000
 119623966.245 7  93213497.63544  22763684.469                    22763689.953
        46.000          29.900
 114297046.584 7  89062645.83045  21750005.563                    21750007.875
        46.500          30.400
 125201150.217 5                  23824985.031
        35.900
 112670348.271 8  87795090.76946  21440454.641                    21440458.168
        51.600          36.300
 112088818.396 8  87341939.98445  21329791.852                    21329794.813
        48.500          30.200
 18  3 15 10 50  2.0000000  0 16G20R07R09G21R01R24R16R17R18G08G11G30
                                G28G10G15G13
 120368881.374 7  93793980.66644  22905445.203                    22905446.797
        42.000          25.700
                  88209064.841 6  21186257.453                    21186255.188
                        37.400
                  83850923.590 6  20189037.695                    20189037.957
                        38.600
 132785428.440 6 103469208.16743  25268233.852                    25268237.438
        37.400          18.600
                  93975196.750 5  22602864.266                    22602867.078
                        32.200
                  92207214.646 4  22169844.773                    22169846.324
                        26.300
                  84358971.262 6  20304228.883                    20304230.605
                        36.400
                  86561667.757 6  20797863.805                    20797866.680
                        38.900
                  94122993.756 6  22670243.984                    22670244.758
                        38.900
 118788981.849 8  92562858.33645  22604792.742                    22604798.418
        49.800          35.200
 130104981.279 6 101380518.10143  24758154.930                    24758158.352
        36.000          19.300
 119627291.182 7  93216088.50145  22764316.789                    22764322.758
        45.100          30.200
 114296450.840 7  89062181.61945  21749892.477                    21749894.715
        46.700          30.300
 125198564.539 5                  23824494.664
        35.500
 112670381.325 8  87795116.52946  21440460.422                    21440464.160
        51.800          36.100
 112090598.001 8  87343326.69145  21330130.781                    21330133.258
        49.100          30.300
 18  3 15 10 50  3.0000000  0 16G20R07R09G21R01R24R16R17R18G08G11G30
                                G28G10G15G13
 120371834.615 7  93796281.89344  22906006.945                    22906009.230
        42.500          25.800
                  88211875.743 6  21186930.180                    21186930.188
                        37.500
                  83849406.385 6  20188672.445                    20188673.039
                        38.600
 132788530.806 6 103471625.64742  25268823.016                    25268828.133
        36.300          17.800
                  93972352.444 5  22602179.703                    22602182.629
                        32.200
                  92210066.178 4  22170531.164                    22170532.188
                        26.700
                  84361133.890 6  20304749.539                    20304750.539
                        36.500
                  86561448.903 6  20797811.320                    20797813.707
                        39.100
                  94120131.387 6  22669552.688                    22669555.207
                        39.200
 118790306.699 8  92563890.68745  22605045.164                    22605050.441
        50.000          34.700
 130101884.558 5 101378105.06343  24757565.289                    24757569.004
        35.200          20.400
 119630616.535 7  93218679.69145  22764949.234                    22764955.758
        44.300          30.200
 114295855.712 7  89061717.88445  21749778.813                    21749781.609
        47.000          30.000
 125195979.324 5                  23824002.781
        35.600
 112670415.140 8  87795142.87946  21440467.258                    21440470.758
        51.800          36.900
 112092378.271 8  87344713.92145  21330469.781                    21330472.477
        49.400          30.200
 18  3 15 10 50  4.0000000  0 16G20R07R09G21R01R24R16R17R18G08G11G30
                                G28G10G15G13
 120374788.331 6  93798583.52944  22906566.602                    22906571.160
        40.800          24.700
                  88214687.138 6  21187603.789                    21187605.656
                        38.900
                  83847889.694 6  20188306.953                    20188307.379
                        38.500
 132791633.293 6 103474043.16642  25269413.273                    25269417.902
        38.400          16.900
                  93969508.413 5  22601495.688                    22601499.094
                        33.600
                  92212918.158 4  22171215.484                    22171218.426
                        25.600
                  84363297.011 6  20305271.414                    20305271.777
                        36.100
                  86561230.765 6  20797758.625                    20797761.566
                        39.100
                  94117269.320 6  22668863.820                    22668865.199
                        39.500
 118791632.131 8  92564923.49545  22605297.609                    22605302.598
        50.400          34.800
 130098788.075 5 101375692.23743  24756976.570                    24756979.699
        35.600          19.600
 119633942.229 7  93221271.13944  22765582.172                    22765588.324
        45.300          29.700
 114295261.093 7  89061254.53845  21749665.930                    21749668.234
        47.000          31.200
 125193394.398 6                  23823511.242
        36.000
 112670449.573 8  87795169.70746  21440473.852                    21440476.906
        51.500          36.400
 112094159.142 8  87346101.61944  21330807.930                    21330810.906
        49.400          29.400
 18  3 15 10 50  5.0000000  0 16G20R07R09G21R01R24R16R17R18G08G11G30
                                G28G10G15G13
 120377742.634 6  93800885.59444  22907128.516                    22907132.910
        39.300          25.800
                  88217499.033 6  21188278.852                    21188282.395
                        39.400
                  83846373.629 6  20187941.883                    20187942.617
                        38.600
 132794736.074 6 103476460.93242  25270004.273                    25270008.512
        38.200          17.400
                  93966664.733 5  22600812.250                    22600815.395
                        33.400
                  92215770.646 4  22171901.961                    22171903.680
                        25.600
                  84365460.683 6  20305791.961                    20305792.266
                        36.500
                  86561013.386 6  20797706.672                    20797709.090
                        38.900
                  94114407.642 6  22668174.594                    22668177.250
                        39.800
 118792958.266 8  92565956.85445  22605549.297                    22605554.965
        50.500          35.600
 130095691.955 5 101373279.69343  24756387.180                    24756390.539
        35.000          18.300
 119637268.353 7  93223862.91944  22766215.438                    22766221.043
        45.700          29.600
 114294667.091 7  89060791.67445  21749552.773                    21749555.391
        47.000          30.800
 125190809.988 6                  23823019.195
        36.300
 112670484.750 8  87795197.12146  21440480.586                    21440483.637
        51.600          36.300
 112095940.699 8  87347489.86045  21331146.320                    21331150.184
        48.200          30.800
 18  3 15 10 50  6.0000000  0 16G20R07R09G21R01R24R16R17R18G08G11G30
                                G28G10G15G13
 120380697.403 7  93803187.98544  22907692.734                    22907695.125
        42.200          26.200
                  88220311.438 6  21188956.328                    21188958.430
                        39.200
                  83844858.114 6  20187577.109                    20187577.660
                        38.600
 132797839.201 5 103478878.98442  25270593.531                    25270598.852
        35.700          17.800
                  93963821.410 5  22600128.141                    22600131.309
                        32.900
                  92218623.671 3  22172587.828                    22172590.023
                        23.800
                  84367624.928 6  20306312.875                    20306313.285
                        36.500
                  86560796.775 6  20797655.328                    20797657.465
                        38.900
                  94111546.346 6  22667486.391                    22667488.082
                        39.600
 118794285.155 8  92566990.80545  22605801.453                    22605807.547
        50.500          35.700
 130092596.154 5 101370867.36743  24755797.953                    24755801.500
        35.400          18.600
 119640594.881 7  93226455.01444  22766848.039                    22766854.352
        45.800          29.900
 114294073.716 7  89060329.29645  21749439.906                    21749442.441
        46.600          30.700
 125188226.050 6                  23822527.305
        36.700
 112670520.659 8  87795225.10346  21440487.625                    21440490.344
        52.100          36.500
 112097722.993 7  87348878.66744  21331484.625                    21331489.152
        47.400          29.900
 18  3 15 10 50  7.0000000  0 16G20R07R09G21R01R24R16R17R18G08G11G30
                                G28G10G15G13
 120383652.740 7  93805490.82344  22908256.102                    22908257.789
        43.300          26.600
                  88223124.269 6  21189633.188                    21189635.129
                        38.900
                  83843343.248 6  20187213.461                    20187213.035
                        38.900
 132800942.667 5 103481297.26742  25271184.320                    25271189.316
        34.800          17.400
                  93960978.490 5  22599444.852                    22599447.570
                        32.900
                  92221477.227 4  22173273.125                    22173275.855
                        24.000
                  84369789.806 5  20306831.984                    20306833.977
                        35.800
                  86560580.939 6  20797603.500                    20797605.184
                        39.100
                  94108685.433 6  22666796.055                    22666798.984
                        38.900
 118795612.798 8  92568025.34245  22606053.633                    22606060.043
        50.200          35.200
 130089500.826 5 101368455.41443  24755209.156                    24755212.613
        35.100          19.000
 119643921.918 7  93229047.50944  22767481.328                    22767487.066
        45.400          29.400
 114293480.980 7  89059867.42444  21749326.859                    21749329.910
        46.700          29.800
 125185642.612 6                  23822034.898
        36.400
 112670557.357 8  87795253.70246  21440493.945                    21440497.824
        51.900          36.500
 112099505.988 7  87350268.00545  21331824.289                    21331828.645
        47.000          30.100
 18  3 15 10 50  8.0000000  0 16G20R07R09G21R01R24R16R17R18G08G11G30
                                G28G10G15G13
 120386608.558 7  93807794.06444  22908817.414                    22908820.578
        43.000          26.100
                  88225937.600 6  21190308.914                    21190311.023
                        38.400
                  83841828.933 6  20186847.547                    20186848.266
                        38.900
 132804046.383 5 103483715.74642  25271775.375                    25271779.969
        35.300          17.400
                  93958135.870 5  22598761.148                    22598763.754
                        33.600
                  92224331.289 3  22173960.438                    22173961.680
                        22.300
                  84371955.206 6  20307354.234                    20307355.645
                        36.100
                  86560365.878 6  20797552.141                    20797553.504
                        39.100
                  94105824.894 6  22666106.734                    22666109.625
                        39.400
 118796941.123 8  92569060.42245  22606306.430                    22606312.762
        49.400          34.800
 130086405.778 5 101366043.68243  24754620.555                    24754623.691
        35.000          19.000
 119647249.355 7  93231640.31645  22768114.891                    22768120.313
        46.300          30.500
 114292888.865 7  89059406.03645  21749214.227                    21749216.941
        46.000          30.500
 125183059.575 6                  23821543.617
        36.400
 112670594.763 8  87795282.85446  21440500.906                    21440504.824
        51.500          36.600
 112101289.662 7  87351657.86245  21332164.547                    21332167.617
        47.600          30.700
 18  3 15 10 50  9.0000000  0 16G20R07R09G21R01R24R16R17R18G08G11G30
                                G28G10G15G13
 120389564.858 6  93810097.69844  22909379.344                    22909382.770
        41.900          25.300
                  88228751.437 6  21190983.625                    21190986.328
                        37.700
                  83840315.171 6  20186483.891                    20186482.879
                        38.700
 132807150.362 5 103486134.41342  25272366.500                    25272370.656
        34.100          17.400
                  93955293.546 5  22598077.352                    22598080.422
                        33.200
                  92227185.798 3  22174647.320                    22174647.945
                        21.100
                  84374121.181 6  20307875.477                    20307877.180
                        36.400
                  86560151.524 6  20797500.938                    20797501.723
                        39.100
                  94102964.688 6  22665418.391                    22665421.141
                        39.700
 118798270.111 8  92570096.01245  22606558.977                    22606565.539
        49.400          35.100
 130083311.041 5 101363632.20043  24754031.273                    24754034.422
        34.700          18.300
 119650577.113 7  93234233.37845  22768747.813                    22768753.734
        46.400          30.200
 114292297.275 7  89058945.05844  21749101.641                    21749104.688
        46.100          29.800
 125180476.907 6                  23821052.102
        37.000
 112670632.832 8  87795312.51346  21440508.125                    21440511.840
        51.500          36.600
 112103073.939 8  87353048.19145  21332505.398                    21332507.523
        48.900          30.400
 18  3 15 10 50 10.0000000  0 16G20R07R09G21R01R24R16R17R18G08G11G30
                                G28G10G15G13
 120392521.749 6  93812401.77844  22909941.727                    22909945.758
        41.700          26.200
                  88231565.855 6  21191657.938                    21191662.102
                        37.400
                  83838802.018 6  20186120.805                    20186119.629
                        38.500
 132810254.657 5 103488553.32042  25272958.008                    25272960.785
        34.700          17.800
                  93952451.586 5  22597393.422                    22597397.102
                        33.300
                                  22175332.898

                  84376287.721 6  20308397.867                    20308397.996
                        36.400
                  86559937.961 6  20797450.008                    20797450.695
                        39.400
                  94100104.896 6  22664730.383                    22664732.086
                        39.500
 118799599.832 8  92571132.16745  22606811.672                    22606818.504
        49.300          35.000
 130080216.687 5 101361221.04042  24753442.734                    24753445.871
        34.300          17.400
 119653905.333 7  93236826.80744  22769380.766                    22769387.125
        45.500          29.000
 114291706.339 7  89058484.59445  21748989.688                    21748991.773
        46.300          30.100
 125177894.751 6                  23820560.398
        37.300
 112670671.675 8  87795342.78046  21440516.367                    21440519.059
        51.800          36.700
 112104858.907 8  87354439.06945  21332845.352                    21332847.051
        49.700          30.500
 18  3 15 10 50 11.0000000  0 16G20R07R09G21R01R24R16R17R18G08G11G30
                                G28G10G15G13
 120395479.120 6  93814706.22644  22910504.570                    22910508.285
        40.900          26.000
                  88234380.804 6  21192333.891                    21192336.117
                        37.600
                  83837289.417 6  20185754.852                    20185755.184
                        38.700
 132813359.227 6 103490972.41342  25273549.469                    25273551.809
        36.000          17.800
                  93949609.947 5  22596710.063                    22596712.875
                        33.800
                                  22176019.258

                  84378454.827 6  20308917.461                    20308919.566
                        36.700
                  86559725.156 6  20797397.789                    20797399.691
                        39.100
                  94097245.453 6  22664041.906                    22664043.523
                        40.200
 118800930.253 8  92572168.86445  22607064.945                    22607071.980
        48.400          35.400
 130077122.640 5 101358810.10742  24752853.070                    24752857.156
        34.300          17.800
 119657233.984 7  93239420.55644  22770013.609                    22770020.500
        44.900          29.600
 114291116.023 7  89058024.60745  21748877.023                    21748879.340
        46.600          30.500
 125175313.081 6                  23820069.758
        37.100
 112670711.227 8  87795373.60146  21440524.281                    21440526.793
        51.600          36.700
 112106644.533 8  87355830.47144  21333184.734                    21333187.160
        50.200          29.800
 18  3 15 10 50 12.0000000  0 16G20R07R09G21R01R24R16R17R18G08G11G30
                                G28G10G15G13
 120398437.014 6  93817011.07644  22911067.539                    22911071.660
        38.800          25.700
                  88237196.258 6  21193010.438                    21193012.188
                        38.000
                  83835777.435 6  20185390.664                    20185391.410
                        38.400
 132816464.038 5 103493391.74142  25274140.656                    25274142.762
        35.400          17.800
                  93946768.676 5  22596026.227                    22596030.094
                        33.600
                                  22176706.273

                  84380622.479 6  20309440.469                    20309441.227
                        36.400
                  86559513.113 6  20797348.172                    20797348.688
                        39.300
                  94094386.377 6  22663352.430                    22663354.477
                        39.400
 118802261.380 8  92573206.09145  22607317.852                    22607324.801
        48.100          34.900
 130074028.993 5 101356399.47142  24752264.023                    24752268.395
        34.300          17.400
 119660563.031 7  93242014.61044  22770648.438                    22770653.832
        45.400          29.700
 114290526.292 7  89057565.07344  21748764.680                    21748767.285
        46.600          29.800
 125172731.841 6                  23819578.906
        37.100
 112670751.509 8  87795404.98746  21440531.383                    21440534.656
        51.600          37.100
 112108430.852 8  87357222.43144  21333523.945                    21333527.203
        49.500          29.900
 18  3 15 10 50 13.0000000  0 16G20R07R09G21R01R24R16R17R18G08G11G30
                                G28G10G15G13
 120401395.458 6  93819316.34444  22911630.461                    22911634.129
        39.400          25.300
                  88240012.113 6  21193688.641                    21193688.082
                        38.700
                  83834266.033 6  20185028.141                    20185027.121
                        39.100
 132819569.194 5 103495811.35643  25274730.828                    25274733.598
        35.900          18.300
                  93943927.705 5  22595342.930                    22595346.594
                        34.100
                                  22177393.586

                  84382790.687 6  20309961.555                    20309963.449
                        36.300
                  86559301.821 6  20797297.180                    20797298.063
                        39.100
                  94091527.646 6  22662664.406                    22662665.629
                        38.900
 118803593.197 7  92574243.86645  22607571.617                    22607578.102
        47.700          35.300
 130070935.614 5 101353989.06443  24751674.867                    24751679.531
        34.400          18.600
 119663892.495 7  93244609.00045  22771281.969                    22771287.711
        45.000          30.000
 114289937.149 7  89057105.99745  21748652.359                    21748655.121
        45.800          30.000
 125170150.986 6                  23819087.734
        37.500
 112670792.497 8  87795436.92546  21440538.844                    21440542.281
        51.800          36.900
 112110217.833 8  87358614.89644  21333863.391                    21333867.078
        49.300          29.600
 18  3 15 10 50 14.0000000  0 16G20R07R09G21R01R24R16R17R18G08G11G30
                                G28G10G15G13
 120404354.313 7  93821621.91144  22912195.719                    22912196.957
        42.700          25.800
                  88242828.411 6  21194366.164                    21194365.832
                        38.800
                  83832755.220 6  20184665.539                    20184663.488
                        38.600
 132822674.566 6 103498231.14043  25275322.117                    25275324.188
        37.500          19.000
                  93941087.066 5  22594659.781                    22594663.289
                        34.300
                                  22178079.656

                  84384959.483 6  20310483.625                    20310484.820
                        36.500
                  86559091.298 6  20797246.492                    20797247.262
                        39.200
                  94088669.296 6  22661974.914                    22661977.055
                        39.200
 118804925.689 7  92575282.16545  22607825.031                    22607832.277
        47.100          35.200
 130067842.599 5 101351578.95443  24751087.109                    24751091.305
        34.000          18.300
 119667222.352 7  93247203.70144  22771914.656                    22771921.191
        45.000          29.600
 114289348.592 7  89056647.38645  21748540.359                    21748542.996
        45.900          30.700
 125167570.596 6                  23818596.469
        38.300
 112670834.195 8  87795469.42246  21440546.703                    21440550.598
        51.900          36.700
 112112005.470 8  87360007.86944  21334203.039                    21334207.176
        48.700          29.900
 18  3 15 10 50 15.0000000  0 16G20R07R09G21R01R24R16R17R18G08G11G30
                                G28G10G15G13
 120407313.648 7  93823927.87744  22912758.852                    22912760.117
        43.600          26.000
                  88245645.229 6  21195042.078                    21195043.645
                        38.600
                  83831244.884 6  20184298.391                    20184300.406
                        38.900
 132825780.194 6 103500651.13043  25275914.156                    25275915.770
        38.400          19.600
                  93938246.744 5  22593977.516                    22593980.195
                        33.800
                                  22178766.734

                  84387128.780 6  20311006.781                    20311007.555
                        36.700
                  86558881.534 6  20797196.219                    20797197.207
                        39.600
                  94085811.291 6  22661286.867                    22661289.102
                        39.200
 118806258.867 7  92576321.00845  22608079.109                    22608085.520
        47.600          35.500
 130064749.886 5 101349169.04242  24750498.680                    24750502.676
        34.300          17.800
 119670552.607 7  93249798.69944  22772548.898                    22772554.973
        45.300          29.400
 114288760.613 7  89056189.22045  21748428.484                    21748431.059
        45.800          30.200
 125164990.630 6                  23818105.313
        38.500
 112670876.601 8  87795502.47046  21440554.688                    21440558.617
        51.900          36.900
 112113793.771 8  87361401.33445  21334543.250                    21334547.309
        48.200          30.200
 18  3 15 10 50 16.0000000  0 16G20R07R09G21R01R24R16R17R18G08G11G30
                                G28G10G15G13
 120410273.528 6  93826234.30044  22913320.203                    22913323.824
        41.900          26.000
                  88248462.575 6  21195716.516                    21195720.656
                        38.700
                  83829735.196 6  20183937.477                    20183935.883
                        38.900
 132828886.099 6 103503071.34943  25276503.648                    25276506.551
        37.700          19.600
                  93935406.789 5  22593293.930                    22593297.316
                        33.400
                  92247182.85414  22179455.016                    22179457.086
                        26.900
                  84389298.681 6  20311528.664                    20311530.246
                        36.700
                  86558672.530 6  20797145.742                    20797147.254
                        39.400
                  94082953.653 6  22660598.734                    22660600.918
                        39.400
 118807592.748 7  92577360.39045  22608332.680                    22608338.980
        47.700          35.500
 130061657.538 5 101346759.41943  24749909.555                    24749914.141
        35.000          18.300
 119673883.276 7  93252394.01845  22773182.758                    22773188.949
        45.700          30.000
 114288173.265 7  89055731.54145  21748317.273                    21748319.477
        46.300          31.200
 125162411.083 6                  23817614.625
        38.100
 112670919.735 8  87795536.08246  21440563.180                    21440566.715
        51.900          36.900
 112115582.771 8  87362795.35745  21334884.523                    21334887.742
        48.500          30.200
 18  3 15 10 50 17.0000000  0 16G20R07R09G21R01R24R16R17R18G08G11G30
                                G28G10G15G13
 120413234.059 6  93828541.23544  22913882.133                    22913886.961
        39.200          25.400
                  88251280.480 6  21196393.109                    21196397.426
                        38.200
                  83828226.148 6  20183574.836                    20183573.625
                        38.900
 132831992.357 6 103505491.80443  25277094.766                    25277097.387
        38.100          19.600
                  93932567.172 5  22592610.930                    22592614.152
                        33.900
                  92250041.01514  22180142.609                    22180144.414
                        25.800
                  84391469.163 6  20312050.664                    20312052.648
                        36.900
                  86558464.338 6  20797095.477                    20797097.250
                        39.400
                  94080096.427 6  22659910.414                    22659912.871
                        39.200
 118808927.364 7  92578400.33845  22608587.055                    22608593.340
        47.300          35.900
 130058565.564 5 101344350.09343  24749321.109                    24749325.473
        35.200          18.300
 119677214.369 7  93254989.68045  22773816.078                    22773822.559
        44.900          30.600
 114287586.526 7  89055274.34745  21748205.711                    21748207.684
        46.600          30.500
 125159832.063 6                  23817123.281
        37.600
 112670963.638 8  87795570.28746  21440571.688                    21440575.102
        51.400          36.900
 112117372.448 8  87364189.89645  21335225.414                    21335228.039
        48.500          30.700
 18  3 15 10 50 18.0000000  0 16G20R07R09G21R01R24R16R17R18G08G11G30
                                G28G10G15G13
 120416195.021 6  93830848.46144  22914447.758                    22914450.059
        41.200          25.300
                  88254098.885 6  21197071.805                    21197074.207
                        38.100
                  83826717.608 6  20183208.320                    20183209.969
                        38.900
 132835098.875 6 103507912.45943  25277686.578                    25277688.844
        39.100          19.000
                  93929727.885 5  22591928.406                    22591931.184
                        34.000
                  92252900.192 4  22180830.305                    22180832.176
                        26.500
                  84393640.226 6  20312574.602                    20312574.871
                        36.800
                  86558256.892 6  20797045.164                    20797047.336
                        39.400
                  94077239.574 6  22659221.500                    22659224.266
                        38.900
 118810262.688 7  92579440.84546  22608841.492                    22608847.699
        47.500          36.200
 130055473.890 5 101341941.00943  24748733.563                    24748737.379
        35.500          19.000
 119680545.911 7  93257585.69344  22774450.047                    22774456.453
        44.600          29.100
 114287000.424 7  89054817.64045  21748093.836                    21748096.410
        46.800          30.000
 125157253.460 6                  23816632.953
        38.300
 112671008.256 8  87795605.05546  21440579.891                    21440583.090
        51.900          36.700
 112119162.805 8  87365584.96244  21335566.789                    21335569.020
        49.200          29.900
 18  3 15 10 50 19.0000000  0 16G20R07R09G21R01R24R16R17R18G08G11G30
                                G28G10G15G13
 120419156.457 7  93833156.05044  22915012.445                    22915013.852
        43.400          26.700
                  88256917.708 6  21197749.289                    21197750.016
                        37.700
                  83825209.694 6  20182847.875                    20182846.887
                        38.300
 132838205.620 6 103510333.29543  25278276.203                    25278279.496
        38.300          19.000
                  93926888.918 5  22591244.875                    22591248.445
                        33.100
                  92255759.852 4  22181518.383                    22181519.445
                        25.900
                  84395811.810 6  20313096.750                    20313097.363
                        36.800
                  86558050.197 6  20796995.016                    20796997.191
                        39.700
                  94074383.029 6  22658534.758                    22658536.207
                        39.100
 118811598.652 7  92580481.84945  22609096.305                    22609101.855
        47.600          35.200
 130052382.570 5 101339532.20243  24748145.570                    24748149.145
        35.900          19.900
 119683877.821 7  93260181.98044  22775084.359                    22775090.445
        45.100          29.400
 114286414.870 7  89054361.36245  21747982.203                    21747985.035
        46.600          30.200
 125154675.255 6  97523150.42852  23816142.484                    23816149.863
        38.300          16.300
 112671053.553 8  87795640.35446  21440588.539                    21440592.094
        51.900          36.600
 112120953.779 8  87366980.52745  21335907.961                    21335909.762
        49.800          30.600
 18  3 15 10 50 20.0000000  0 16G20R07R09G21R01R24R16R17R18G08G11G30
                                G28G10G15G13
 120422118.386 7  93835464.05244  22915575.219                    22915577.492
        42.100          26.000
                  88259737.059 6  21198426.680                    21198426.957
                        37.800
                  83823702.330 6  20182483.094                    20182484.715
                        38.400
 132841312.719 6 103512754.40442  25278867.188                    25278871.570
        36.600          17.800
                  93924050.294 5  22590562.047                    22590565.676
                        33.600
                  92258620.110 4  22182206.250                    22182207.324
                        25.900
                  84397984.005 6  20313618.477                    20313620.684
                        36.500
                  86557844.263 6  20796944.664                    20796947.637
                        38.900
                  94071526.884 6  22657846.445                    22657848.402
                        39.200
 118812935.340 8  92581523.41445  22609351.125                    22609356.363
        48.100          35.500
 130049291.591 6 101337123.64243  24747558.203                    24747561.059
        36.500          19.600
 119687210.130 7  93262778.58944  22775718.352                    22775724.445
        44.900          28.900
 114285829.936 7  89053905.56245  21747870.711                    21747873.445
        45.900          30.400
 125152097.561 6  97521141.81342  23815652.461                    23815659.492
        37.900          16.300
 112671099.607 8  87795676.23846  21440597.109                    21440600.633
        51.600          36.500
 112122745.433 8  87368376.63644  21336247.773                    21336250.734
        49.800          29.700
 18  3 15 10 50 21.0000000  0 16G20R07R09G21R01R24R16R17R18G08G11G30
                                G28G10G15G13
 120425080.852 6  93837772.48744  22916137.352                    22916141.391
        40.500          25.400
                  88262556.931 6  21199102.250                    21199103.852
                        38.100
                  83822195.549 6  20182121.344                    20182121.387
                        38.500
 132844420.059 6 103515175.70142  25279457.773                    25279462.359
        36.900          17.800
                  93921211.974 5  22589879.320                    22589882.992
                        33.700
                  92261480.841 4  22182893.570                    22182895.398
                        25.200
                  84400156.722 6  20314142.602                    20314143.250
                        36.900
                  86557639.096 6  20796895.961                    20796898.551
                        38.900
                  94068671.059 6  22657158.352                    22657160.352
                        39.300
 118814272.697 8  92582565.51145  22609605.570                    22609611.023
        48.400          35.200
 130046200.961 6 101334715.34943  24746969.094                    24746973.082
        36.900          19.900
 119690542.871 7  93265375.53444  22776352.453                    22776358.813
        45.200          29.600
 114285245.575 7  89053450.21745  21747759.336                    21747762.332
        45.300          30.700
 125149520.276 6  97519133.53742  23815161.688                    23815169.078
        38.100          15.600
 112671146.357 8  87795712.66346  21440606.406                    21440609.566
        51.900          37.000
 112124537.779 8  87369773.28345  21336588.578                    21336591.934
        49.000          30.800
 18  3 15 10 50 22.0000000  0 16G20R07R09G21R01R24R16R17R18G08G11G30
                                G28G10G15G13
 120428043.836 6  93840081.32144  22916701.320                    22916704.961
        39.900          26.700
                  88265377.288 6  21199778.344                    21199781.301
                        38.700
                  83820689.362 6  20181759.508                    20181758.250
                        38.700
 132847527.693 6 103517597.22842  25280050.039                    25280053.863
        36.400          17.800
                  93918374.025 5  22589196.344                    22589200.508
                        33.500
                  92264342.065 4  22183580.406                    22183583.191
                        25.100
                  84402329.960 6  20314664.555                    20314666.340
                        37.000
                  86557434.681 6  20796845.711                    20796849.539
                        39.300
                  94065815.616 6  22656470.336                    22656472.844
                        39.300
 118815610.735 8  92583608.13645  22609860.039                    22609865.402
        48.600          35.200
 130043110.647 6 101332307.31743  24746380.227                    24746384.863
        37.100          20.900
 119693875.976 7  93267972.76345  22776986.609                    22776993.340
        44.300          30.000
 114284661.811 7  89052995.33345  21747649.156                    21747651.391
        45.700          30.400
 125146943.354 6  97517125.60442  23814671.930                    23814678.598
        38.300          15.600
 112671193.807 8  87795749.63146  21440615.633                    21440618.691
        51.900          37.000
 112126330.771 8  87371170.43545  21336929.219                    21336933.410
        48.400          30.000
 18  3 15 10 50 23.0000000  0 16G20R07R09G21R01R24R16R17R18G08G11G30
                                G28G10G15G13
 120431007.319 6  93842390.52144  22917265.734                    22917269.086
        41.100          25.300
                  88268198.204 6  21200456.188                    21200458.754
                        38.100
                  83819183.714 6  20181396.336                    20181396.539
                        37.900
 132850635.603 5 103520019.02142  25280641.375                    25280645.383
        33.100          17.400
                  93915536.399 5  22588514.570                    22588518.480
                        32.900
                  92267203.867 4  22184268.641                    22184271.754
                        24.400
                  84404503.756 6  20315188.828                    20315189.402
                        36.400
                  86557231.042 6  20796797.844                    20796800.180
                        39.100
                  94062960.571 6  22655784.063                    22655784.820
                        39.100
 118816949.516 8  92584651.34545  22610114.422                    22610120.438
        48.900          35.200
 130040020.651 6 101329899.53143  24745792.828                    24745797.063
        37.900          21.100
 119697209.550 7  93270570.34744  22777621.438                    22777627.668
        45.300          29.400
 114284078.665 7  89052540.94245  21747538.109                    21747540.309
        46.200          30.600
 125144366.979 6  97515118.06642  23814181.516                    23814188.066
        38.400          16.300
 112671242.000 8  87795787.18646  21440624.703                    21440627.875
        52.500          36.500
 112128124.473 7  87372568.12345  21337270.719                    21337274.590
        47.800          30.200
 18  3 15 10 50 24.0000000  0 16G20R07R09G21R01R24R16R17R18G08G11G30
                                G28G10G15G13
 120433971.327 6  93844700.12944  22917830.391                    22917833.266
        41.200          26.300
                  88271019.559 6  21201135.953                    21201136.887
                        38.200
                  83817678.682 6  20181033.938                    20181033.434
                        38.100
 132853743.918 5 103522441.11542  25281231.234                    25281236.770
        33.000          16.900
                  93912699.109 5  22587831.859                    22587835.660
                        33.000
                  92270066.146 3  22184955.461                    22184959.023
                        22.700
                  84406678.120 6  20315711.055                    20315713.262
                        36.500
                  86557028.170 6  20796748.586                    20796751.848
                        38.800
                  94060105.879 6  22655096.336                    22655097.770
                        38.900
 118818288.973 8  92585695.08345  22610369.219                    22610375.426
        48.900          35.100
 130036931.064 6 101327492.07543  24745205.180                    24745208.609
        37.900          20.900
 119700543.487 7  93273168.21144  22778255.945                    22778262.184
        44.700          28.600
 114283496.139 7  89052087.03545  21747427.008                    21747429.441
        46.100          31.100
 125141790.975 6  97513110.79642  23813691.008                    23813697.785
        39.000          16.300
 112671290.910 8  87795825.29945  21440633.813                    21440637.031
        52.400          35.900
 112129918.810 8  87373966.29845  21337613.055                    21337615.730
        48.300          30.000
 18  3 15 10 50 25.0000000  0 16G20R07R09G21R01R24R16R17R18G08G11G30
                                G28G10G15G13
 120436935.858 6  93847010.13644  22918393.297                    22918397.043
        41.100          25.500
                  88273841.369 6  21201814.734                    21201814.934
                        38.600
                  83816174.209 6  20180670.727                    20180671.484
                        38.100
 132856852.365 5 103524863.26142  25281824.133                    25281828.230
        34.100          17.800
                  93909862.187 5  22587150.180                    22587153.570
                        33.700
                  92272928.931 3  22185644.203                    22185647.109
                        21.600
                  84408853.071 6  20316236.398                    20316236.234
                        36.500
                  86556826.058 6  20796700.430                    20796703.066
                        39.100
                  94057251.515 6  22654407.406                    22654410.316
                        38.900
 118819629.127 8  92586739.36745  22610624.047                    22610630.406
        48.800          35.900
 130033841.786 6 101325084.84443  24744617.508                    24744621.109
        38.500          21.100
 119703877.875 7  93275766.43344  22778890.336                    22778896.543
        45.000          29.100
 114282914.177 7  89051633.55145  21747315.984                    21747318.766
        46.300          30.500
 125139215.468 6  97511103.90242  23813200.500                    23813207.742
        39.300          16.900
 112671340.542 8  87795863.97946  21440643.031                    21440646.465
        52.500          36.300
 112131713.821 8  87375364.99945  21337954.273                    21337957.227
        48.800          30.500
 18  3 15 10 50 26.0000000  0 16G20R07R09G21R01R24R16R17R18G08G11G30
                                G28G10G15G13
 120439900.857 7  93849320.51944  22918959.055                    22918961.109
        42.600          26.400
                  88276663.669 6  21202492.492                    21202493.422
                        38.600
                  83814670.312 6  20180309.289                    20180309.262
                        38.400
 132859961.107 5 103527285.66242  25282415.578                    25282419.684
        33.300          16.900
                  93907025.579 5  22586467.859                    22586470.992
                        34.300
                                  22186333.219

                  84411028.582 6  20316758.445                    20316759.977
                        36.600
                  86556624.713 6  20796652.383                    20796654.730
                        39.000
                  94054397.505 6  22653719.906                    22653723.086
                        39.700
 118820969.989 8  92587784.19845  22610879.289                    22610885.355
        49.000          35.000
 130030752.855 6 101322677.88043  24744029.789                    24744033.109
        38.700          21.500
 119707212.647 7  93278364.95844  22779524.938                    22779531.164
        45.200          28.800
 114282332.834 7  89051180.55345  21747205.469                    21747208.477
        46.000          30.400
 125136640.366 6  97509097.32942  23812710.188                    23812717.594
        39.500          16.300
 112671390.882 8  87795903.20446  21440652.234                    21440656.242
        51.900          36.300
 112133509.483 8  87376764.20945  21338296.313                    21338299.277
        48.600          30.500
 18  3 15 10 50 27.0000000  0 16G20R07R09G21R01R24R16R17R18G08G11G30
                                G28G10G15G13
 120442866.364 7  93851631.31044  22919523.242                    22919525.945
        42.400          26.000
                  88279486.508 6  21203168.117                    21203171.652
                        38.500
                  83813167.030 6  20179948.641                    20179947.750
                        38.200
 132863070.184 5 103529708.30142  25283008.781                    25283011.129
        34.900          16.300
                  93904189.322 5  22585785.727                    22585788.621
                        33.300
                                  22187020.742

                  84413204.667 6  20317282.594                    20317283.395
                        36.700
                  86556424.120 6  20796603.266                    20796606.414
                        38.800
                  94051543.902 6  22653033.945                    22653035.125
                        40.200
 118822311.546 8  92588829.57345  22611134.398                    22611140.594
        49.300          35.200
 130027664.258 6 101320271.17543  24743441.430                    24743445.188
        39.300          22.300
 119710547.860 7  93280963.82344  22780159.813                    22780165.742
        44.900          29.400
 114281752.087 7  89050728.01045  21747095.172                    21747098.258
        46.000          30.800
 125134065.716 6  97507091.09943  23812220.391                    23812227.449
        38.900          18.600
 112671441.959 8  87795943.00946  21440662.492                    21440665.684
        52.300          36.100
 112135305.845 8  87378163.97744  21338636.914                    21338640.629
        48.200          29.900
 18  3 15 10 50 28.0000000  0 16G20R07R09G21R01R24R16R17R18G08G11G30
                                G28G10G15G13
 118870415.370 6  92626344.83744  22620294.938                    22620298.566
        41.200          26.400
                  87034125.168 6  20904053.828                    20904057.660
                        38.800
                  82566537.739 6  19879792.750                    19879792.988
                        38.300
 131290762.596 6 102304533.53742  24983808.977                    24983811.148
        36.500          17.400
                  92654913.037 5  22285310.828                    22285314.055
                        34.000
                                  21887917.008

                  83169820.993 6  20018014.320                    20018016.000
                        36.300
                  85308474.059 6  20496763.125                    20496766.527
                        38.700
                  92804000.323 6  22352553.734                    22352555.645
                        39.900
 117248235.082 8  91362276.48245  22311597.906                    22311603.664
        49.600          35.400
 128449152.886 6 100090262.31643  24443061.680                    24443064.867
        39.700          22.900
 118138466.720 7  92055965.52644  22481003.508                    22481008.660
        45.200          29.200
 112705751.340 7  87822675.46845  21447192.094                    21447194.676
        46.000          30.300
 123556068.900 6  96277483.17942  23511938.570                    23511945.012
        39.400          17.400
 111096073.767 8  86568383.37745  21140880.078                    21140883.234
        52.400          35.900
 110561684.644 7  86151965.65145  21039187.047                    21039191.152
        47.700          30.400
 18  3 15 10 50 29.0000000  0 16G20R07R09G21R01R24R16R17R18G08G11G30
                                G28G10G15G13
 118873381.909 6  92628656.42544  22620859.094                    22620862.762
        40.900          25.800
                  87036949.042 6  20904732.414                    20904735.387
                        38.500
                  82565035.562 6  19879429.742                    19879431.027
                        38.400
 131293872.130 6 102306956.54542  24984401.883                    24984402.848
        37.700          16.300
                  92652077.411 5  22284628.188                    22284631.770
                        33.500
                                  21888608.180

                  83171998.182 6  20018539.195                    20018539.922
                        36.200
                  85308274.935 6  20496715.211                    20496718.172
                        38.900
                  92801147.429 6  22351864.914                    22351868.219
                        39.400
 117249577.983 8  91363322.89645  22311852.781                    22311859.477
        49.500          35.200
 128446064.978 6 100087856.16243  24442473.758                    24442477.457
        40.300          22.600
 118141802.713 7  92058565.01544  22481637.531                    22481643.684
        44.700          29.600
 112705171.772 7  87822223.86345  21447081.508                    21447084.363
        46.100          30.900
 123553495.151 6  96275477.65243  23511448.352                    23511455.055
        38.900          19.000
 111096126.261 8  86568424.27846  21140890.281                    21140893.305
        51.700          36.000
 110563482.354 8  86153366.45544  21039529.898                    21039533.168
        48.000          29.900
 18  3 15 10 50 30.0000000  0 16G20R07R09G21R01R24R16R17R18G08G11G30
                                G28G10G15G13
 118876348.925 7  92630968.37344  22621425.266                    22621427.500
        42.300          26.800
                  87039773.334 6  20905412.523                    20905413.449
                        38.300
                  82563534.011 6  19879071.125                    19879069.922
                        38.400
 131296981.985 6 102309379.82342  24984992.445                    24984994.883
        37.700          16.900
                  92649242.113 5  22283946.523                    22283949.824
                        33.600
                                  21889296.797

                  83174175.920 6  20019063.242                    20019064.004
                        36.400
                  85308076.594 6  20496667.750                    20496669.953
                        38.900
                  92798294.902 6  22351177.148                    22351180.871
                        39.200
 117250921.580 8  91364369.84145  22312108.203                    22312115.379
        49.100          35.100
 128442977.350 6 100085450.22043  24441886.133                    24441889.262
        40.200          21.800
 118145139.089 7  92061164.78944  22482272.406                    22482278.668
        44.600          29.900
 112704592.807 7  87821772.72245  21446971.781                    21446974.098
        46.300          30.700
 123550921.798 6  96273472.43643  23510958.305                    23510965.070
        38.700          18.600
 111096179.470 8  86568465.74645  21140900.102                    21140903.602
        51.800          35.500
 110565280.684 8  86154767.75145  21039872.102                    21039875.227
        48.800          30.200
 18  3 15 10 50 31.0000000  0 16G20R07R09G21R01R24R16R17R18G08G11G30
                                G28G10G15G13
 118879316.435 7  92633280.71744  22621989.648                    22621992.523
        42.700          26.500
                  87042598.117 6  20906091.063                    20906091.746
                        37.900
                  82562033.011 6  19878707.656                    19878708.668
                        38.100
 131300092.084 6 102311803.27643  24985583.711                    24985586.715
        37.700          18.300
                  92646407.136 5  22283263.758                    22283268.035
                        34.100
                                  21889987.125

                  83176354.233 6  20019587.313                    20019588.340
                        36.700
                  85307879.013 6  20496621.531                    20496622.816
                        39.100
                  92795442.761 6  22350492.336                    22350493.566
                        39.600
 117252265.905 8  91365417.35945  22312364.398                    22312370.793
        48.800          35.300
 128439890.108 6 100083044.56543  24441298.906                    24441301.805
        40.200          22.300
 118148475.892 7  92063764.89645  22482907.023                    22482913.105
        44.700          30.000
 112704014.445 7  87821322.05545  21446861.953                    21446864.598
        46.300          30.800
 123548348.921 6  96271467.60243  23510469.063                    23510475.539
        39.000          18.300
 111096233.409 8  86568507.78045  21140910.086                    21140913.629
        51.700          35.900
 110567079.684 8  86156169.56144  21040214.789                    21040217.484
        49.200          29.800
 18  3 15 10 50 32.0000000  0 16G20R07R09G21R01R24R16R17R18G08G11G30
                                G28G10G15G13
 118882284.491 6  92635593.50544  22622552.961                    22622557.359
        41.400          25.700
                  87045423.437 6  20906768.531                    20906771.254
                        38.700
                  82560532.606 6  19878345.781                    19878346.605
                        38.300
 131303202.546 6 102314227.02643  24986175.875                    24986178.281
        38.300          19.000
                  92643572.530 5  22282582.117                    22282586.000
                        34.100
                  91046111.97914  21890676.375                    21890677.141
                        26.600
                  83178533.097 6  20020112.453                    20020113.020
                        36.500
                  85307682.198 6  20496574.086                    20496575.867
                        39.200
                  92792590.997 6  22349805.945                    22349806.902
                        39.900
 117253610.958 8  91366465.44745  22312620.352                    22312626.645
        48.000          35.900
 128436803.243 6 100080639.22043  24440712.242                    24440714.719
        40.400          22.600
 118151813.135 7  92066365.34545  22483542.563                    22483548.449
        45.000          30.200
 112703436.723 7  87820871.88044  21446751.414                    21446754.383
        45.800          29.800
 123545776.514 6  96269463.15342  23509979.320                    23509985.672
        38.700          17.400
 111096288.079 8  86568550.37345  21140920.414                    21140923.902
        51.600          35.800
 110568879.369 8  86157571.91444  21040556.938                    21040560.086
        49.000          29.300
 18  3 15 10 50 33.0000000  0 16G20R07R09G21R01R24R16R17R18G08G11G30
                                G28G10G15G13
 118885253.106 6  92637906.72844  22623116.977                    22623121.801
        39.100          25.500
                  87048249.277 6  20907446.148                    20907449.406
                        38.100
                  82559032.799 6  19877986.672                    19877986.180
                        38.500
 131306313.187 6 102316650.93243  24986767.688                    24986770.484
        37.900          19.000
                  92640738.238 5  22281900.906                    22281904.504
                        33.000
                  91048978.34114  21891364.766                    21891366.000
                        25.700
                  83180712.512 6  20020635.211                    20020637.277
                        36.600
                  85307486.145 6  20496527.164                    20496528.633
                        39.100
                  92789739.577 6  22349117.594                    22349120.707
                        39.900
 117254956.670 8  91367514.04845  22312876.766                    22312883.016
        48.600          35.500
 128433716.681 6 100078234.10343  24440124.406                    24440127.188
        40.900          23.400
 118155150.740 7  92068966.08045  22484177.664                    22484183.730
        44.700          30.700
 112702859.575 7  87820422.15245  21446641.844                    21446644.430
        45.800          30.200
 123543204.523 6  96267458.99743  23509490.008                    23509496.797
        39.400          18.300
 111096343.449 8  86568593.51746  21140931.148                    21140934.426
        51.800          36.100
 110570679.739 8  86158974.80444  21040899.125                    21040902.414
        48.800          29.900
 18  3 15 10 50 34.0000000  0 16G20R07R09G21R01R24R16R17R18G08G11G30
                                G28G10G15G13
 118888222.266 6  92640220.34244  22623683.125                    22623686.859
        40.800          25.600
                  87051075.646 6  20908126.227                    20908127.527
                        37.700
                  82557533.551 6  19877625.555                    19877624.453
                        38.400
 131309424.218 6 102319075.13043  24987359.227                    24987362.645
        36.500          18.600
                  92637904.311 5  22281219.367                    22281223.434
                        33.700
                  91051845.732 4  21892054.750                    21892055.316
                        26.300
                  83182892.493 6  20021161.336                    20021162.199
                        36.500
                  85307290.872 6  20496480.695                    20496482.117
                        38.700
                  92786888.564 6  22348430.945                    22348433.434
                        39.600
 117256303.102 8  91368563.20946  22313133.016                    22313139.672
        49.100          36.100
 128430630.488 6 100075829.28144  24439536.797                    24439540.059
        41.000          25.000
 118158488.797 7  92071567.15544  22484813.023                    22484818.867
        45.200          29.300
 112702283.061 7  87819972.91844  21446531.984                    21446534.703
        45.800          29.700
 123540632.998 6  96265455.23643  23509000.359                    23509007.602
        39.100          19.000
 111096399.586 8  86568637.26545  21140942.102                    21140945.434
        51.900          35.800
 110572480.795 8  86160378.23044  21041241.375                    21041245.285
        48.000          29.700
 18  3 15 10 50 35.0000000  0 16G20R07R09G21R01R24R16R17R18G08G11G30
                                G28G10G15G13
 118891191.881 7  92642534.30844  22624250.109                    22624252.109
        42.200          26.500
                  87053902.479 6  20908806.961                    20908806.348
                        37.800
                  82556034.913 6  19877263.914                    19877263.750
                        38.100
 131312535.491 6 102321499.48743  24987951.250                    24987954.574
        37.200          18.600
                  92635070.719 5  22280537.852                    22280541.367
                        33.500
                  91054713.607 4  21892743.617                    21892745.254
                        26.000
                  83185073.063 6  20021685.586                    20021687.242
                        36.900
                  85307096.353 6  20496434.117                    20496434.668
                        39.200
                  92784037.960 6  22347746.023                    22347747.121
                        39.600
 117257650.245 8  91369612.92545  22313389.000                    22313395.672
        48.700          35.900
 128427544.658 6 100073424.75244  24438949.461                    24438952.605
        41.700          25.500
 118161827.257 7  92074168.55544  22485448.086                    22485454.113
        45.400          29.900
 112701707.143 7  87819524.15144  21446422.352                    21446425.234
        45.700          29.700
 123538061.917 6  96263451.79743  23508511.328                    23508518.223
        39.400          19.600
 111096456.438 8  86568681.56346  21140952.867                    21140956.078
        52.100          36.000
 110574282.529 7  86161782.17944  21041584.344                    21041587.820
        47.700          29.800
 18  3 15 10 50 36.0000000  0 16G20R07R09G21R01R24R16R17R18G08G11G30
                                G28G10G15G13
 118894162.001 7  92644848.68044  22624815.406                    22624817.438
        42.500          25.600
                  87056729.810 6  20909486.234                    20909486.070
                        38.200
                  82554536.870 6  19876902.867                    19876903.383
                        38.300
 131315647.043 6 102323924.06243  24988542.906                    24988546.906
        37.200          18.300
                  92632237.492 5  22279856.242                    22279859.930
                        33.600
                  91057582.026 4  21893433.063                    21893434.543
                        26.300
                  83187254.187 6  20022211.461                    20022211.590
                        36.400
                  85306902.601 6  20496387.883                    20496388.844
                        39.300
                  92781187.674 6  22347059.328                    22347060.117
                        39.400
 117258998.088 8  91370663.19445  22313645.359                    22313652.082
        48.500          35.300
 128424459.163 6 100071020.45944  24438362.633                    24438365.395
        41.800          25.200
 118165166.169 7  92076770.29944  22486083.617                    22486089.762
        45.700          29.600
 112701131.835 7  87819075.86244  21446312.938                    21446315.434
        46.200          29.800
 123535491.319 6  96261448.73242  23508021.820                    23508028.656
        39.200          17.800
 111096514.021 8  86568726.43645  21140963.695                    21140966.996
        51.600          35.900
 110576084.956 7  86163186.66344  21041927.719                    21041930.875
        47.900          29.400
 18  3 15 10 50 37.0000000  0 16G20R07R09G21R01R24R16R17R18G08G11G30
                                G28G10G15G13
 118897132.663 6  92647163.49244  22625380.023                    22625382.559
        41.800          25.500
                  87059557.647 6  20910164.625                    20910165.781
                        37.800
                  82553039.410 6  19876542.508                    19876542.977
                        38.500
 131318758.936 5 102326348.91842  24989134.313                    24989138.902
        35.500          17.400
                  92629404.630 5  22279175.000                    22279178.094
                        33.700
                  91060450.944 4  21894123.195                    21894124.781
                        26.300
                  83189435.910 6  20022735.563                    20022737.035
                        36.900
                  85306709.624 6  20496341.055                    20496341.754
                        39.100
                  92778337.750 6  22346371.766                    22346374.289
                        40.000
 117260346.660 8  91371714.04145  22313902.008                    22313908.340
        48.500          35.100
 128421374.040 7 100068616.47444  24437775.500                    24437778.770
        42.000          24.100
 118168505.468 7  92079372.34344  22486718.773                    22486725.180
        45.700          29.400
 112700557.161 7  87818628.06344  21446204.133                    21446206.492
        45.800          29.900
 123532921.170 6  96259445.99743  23507532.617                    23507539.543
        40.100          18.300
 111096572.355 8  86568771.88946  21140974.688                    21140978.563
        51.400          36.800
 110577888.068 8  86164591.68445  21042270.875                    21042274.273
        48.100          30.500
 18  3 15 10 50 38.0000000  0 16G20R07R09G21R01R24R16R17R18G08G11G30
                                G28G10G15G13
 118900103.841 6  92649478.71444  22625943.805                    22625947.617
        39.800          25.200
                  87062385.999 6  20910842.406                    20910845.336
                        38.100
                  82551542.529 6  19876182.273                    19876182.461
                        39.100
 131321871.150 5 102328773.99942  24989726.500                    24989731.145
        35.300          17.400
                  92626572.099 5  22278493.992                    22278497.340
                        33.400
                  91063320.385 3  21894812.016                    21894814.070
                        23.800
                  83191618.224 6  20023261.805                    20023261.754
                        37.000
                  85306517.437 6  20496294.563                    20496295.973
                        39.400
                  92775488.234 6  22345685.617                    22345687.973
                        40.200
 117261695.939 8  91372765.43445  22314159.063                    22314165.488
        48.400          35.200
 128418289.262 6 100066212.75344  24437188.016                    24437191.379
        41.400          24.300
 118171845.224 7  92081974.76044  22487353.609                    22487360.500
        45.400          29.700
 112699983.091 7  87818180.72945  21446094.852                    21446097.211
        46.300          30.600
 123530351.437 6  96257443.62643  23507044.016                    23507050.273
        39.900          19.000
 111096631.399 8  86568817.89546  21140985.781                    21140989.375
        51.400          36.000
 110579691.830 8  86165997.20545  21042614.336                    21042617.422
        48.200          30.900
 18  3 15 10 50 39.0000000  0 16G20R07R09G21R01R24R16R17R18G08G11G30
                                G28G10G15G13
 118903075.575 6  92651794.35744  22626508.961                    22626512.988
        39.400          25.100
                  87065214.857 6  20911519.961                    20911525.352
                        38.200
                  82550046.232 6  19875821.828                    19875822.309
                        38.700
 131324983.582 6 102331199.24943  24990319.539                    24990323.625
        36.100          18.300
                  92623739.905 5  22277812.633                    22277815.688
                        34.400
                  91066190.338 3  21895501.992                    21895504.223
                        23.300
                  83193801.096 6  20023786.188                    20023787.664
                        36.800
                  85306326.032 6  20496248.359                    20496249.793
                        38.900
                  92772639.152 6  22345000.078                    22345001.750
                        39.600
 117263045.919 8  91373817.36845  22314416.055                    22314422.434
        48.500          35.200
 128415204.859 6 100063809.31144  24436601.297                    24436604.512
        41.300          24.700
 118175185.392 7  92084577.49044  22487990.039                    22487995.922
        45.700          29.800
 112699409.646 7  87817733.88745  21445984.742                    21445987.859
        45.500          30.200
 123527782.192 6  96255441.61743  23506554.953                    23506561.109
        39.900          19.300
 111096691.181 8  86568864.47445  21140997.070                    21141000.699
        52.000          35.800
 110581496.291 8  86167403.27545  21042957.719                    21042960.703
        48.600          30.500
 18  3 15 10 50 40.0000000  0 16G20R07R09G21R01R24R16R17R18G08G11G30
                                G28G10G15G13
 118906047.789 6  92654110.36144  22627075.398                    22627078.734
        39.900          25.800
                  87068044.215 6  20912200.063                    20912204.414
                        38.100
                  82548550.552 6  19875463.359                    19875461.820
                        38.700
 131328096.288 5 102333624.69142  24990911.773                    24990915.734
        34.800          17.400
                  92620908.044 5  22277131.211                    22277134.656
                        33.400
                  91069060.843 3  21896191.602                    21896194.207
                        22.100
                  83195984.505 6  20024311.531                    20024313.082
                        37.100
                  85306135.357 6  20496202.375                    20496203.957
                        38.600
                  92769790.386 6  22344314.039                    22344315.309
                        39.500
 117264396.562 8  91374869.81945  22314673.070                    22314679.340
        48.400          35.000
 128412120.737 6 100061406.09044  24436014.891                    24436017.574
        41.600          24.200
 118178525.908 7  92087180.48244  22488625.992                    22488631.473
        45.800          28.900
 112698836.761 7  87817287.48044  21445875.953                    21445879.109
        45.400          29.800
 123525213.380 6  96253439.93243  23506066.367                    23506072.918
        40.300          19.600
 111096751.668 8  86568911.60345  21141009.102                    21141011.926
        51.700          35.900
 110583301.415 8  86168809.86145  21043301.719                    21043304.656
        49.200          30.200
 18  3 15 10 50 41.0000000  0 16G20R07R09G21R01R24R16R17R18G08G11G30
                                G28G10G15G13
 118909020.517 6  92656426.75644  22627641.914                    22627644.664
        40.700          25.800
                  87070874.021 6  20912881.547                    20912882.820
                        37.600
                  82547055.385 6  19875101.242                    19875102.176
                        38.500
 131331209.256 5 102336050.36142  24991503.891                    24991507.859
        34.800          17.400
                  92618076.516 5  22276450.469                    22276453.953
                        34.300
                  91071931.831 3  21896882.219                    21896884.840
                        23.200
                  83198168.420 6  20024837.070                    20024838.520
                        36.700
                  85305945.383 6  20496156.164                    20496158.410
                        38.700
                  92766941.930 6  22343626.898                    22343629.105
                        39.700
 117265747.858 8  91375922.77445  22314930.148                    22314936.340
        48.600          34.600
 128409036.960 6 100059003.14644  24435427.172                    24435430.578
        41.800          25.000
 118181866.841 7  92089783.81644  22489261.156                    22489267.395
        44.700          29.600
 112698264.464 7  87816841.54045  21445767.102                    21445770.094
        45.600          30.400
 123522644.998 6  96251438.60043  23505577.625                    23505584.004
        40.400          19.300
 111096812.850 8  86568959.27745  21141020.867                    21141023.723
        52.000          35.800
 110585107.157 8  86170216.93845  21043644.875                    21043647.602
        48.600          30.400
 18  3 15 10 50 42.0000000  0 16G20R07R09G21R01R24R16R17R18G08G11G30
                                G28G10G15G13
 118911993.702 6  92658743.50844  22628208.109                    22628210.293
        41.700          26.000
                  87073704.316 6  20913564.766                    20913562.152
                        37.400
                  82545560.793 6  19874740.422                    19874742.043
                        38.900
 131334322.547 6 102338476.27942  24992097.625                    24992100.906
        36.200          17.800
                  92615245.317 5  22275769.328                    22275772.801
                        34.100
                  91074803.342 3  21897572.852                    21897575.316
                        22.700
                  83200352.917 6  20025363.328                    20025363.527
                        36.900
                  85305756.176 6  20496110.547                    20496113.078
                        39.100
                  92764093.831 6  22342941.227                    22342942.988
                        39.900
 117267099.867 8  91376976.28145  22315187.516                    22315193.742
        48.600          34.700
 128405953.536 6 100056600.48343  24434841.406                    24434844.176
        41.800          23.000
 118185208.189 7  92092387.46344  22489897.031                    22489903.027
        45.100          29.900
 112697692.776 7  87816396.07345  21445658.711                    21445661.520
        45.900          30.600
 123520077.023 6  96249437.56943  23505089.047                    23505095.426
        39.800          20.100
 111096874.754 8  86569007.51745  21141032.602                    21141035.535
        52.000          35.500
 110586913.585 8  86171624.55245  21043988.422                    21043991.594
        48.600          31.100
 18  3 15 10 50 43.0000000  0 16G20R07R09G21R01R24R16R17R18G08G11G30
                                G28G10G15G13
 118914967.386 7  92661060.66444  22628774.469                    22628775.961
        42.400          25.000
                  87076535.104 6  20914244.820                    20914241.863
                        38.100
                  82544066.842 6  19874383.672                    19874382.574
                        38.800
 131337436.046 5 102340902.40342  24992689.945                    24992693.125
        35.700          17.800
                  92612414.452 5  22275088.242                    22275091.992
                        34.200
                  91077675.386 4  21898263.688                    21898265.039
                        24.900
                  83202537.988 6  20025889.227                    20025890.387
                        36.900
                  85305567.743 6  20496065.023                    20496067.887
                        39.100
                  92761246.148 6  22342255.914                    22342257.258
                        40.100
 117268452.588 8  91378030.34145  22315444.680                    22315450.969
        48.200          34.700
 128402870.452 6 100054198.08244  24434254.398                    24434257.676
        41.700          25.400
 118188549.938 7  92094991.41944  22490533.664                    22490538.992
        45.600          29.600
 112697121.687 7  87815951.07744  21445550.133                    21445552.750
        46.000          29.900
 123517509.508 6  96247436.91243  23504600.086                    23504606.387
        40.100          20.100
 111096937.380 8  86569056.31645  21141044.016                    21141047.590
        52.100          35.800
 110588720.713 8  86173032.71045  21044332.352                    21044335.453
        48.200          30.400
 18  3 15 10 50 44.0000000  0 16G20R07R09G21R01R24R16R17R18G08G11G30
                                G28G10G15G13
 118917941.589 7  92663378.24544  22629338.867                    22629342.648
        42.100          26.900
                  87079366.384 6  20914922.695                    20914922.828
                        38.100
                  82542573.405 6  19874021.516                    19874023.078
                        38.700
 131340549.827 5 102343328.74142  24993283.016                    24993285.473
        35.900          16.900
                  92609583.927 5  22274407.828                    22274411.125
                        34.300
                  91080547.854 4  21898954.820                    21898955.449
                        25.600
                  83204723.609 6  20026415.086                    20026416.254
                        36.800
                  85305380.063 6  20496020.078                    20496022.828
                        39.100
                  92758398.825 6  22341570.039                    22341572.355
                        40.200
 117269806.003 8  91379084.94445  22315702.414                    22315709.004
        48.500          34.900
 128399787.703 6 100051795.95144  24433667.563                    24433670.863
        41.700          25.000
 118191892.062 7  92097595.67244  22491169.570                    22491175.098
        45.800          29.600
 112696551.208 7  87815506.54444  21445441.820                    21445444.082
        46.400          29.200
 123514942.446 6  96245436.59943  23504111.703                    23504117.887
        40.500          21.100
 111097000.707 8  86569105.65945  21141055.953                    21141059.566
        51.500          35.800
 110590528.452 8  86174441.34545  21044675.789                    21044679.215
        48.000          30.400
 18  3 15 10 50 45.0000000  0 16G20R07R09G21R01R24R16R17R18G08G11G30
                                G28G10G15G13
 118920916.323 6  92665696.23644  22629904.023                    22629908.617
        40.100          25.400
                  87082198.208 6  20915600.219                    20915602.656
                        38.700
                  82541080.600 6  19873664.031                    19873663.328
                        38.800
 131343663.902 6 102345755.29742  24993876.031                    24993877.691
        37.800          16.900
                  92606753.749 5  22273726.977                    22273730.254
                        33.900
                  91083420.835 4  21899646.633                    21899646.762
                        25.000
                  83206909.788 6  20026941.930                    20026942.641
                        37.000
                  85305193.151 6  20495975.500                    20495977.547
                        39.400
                  92755551.878 6  22340883.164                    22340885.922
                        39.800
 117271160.149 8  91380140.12845  22315959.852                    22315966.293
        48.700          35.700
 128396705.334 6 100049394.11143  24433080.883                    24433084.699
        41.900          22.900
 118195234.642 7  92100200.28144  22491804.641                    22491811.371
        45.200          29.800
 112695981.332 7  87815062.47944  21445333.219                    21445335.273
        46.800          29.800
 123512375.809 6  96243436.62643  23503623.789                    23503629.695
        40.900          21.100
 111097064.815 8  86569155.61945  21141068.766                    21141071.781
        51.800          35.800
 110592336.922 8  86175850.53844  21045020.086                    21045023.391
        48.000          29.900
 18  3 15 10 50 46.0000000  0 16G20R07R09G21R01R24R16R17R18G08G11G30
                                G28G10G15G13
 118923891.602 6  92668014.64244  22630469.953                    22630474.645
        40.200          25.300
                  87085030.568 6  20916279.094                    20916283.891
                        38.100
                  82539588.355 6  19873304.266                    19873303.957
                        38.600
 131346778.239 6 102348182.04842  24994469.313                    24994470.246
        38.700          16.900
                  92603923.897 5  22273046.102                    22273050.328
                        33.200
                  91086294.293 4  21900336.516                    21900337.398
                        26.300
                  83209096.528 6  20027466.633                    20027468.684
                        37.200
                  85305007.021 6  20495930.961                    20495932.629
                        39.300
                  92752705.320 6  22340197.625                    22340200.000
                        39.500
 117272514.985 8  91381195.84745  22316217.539                    22316223.957
        48.800          35.500
 128393623.261 6 100046992.50043  24432494.133                    24432497.613
        41.300          22.200
 118198577.606 7  92102805.18545  22492441.516                    22492447.160
        45.200          30.000
 112695412.060 7  87814618.89145  21445224.633                    21445227.195
        46.400          30.100
 123509809.660 6  96241437.03043  23503135.070                    23503141.254
        41.200          21.300
 111097129.596 8  86569206.09545  21141081.023                    21141083.996
        52.000          35.900
 110594146.040 8  86177260.22345  21045365.211                    21045368.137
        48.600          30.000
 18  3 15 10 50 47.0000000  0 16G20R07R09G21R01R24R16R17R18G08G11G30
                                G28G10G15G13
 118926867.401 6  92670333.43044  22631037.391                    22631040.473
        41.800          25.900
                  87087863.502 6  20916960.477                    20916964.359
                        38.100
                  82538096.704 6  19872943.430                    19872944.699
                        38.500
 131349892.912 6 102350609.06842  24995061.633                    24995063.770
        38.400          17.800
                  92601094.433 5  22272364.852                    22272369.426
                        33.600
                  91089168.331 4  21901027.781                    21901028.863
                        25.300
                  83211283.825 6  20027994.672                    20027995.121
                        37.000
                  85304821.704 6  20495885.859                    20495888.582
                        39.000
                  92749859.159 6  22339512.594                    22339514.371
                        40.000
 117273870.516 8  91382252.11045  22316475.430                    22316481.906
        48.900          35.900
 128390541.598 6 100044591.20643  24431907.813                    24431911.750
        41.300          22.800
 118201921.030 7  92105410.45045  22493077.750                    22493083.664
        45.100          30.000
 112694843.435 7  87814175.80344  21445116.367                    21445119.145
        45.800          29.500
 123507243.942 6  96239437.74843  23502646.344                    23502652.832
        41.100          21.300
 111097195.158 8  86569257.18246  21141093.297                    21141096.516
        52.100          36.000
 110595955.865 8  86178670.46745  21045709.609                    21045712.324
        49.200          30.000
 18  3 15 10 50 48.0000000  0 16G20R07R09G21R01R24R16R17R18G08G11G30
                                G28G10G15G13
 118929843.658 7  92672652.57544  22631604.664                    22631607.219
        42.100          25.300
                  87090696.764 6  20917645.680                    20917644.961
                        37.400
                  82536605.665 6  19872586.039                    19872585.773
                        38.600
 131353007.851 6 102353036.33043  24995653.414                    24995656.156
        37.700          18.300
                  92598265.276 5  22271685.094                    22271688.762
                        32.900
                  91092042.846 4  21901718.742                    21901719.582
                        27.900
                  83213471.676 6  20028519.773                    20028521.641
                        36.900
                  85304637.102 6  20495841.359                    20495844.262
                        38.800
                  92747013.333 6  22338827.773                    22338829.387
                        40.100
 117275226.741 8  91383308.91245  22316733.758                    22316740.359
        48.500          35.500
 128387460.235 6 100042190.12743  24431321.828                    24431325.023
        41.300          23.300
 118205264.824 7  92108015.99944  22493713.656                    22493719.816
        45.200          28.800
 112694275.377 7  87813733.16845  21445008.211                    21445011.078
        45.700          30.800
 123504678.688 6  96237438.83843  23502158.750                    23502164.145
        40.900          21.800
 111097261.421 8  86569308.81846  21141105.680                    21141109.129
        51.400          36.200
 110597766.323 8  86180081.21745  21046054.281                    21046056.828
        49.100          31.000
 18  3 15 10 50 49.0000000  0 16G20R07R09G21R01R24R16R17R18G08G11G30
                                G28G10G15G13
 118932820.420 6  92674972.13144  22632170.031                    22632173.664
        41.400          26.200
                  87093530.479 6  20918326.063                    20918325.680
                        37.300
                  82535115.224 6  19872227.617                    19872226.910
                        38.800
 131356123.103 6 102355463.80543  24996245.758                    24996248.996
        38.400          18.600
                  92595436.468 5  22271004.422                    22271008.316
                        33.900
                  91094917.905 4  21902409.648                    21902411.086
                        26.200
                  83215660.099 6  20029047.141                    20029048.699
                        36.900
                  85304453.259 6  20495797.242                    20495799.238
                        39.000
                  92744167.857 6  22338140.945                    22338144.723
                        40.400
 117276583.657 8  91384366.24545  22316991.930                    22316998.250
        48.300          35.100
 128384379.215 6 100039789.33843  24430735.250                    24430738.945
        41.000          22.600
 118208609.069 7  92110621.90544  22494349.734                    22494356.289
        44.800          29.300
 112693707.899 7  87813290.98744  21444900.117                    21444903.250
        45.900          29.700
 123502113.850 6  96235440.26743  23501670.594                    23501676.551
        41.100          21.500
 111097328.392 8  86569361.00146  21141118.141                    21141121.813
        51.700          36.100
 110599577.461 8  86181492.49745  21046398.547                    21046401.957
        49.100          30.500
 18  3 15 10 50 50.0000000  0 16G20R07R09G21R01R24R16R17R18G08G11G30
                                G28G10G15G13
 118935797.754 6  92677292.13944  22632736.227                    22632740.660
        40.400          24.300
                  87096364.718 6  20919005.914                    20919006.254
                        38.000
                  82533625.319 6  19871868.414                    19871868.586
                        39.000
 131359238.568 6 102357891.47643  24996838.945                    24996841.703
        37.700          18.300
                  92592607.990 5  22270324.461                    22270327.434
                        33.100
                  91097793.495 4  21903100.188                    21903102.383
                        26.100
                  83217849.088 6  20029573.797                    20029575.734
                        37.200
                  85304270.184 6  20495754.023                    20495755.293
                        39.000
                  92741322.782 6  22337456.031                    22337458.891
                        39.800
 117277941.244 8  91385424.10145  22317250.352                    22317256.609
        48.200          34.800
 128381298.579 6 100037388.84343  24430148.961                    24430152.574
        40.400          23.500
 118211953.707 7  92113228.10944  22494986.758                    22494992.461
        45.200          29.700
 112693141.070 7  87812849.30045  21444792.789                    21444795.227
        46.300          30.200
 123499549.474 6  96233442.06843  23501182.781                    23501188.859
        41.300          21.800
 111097396.106 8  86569413.77145  21141131.250                    21141134.621
        51.600          35.800
 110601389.253 8  86182904.29745  21046742.852                    21046746.293
        48.900          30.400
 18  3 15 10 50 51.0000000  0 16G20R07R09G21R01R24R16R17R18G08G11G30
                                G28G10G15G13
 118938775.561 6  92679612.49944  22633303.859                    22633306.527
        41.800          25.800
                  87099199.514 6  20919683.969                    20919686.945
                        37.800
                  82532135.972 6  19871507.930                    19871509.770
                        38.900
 131362354.331 5 102360319.37142  24997430.969                    24997434.555
        35.900          17.400
                  92589779.839 5  22269643.914                    22269647.816
                        34.000
                  91100669.545 4  21903792.375                    21903794.148
                        26.600
                  83220038.621 6  20030101.547                    20030102.160
                        37.200
                  85304087.876 6  20495710.117                    20495711.926
                        39.400
                  92738478.084 6  22336771.453                    22336773.234
                        39.600
 117279299.546 8  91386482.50445  22317508.961                    22317515.293
        48.600          35.100
 128378218.260 6 100034988.59543  24429563.461                    24429566.379
        40.400          23.300
 118215298.706 7  92115834.60044  22495623.570                    22495629.297
        44.800          29.300
 112692574.794 7  87812408.05145  21444685.055                    21444687.250
        46.300          30.300
 123496985.549 6  96231444.20943  23500694.563                    23500700.809
        41.600          22.200
 111097464.501 8  86569467.06346  21141144.570                    21141147.727
        51.700          36.300
 110603201.723 8  86184316.61245  21047087.875                    21047091.258
        48.100          30.400
 18  3 15 10 50 52.0000000  0 16G20R07R09G21R01R24R16R17R18G08G11G30
                                G28G10G15G13
 118941753.824 7  92681933.20444  22633871.516                    22633873.777
        43.200          26.000
                  87102034.833 6  20920363.961                    20920367.539
                        37.900
                  82530647.235 6  19871151.742                    19871151.336
                        38.900
 131365470.404 6 102362747.47343  24998024.563                    24998027.211
        37.100          18.300
                  92586952.016 5  22268964.633                    22268967.324
                        34.700
                  91103546.077 4  21904483.945                    21904485.887
                        26.200
                  83222228.699 6  20030628.219                    20030629.289
                        37.000
                  85303906.298 6  20495666.891                    20495668.320
                        39.100
                  92735633.742 6  22336087.305                    22336087.711
                        39.800
 117280658.535 8  91387541.44645  22317768.094                    22317773.895
        48.700          35.100
 128375138.247 6 100032588.58643  24428976.656                    24428980.227
        40.600          22.000
 118218644.092 7  92118441.39044  22496260.141                    22496266.109
        45.000          29.800
 112692009.121 7  87811967.25945  21444576.969                    21444579.480
        46.200          30.800
 123494422.052 6  96229446.67743  23500206.758                    23500213.113
        41.000          22.200
 111097533.616 8  86569520.92045  21141157.656                    21141160.906
        51.800          35.700
 110605014.842 7  86185729.43444  21047432.461                    21047436.141
        47.600          29.400
 18  3 15 10 50 53.0000000  0 16G20R07R09G21R01R24R16R17R18G08G11G30
                                G28G10G15G13
 118944732.577 7  92684254.31944  22634438.164                    22634440.453
        42.400          26.200
                  87104870.649 6  20921046.633                    20921048.582
                        38.300
                  82529159.088 6  19870793.367                    19870792.137
                        39.000
 131368586.649 6 102365175.68743  24998617.938                    24998620.555
        37.500          18.600
                  92584124.533 5  22268284.477                    22268287.680
                        34.500
                  91106423.121 4  21905175.891                    21905177.273
                        26.300
                  83224419.319 6  20031155.313                    20031156.680
                        36.800
                  85303725.466 6  20495623.969                    20495625.176
                        39.200
                  92732789.777 6  22335401.797                    22335402.918
                        40.600
 117282018.191 8  91388600.91945  22318026.930                    22318032.742
        48.800          35.000
 128372058.603 6 100030188.86643  24428390.758                    24428394.074
        40.700          22.500
 118221989.915 7  92121048.53344  22496896.445                    22496902.871
        44.600          29.900
 112691444.035 7  87811526.93445  21444468.875                    21444472.238
        46.100          30.400
 123491858.973 6  96227449.47043  23499719.242                    23499725.168
        41.700          22.000
 111097603.448 8  86569575.33746  21141170.820                    21141174.047
        51.600          36.400
 110606828.639 8  86187142.77744  21047777.898                    21047781.344
        48.000          29.700
 18  3 15 10 50 54.0000000  0 16G20R07R09G21R01R24R16R17R18G08G11G30
                                G28G10G15G13
 118947711.819 6  92686575.83744  22635003.961                    22635007.285
        41.500          25.200
                  87107706.832 6  20921729.984                    20921731.332
                        38.200
                  82527671.477 6  19870435.250                    19870434.672
                        38.900
 131371703.199 6 102367604.13943  24999210.148                    24999213.883
        36.200          18.600
                  92581297.356 5  22267604.969                    22267607.555
                        34.000
                  91109300.634 3  21905867.867                    21905869.453
                        23.000
                  83226610.446 6  20031683.617                    20031684.355
                        36.700
                  85303545.378 6  20495580.203                    20495581.773
                        39.600
                  92729946.149 6  22334716.273                    22334719.168
                        40.000
 117283378.515 8  91389660.90145  22318285.773                    22318291.492
        49.100          35.300
 128368979.264 6 100027789.38343  24427804.250                    24427808.301
        40.000          22.800
 118225336.104 7  92123655.95944  22497533.094                    22497539.535
        45.300          29.900
 112690879.517 7  87811087.05644  21444361.891                    21444364.984
        46.300          29.900
 123489296.336 6  96225452.61543  23499231.211                    23499237.680
        41.100          22.600
 111097673.973 8  86569630.29046  21141184.422                    21141187.492
        51.600          36.400
 110608643.061 8  86188556.59844  21048124.188                    21048126.633
        48.100          29.100
 18  3 15 10 50 55.0000000  0 16G20R07R09G21R01R24R16R17R18G08G11G30
                                G28G10G15G13
 118950691.533 6  92688897.70544  22635570.539                    22635574.352
        41.600          26.000
                  87110543.499 6  20922410.773                    20922412.270
                        38.100
                  82526184.410 6  19870077.266                    19870076.824
                        38.900
 131374820.018 6 102370032.80742  24999803.570                    24999806.945
        37.200          17.800
                  92578470.492 5  22266924.820                    22266927.859
                        35.100
                  91112178.640 4  21906560.094                    21906560.926
                        26.400
                  83228802.118 6  20032211.016                    20032211.637
                        36.400
                  85303366.021 6  20495537.078                    20495538.355
                        39.300
                  92727102.850 6  22334031.969                    22334034.238
                        39.500
 117284739.484 8  91390721.39845  22318544.703                    22318550.672
        49.800          35.200
 128365900.205 6 100025390.12343  24427218.844                    24427222.590
        39.700          22.500
 118228682.647 7  92126263.64444  22498170.859                    22498176.395
        45.900          29.800
 112690315.558 7  87810647.61845  21444254.531                    21444257.305
        46.600          30.900
 123486734.106 6  96223456.07443  23498744.133                    23498750.117
        41.300          23.200
 111097745.160 8  86569685.75846  21141197.820                    21141201.117
        51.200          36.000
 110610458.094 8  86189970.90144  21048469.727                    21048472.063
        49.200          29.900
 18  3 15 10 50 56.0000000  0 16G20R07R09G21R01R24R16R17R18G08G11G30
                                G28G10G15G13
 118953671.776 6  92691219.96744  22636137.828                    22636141.520
        40.800          25.300
                  87113380.672 6  20923090.727                    20923093.535
                        37.700
                  82524697.885 6  19869717.703                    19869718.820
                        38.600
 131377937.106 6 102372461.67943  25000397.047                    25000400.027
        38.300          18.300
                  92575643.986 5  22266244.172                    22266248.309
                        34.800
                  91115057.165 3  21907252.391                    21907252.805
                        23.500
                  83230994.341 6  20032738.313                    20032739.344
                        36.500
                  85303187.431 6  20495494.336                    20495495.684
                        39.400
                  92724259.912 6  22333346.961                    22333349.164
                        39.100
 117286101.151 8  91391782.45145  22318803.617                    22318809.762
        49.800          34.900
 128362821.500 6 100022991.13243  24426632.133                    24426636.652
        39.600          21.700
 118232029.578 7  92128871.64445  22498807.195                    22498813.293
        45.800          30.200
 112689752.215 7  87810208.65645  21444147.844                    21444150.164
        47.000          30.500
 123484172.290 6  96221459.86143  23498256.508                    23498262.398
        41.600          21.800
 111097817.093 8  86569741.80645  21141212.016                    21141214.914
        51.100          35.600
 110612273.798 8  86191385.73444  21048815.422                    21048817.961
        49.500          29.700
