     2.11           OBSERVATION DATA    M (MIXED)           RINEX VERSION / TYPE
teqc  2018Mar15                         20180319 14:17:32UTCPGM / RUN BY / DATE
Linux 2.6.32-573.12.1.x86_64|x86_64|gcc -static|Linux 64|=+ COMMENT
END OF STATIC MODE OBSERVATION                              COMMENT
BIT 2 OF LLI FLAGS DATA COLLECTED UNDER A/S CONDITION       COMMENT
-Unknown-                                                   MARKER NAME
4625                                                        MARKER NUMBER
-Unknown-           -Unknown-                               OBSERVER / AGENCY
5127468778          TRIMBLE             4.63                REC # / TYPE / VERS
47477114                            NONE                    ANT # / TYPE
  6378137.0000        0.0000        0.0000                  APPROX POSITION XYZ
        0.0000        0.0000        0.0000                  ANTENNA: DELTA H/E/N
     1     1                                                WAVELENGTH FACT L1/2
     7    L1    L2    C1    P1    P2    S1    S2            # / TYPES OF OBSERV
    18                                                      LEAP SECONDS
 SNR is mapped to RINEX snr flag value [0-9]                COMMENT
  L1 & L2: min(max(int(snr_dBHz/6), 0), 9)                  COMMENT
  2018     3    11    13    43   13.0000000     GPS         TIME OF FIRST OBS
                                                            END OF HEADER
 18  3 11 13 43 13.0000000  0 19R05R06G10G14G22R14R15R13R24R22R23G32
                                G11G28G01G24G12G17G19
                  88407957.829 5  21263835.344                    21263835.918
                        31.500
                  85418140.668 6  20580844.313                    20580844.523
                        37.900
 123354876.528 7  96120726.84044  23473661.180                    23473667.516
        43.000          29.400
 127271731.932 7  99172847.92342  24219015.867                    24219021.727
        43.400          15.600
 127407203.465 7  99278350.86544  24244786.266                    24244787.102
        42.100          26.800
                  80288234.654 6  19365260.859                    19365262.973
                        41.200
                  83485494.249 5  20086935.703                    20086939.238
                        35.600
                  92191136.242 5  22197132.250                    22197133.988
                        33.800
                  94087315.582 4  22621888.867                    22621889.238
                        26.400
                  89308884.352 6  21510724.633                    21510727.527
                        40.800
                  83754234.095 6  20130393.266                    20130397.785
                        36.600
 118485127.102 7  92326091.86645  22546970.516                    22546976.344
        46.400          34.200
 122579005.329 6  95516116.08543  23326007.883                    23326011.902
        40.200          23.800
 127742413.679 6  99539552.85043  24308572.859                    24308576.102
        39.300          21.700
 117339389.040 7  91433314.09345  22328944.609                    22328951.121
        42.600          30.400
 109710292.777 8  85488558.94446  20877174.688                    20877180.254
        52.000          41.600
 118892672.987 7  92643657.13445  22624523.789                    22624526.195
        44.400          30.900
 114354548.442 8  89107455.10645  21760948.320                    21760951.305
        48.100          33.100
 114663821.639 7  89348434.65945  21819798.406                    21819800.918
        44.400          31.400
 18  3 11 13 43 14.0000000  0 19R05R06G10G14G22R14R15R13R24R22R23G32
                                G11G28G01G24G12G17G19
                  88410652.616 5  21264482.805                    21264484.273
                        31.900
                  85417235.355 6  20580625.227                    20580626.488
                        38.100
 123358114.038 7  96123249.57944  23474276.750                    23474283.941
        42.300          28.500
 127268860.367 7  99170610.48943  24218469.570                    24218475.512
        44.200          18.300
 127404979.936 7  99276618.24744  24244362.883                    24244364.008
        42.200          28.300
                  80289328.958 6  19365524.805                    19365527.355
                        41.200
                  83483758.704 6  20086518.078                    20086521.824
                        36.100
                  92194704.687 5  22197990.836                    22197993.824
                        34.600
                  94084186.140 4  22621135.938                    22621136.844
                        26.800
                  89311722.925 6  21511407.516                    21511410.703
                        40.700
                  83753409.712 6  20130195.508                    20130199.430
                        36.900
 118483417.373 7  92324759.61445  22546645.477                    22546651.184
        46.000          33.700
 122581946.267 6  95518407.71244  23326568.047                    23326571.254
        40.200          24.300
 127746156.781 6  99542469.52343  24309285.164                    24309288.531
        39.200          21.700
 117340552.794 7  91434220.91445  22329165.930                    22329172.363
        42.400          30.700
 109711364.772 8  85489394.26546  20877378.531                    20877384.816
        51.600          41.800
 118889517.429 7  92641198.25745  22623922.852                    22623926.281
        44.600          30.900
 114354346.425 8  89107297.65945  21760910.336                    21760912.574
        48.600          33.000
 114661960.809 7  89346984.66945  21819445.266                    21819446.652
        45.200          31.900
 18  3 11 13 43 15.0000000  0 19R05R06G10G14G22R14R15R13R24R22R23G32
                                G11G28G01G24G12G17G19
                  88413347.937 5  21265131.195                    21265132.457
                        32.300
                  85416330.743 6  20580408.344                    20580408.559
                        37.900
 123361351.943 7  96125772.63144  23474892.789                    23474899.719
        42.700          28.000
 127265989.075 7  99168373.16143  24217923.641                    24217929.551
        44.400          21.800
 127402756.795 7  99274885.93044  24243940.242                    24243941.141
        42.600          28.100
                  80290423.876 6  19365790.313                    19365791.586
                        41.000
                  83482023.681 6  20086100.883                    20086104.344
                        36.200
                  92198273.280 5  22198851.328                    22198853.367
                        33.700
                  94081056.926 4  22620383.664                    22620384.035
                        25.500
                  89314561.959 6  21512094.031                    21512094.520
                        41.100
                  83752586.052 6  20129997.398                    20130001.301
                        36.700
 118481708.235 7  92323427.82345  22546320.234                    22546326.016
        46.600          34.500
 122584887.814 6  95520699.80844  23327127.797                    23327131.305
        40.600          24.900
 127749900.019 6  99545386.32343  24309998.031                    24310001.023
        39.200          21.800
 117341717.245 7  91435128.27745  22329387.188                    22329394.254
        42.500          30.200
 109712437.430 8  85490230.09946  20877582.914                    20877588.551
        51.500          41.900
 118886362.190 7  92638739.62645  22623322.883                    22623325.934
        44.600          30.600
 114354145.063 8  89107140.73245  21760872.156                    21760874.750
        48.900          33.100
 114660100.634 7  89345535.19945  21819092.164                    21819092.887
        45.700          32.300
 18  3 11 13 43 16.0000000  0 19R05R06G10G14G22R14R15R13R24R22R23G32
                                G11G28G01G24G12G17G19
                  88416043.853 5  21265779.461                    21265780.891
                        32.300
                  85415426.861 6  20580189.875                    20580190.813
                        37.800
 123364590.359 7  96128296.07544  23475509.266                    23475515.773
        43.000          26.900
 127263118.131 7  99166136.07143  24217377.250                    24217383.094
        44.400          22.000
 127400534.165 7  99273154.02444  24243517.016                    24243518.004
        42.600          27.500
                  80291519.495 6  19366053.656                    19366055.668
                        41.100
                  83480289.231 6  20085683.375                    20085687.148
                        36.000
                  92201842.136 5  22199711.781                    22199712.891
                        33.400
                  94077928.037 4  22619631.766                    22619631.988
                        26.200
                  89317401.517 6  21512777.617                    21512778.203
                        40.800
                  83751763.136 6  20129800.141                    20129803.508
                        36.700
 118479999.714 7  92322096.51645  22545995.305                    22546000.738
        46.700          34.000
 122587829.910 6  95522992.32144  23327688.320                    23327691.004
        41.300          25.200
 127753643.475 6  99548303.30943  24310710.633                    24310713.309
        39.300          21.100
 117342882.480 7  91436036.25245  22329609.648                    22329615.957
        43.000          30.000
 109713510.811 8  85491066.49146  20877787.516                    20877792.320
        51.300          41.700
 118883207.417 7  92636281.34845  22622723.141                    22622725.734
        45.000          30.700
 114353944.392 8  89106984.32745  21760833.672                    21760836.387
        49.100          33.400
 114658241.181 7  89344086.26745  21818737.852                    21818738.977
        46.000          32.600
 18  3 11 13 43 17.0000000  0 19R05R06G10G14G22R14R15R13R24R22R23G32
                                G11G28G01G24G12G17G19
                  88418740.300 5  21266427.438                    21266429.344
                        33.100
                  85414523.643 6  20579972.977                    20579973.063
                        38.000
 123367829.223 7  96130819.87944  23476125.438                    23476132.035
        42.900          27.000
 127260247.464 7  99163899.16654  24216831.109                    24216837.016
        45.000          25.300
 127398311.926 7  99271422.41144  24243094.781                    24243095.016
        42.100          27.500
                  80292615.754 6  19366318.594                    19366320.742
                        40.900
                  83478555.312 5  20085266.273                    20085269.973
                        35.800
                  92205411.257 5  22200570.258                    22200570.992
                        31.800
                  94074799.382 4  22618878.383                    22618880.121
                        25.100
                  89320241.595 6  21513459.609                    21513462.594
                        40.800
                  83750940.922 6  20129602.008                    20129606.090
                        36.500
 118478291.762 7  92320765.64645  22545670.492                    22545675.879
        46.600          33.900
 122590772.582 6  95525285.29544  23328248.867                    23328251.531
        40.900          24.500
 127757387.087 6  99551220.40343  24311422.109                    24311425.789
        39.200          21.300
 117344048.414 7  91436944.77745  22329832.266                    22329837.914
        43.600          30.700
 109714584.854 8  85491903.39847  20877992.016                    20877996.957
        51.400          42.000
 118880052.964 7  92633823.32245  22622121.945                    22622124.641
        45.000          31.200
 114353744.346 8  89106828.41945  21760795.109                    21760798.250
        48.600          33.400
 114656382.353 7  89342637.81745  21818383.711                    21818385.668
        45.200          32.400
 18  3 11 13 43 18.0000000  0 19R05R06G10G14G22R14R15R13R24R22R23G32
                                G11G28G01G24G12G17G19
                  88421437.312 5  21267076.727                    21267078.398
                        32.400
                  85413621.161 6  20579755.469                    20579755.246
                        38.100
 123371068.592 7  96133344.07444  23476741.320                    23476748.094
        43.100          26.800
 127257377.129 7  99161662.51944  24216284.781                    24216290.301
        44.000          26.400
 127396090.127 7  99269691.14444  24242671.820                    24242672.730
        42.500          27.500
                  80293712.691 6  19366582.797                    19366584.840
                        41.100
                  83476821.941 6  20084849.398                    20084852.980
                        36.100
                  92208980.683 5  22201428.563                    22201430.047
                        32.400
                  94071671.032 4  22618125.992                    22618127.988
                        24.900
                  89323082.253 6  21514144.219                    21514146.219
                        40.900
                  83750119.480 6  20129404.375                    20129408.523
                        36.600
 118476584.425 7  92319435.24545  22545344.953                    22545351.301
        45.300          33.500
 122593715.840 6  95527578.75044  23328808.164                    23328811.406
        41.100          25.300
 127761130.917 6  99554137.68543  24312134.133                    24312138.426
        39.200          21.500
 117345215.158 7  91437853.95445  22330053.281                    22330060.250
        42.800          30.600
 109715659.643 8  85492740.89447  20878196.148                    20878201.922
        51.400          42.000
 118876898.923 7  92631365.62845  22621521.867                    22621525.145
        44.900          31.500
 114353545.017 8  89106673.07045  21760757.820                    21760760.641
        48.600          33.400
 114654524.197 7  89341189.88545  21818029.406                    21818031.813
        44.500          32.100
 18  3 11 13 43 19.0000000  0 19R05R06G10G14G22R14R15R13R24R22R23G32
                                G11G28G01G24G12G17G19
                  88424134.852 5  21267725.344                    21267727.000
                        32.500
                  85412719.402 6  20579537.422                    20579537.898
                        37.500
 123374308.378 7  96135868.59944  23477358.258                    23477364.363
        42.800          27.200
 127254507.100 7  99159426.10844  24215738.719                    24215743.895
        43.600          27.400
 127393868.763 7  99267960.21144  24242248.953                    24242249.793
        42.300          27.600
                  80294810.292 6  19366847.117                    19366849.504
                        41.000
                  83475089.117 6  20084432.555                    20084435.563
                        36.400
                  92212550.358 5  22202289.492                    22202289.219
                        34.000
                  94068542.993 4  22617374.039                    22617376.207
                        26.200
                  89325923.344 6  21514829.516                    21514830.660
                        41.100
                  83749298.733 6  20129207.047                    20129210.840
                        36.800
 118474877.656 7  92318105.29845  22545019.406                    22545026.172
        45.100          33.300
 122596659.660 6  95529872.64644  23329368.586                    23329371.613
        41.100          24.100
 127764874.938 6  99557055.11243  24312847.000                    24312850.508
        39.400          21.700
 117346382.636 6  91438763.69545  22330274.734                    22330282.523
        41.000          30.600
 109716735.117 8  85493578.92646  20878400.297                    20878406.523
        51.400          41.800
 118873745.257 7  92628908.22945  22620921.961                    22620925.320
        45.000          31.200
 114353346.327 8  89106518.22345  21760720.445                    21760722.941
        48.900          33.100
 114652666.688 7  89339742.48645  21817676.273                    21817678.203
        45.100          32.300
 18  3 11 13 43 20.0000000  0 19R05R06G10G14G22R14R15R13R24R22R23G32
                                G11G28G01G24G12G17G19
                  88426832.938 5  21268375.711                    21268375.539
                        32.500
                  85411818.322 6  20579319.313                    20579321.121
                        37.300
 123377548.623 7  96138393.46944  23477974.781                    23477981.063
        42.700          26.500
 127251637.376 7  99157189.95744  24215193.016                    24215198.309
        42.900          27.100
 127391647.812 7  99266229.59144  24241826.695                    24241827.496
        42.400          28.200
                  80295908.569 6  19367112.164                    19367114.270
                        41.100
                  83473356.799 6  20084016.141                    20084019.055
                        36.200
                  92216120.269 5  22203147.797                    22203149.488
                        35.300
                  94065415.217 4  22616622.469                    22616623.680
                        25.100
                  89328764.936 6  21515514.141                    21515515.285
                        41.100
                  83748478.702 6  20129010.234                    20129014.277
                        36.700
 118473171.444 7  92316775.79545  22544695.188                    22544701.387
        45.600          33.700
 122599604.085 6  95532167.01844  23329928.445                    23329931.566
        40.900          24.500
 127768619.173 6  99559972.69143  24313559.883                    24313563.047
        39.900          21.700
 117347550.887 6  91439674.01744  22330496.266                    22330504.133
        41.100          29.800
 109717811.276 8  85494417.49446  20878604.758                    20878611.145
        51.800          41.800
 118870591.938 7  92626451.09345  22620321.711                    22620324.688
        45.200          30.900
 114353148.301 8  89106363.88745  21760682.586                    21760684.902
        48.900          32.700
 114650809.820 7  89338295.58645  21817323.844                    21817324.645
        45.800          32.200
 18  3 11 13 43 21.0000000  0 19R05R06G10G14G22R14R15R13R24R22R23G32
                                G11G28G01G24G12G17G19
                  88429531.559 5  21269024.078                    21269025.297
                        32.400
                  85410917.928 6  20579102.656                    20579104.605
                        37.200
 123380789.315 7  96140918.70044  23478591.102                    23478597.422
        42.400          24.900
 127248767.979 7  99154954.07244  24214646.344                    24214652.391
        42.600          27.800
 127389427.280 7  99264499.30544  24241403.805                    24241405.168
        42.700          28.600
                  80297007.511 6  19367377.289                    19367379.512
                        41.100
                  83471625.046 6  20083599.211                    20083602.453
                        36.400
                  92219690.384 5  22204007.719                    22204009.609
                        35.300
                  94062287.722 3  22615871.164                    22615871.094
                        23.900
                  89331607.076 6  21516197.883                    21516200.023
                        41.600
                  83747659.399 6  20128813.430                    20128817.461
                        36.800
 118471465.868 7  92315446.77945  22544371.500                    22544376.617
        46.400          33.500
 122602549.077 6  95534461.82143  23330488.063                    23330492.285
        39.500          22.800
 127772363.552 6  99562890.37643  24314271.992                    24314275.230
        39.200          21.800
 117348719.863 7  91440584.89245  22330720.984                    22330726.586
        42.600          30.200
 109718888.144 8  85495256.60647  20878810.031                    20878815.703
        52.100          42.000
 118867438.995 7  92623994.24545  22619721.742                    22619724.965
        45.400          31.600
 114352950.945 8  89106210.07345  21760644.281                    21760647.531
        48.400          33.000
 114648953.675 7  89336849.24745  21816971.180                    21816971.930
        46.800          32.200
 18  3 11 13 43 22.0000000  0 19R05R06G10G14G22R14R15R13R24R22R23G32
                                G11G28G01G24G12G17G19
                  88432230.754 5  21269671.898                    21269674.289
                        32.300
                  85410018.248 6  20578887.078                    20578887.164
                        37.500
 123384030.477 7  96143444.29344  23479208.023                    23479214.258
        42.100          25.500
 127245898.849 6  99152718.40544  24214099.852                    24214106.250
        40.900          25.500
 127387207.210 7  99262769.38944  24240981.391                    24240982.387
        42.400          27.200
                  80298107.093 6  19367642.367                    19367644.574
                        41.000
                  83469893.809 6  20083182.484                    20083185.320
                        37.000
                  92223260.762 5  22204867.773                    22204869.961
                        33.800
                  94059160.502 4  22615118.852                    22615120.082
                        26.000
                  89334449.710 6  21516883.352                    21516884.137
                        41.200
                  83746840.799 6  20128616.883                    20128620.801
                        36.500
 118469760.847 7  92314118.19845  22544047.141                    22544052.496
        46.500          33.600
 122605494.645 6  95536757.07643  23331048.242                    23331052.547
        39.500          22.200
 127776108.114 6  99565808.21343  24314984.664                    24314987.949
        39.900          21.300
 117349889.562 7  91441496.33044  22330943.602                    22330949.500
        43.300          29.300
 109719965.727 8  85496096.27746  20879016.102                    20879020.793
        52.200          41.900
 118864286.419 7  92621537.69545  22619121.883                    22619124.980
        45.500          31.500
 114352754.240 8  89106056.77545  21760606.953                    21760609.977
        48.500          32.400
 114647098.186 7  89335403.40745  21816617.453                    21816618.461
        46.600          32.700
 18  3 11 13 43 23.0000000  0 19R05R06G10G14G22R14R15R13R24R22R23G32
                                G11G28G01G24G12G17G19
                  88434930.486 5  21270322.727                    21270323.914
                        32.300
                  85409119.283 6  20578670.047                    20578670.465
                        36.900
 123387272.122 7  96145970.25944  23479824.859                    23479830.465
        42.000          25.500
 127243030.065 6  99150483.01543  24213553.719                    24213560.734
        39.100          23.800
 127384987.567 7  99261039.81344  24240559.219                    24240560.219
        42.300          26.700
                  80299207.346 6  19367907.750                    19367910.176
                        41.300
                  83468163.144 6  20082765.789                    20082769.477
                        36.000
                  92226831.362 5  22205728.719                    22205729.227
                        32.500
                  94056033.553 4  22614367.375                    22614368.391
                        24.000
                  89337292.864 6  21517568.000                    21517569.402
                        41.000
                  83746022.979 6  20128419.664                    20128423.816
                        36.900
 118468056.473 7  92312790.11045  22543722.820                    22543727.875
        46.300          34.000
 122608440.819 6  95539052.79643  23331609.633                    23331613.320
        39.900          22.800
 127779852.907 6  99568726.23243  24315698.250                    24315700.770
        40.000          21.700
 117351060.044 7  91442408.40445  22331165.563                    22331172.230
        42.700          30.100
 109721044.018 8  85496936.49346  20879221.250                    20879226.250
        52.500          41.800
 118861134.258 7  92619081.46645  22618522.031                    22618525.172
        45.400          31.300
 114352558.242 8  89105904.03645  21760569.969                    21760573.020
        48.700          33.000
 114645243.380 7  89333958.10145  21816263.508                    21816265.699
        45.500          31.600
 18  3 11 13 43 24.0000000  0 19R05R06G10G14G22R14R15R13R24R22R23G32
                                G11G28G01G24G12G17G19
                  88437630.784 5  21270971.391                    21270973.473
                        32.000
                  85408221.057 6  20578452.969                    20578454.164
                        36.900
 123390514.240 7  96148496.58544  23480441.461                    23480447.969
        42.000          26.500
 127240161.537 6  99148247.83943  24213006.305                    24213015.043
        36.700          22.600
 127382768.354 7  99259310.57144  24240136.320                    24240137.535
        42.500          26.500
                  80300308.276 6  19368173.359                    19368175.438
                        41.300
                  83466433.017 6  20082350.266                    20082352.820
                        36.000
                  92230402.236 5  22206589.094                    22206588.094
                        30.900
                  94052906.856 4  22613615.414                    22613616.578
                        26.300
                  89340136.543 6  21518251.250                    21518254.828
                        41.300
                  83745205.876 6  20128223.758                    20128227.406
                        37.100
 118466352.689 7  92311462.48045  22543398.367                    22543403.840
        45.900          33.500
 122611387.583 6  95541348.96544  23332170.570                    23332173.660
        40.900          24.000
 127783597.883 6  99571644.39643  24316410.195                    24316413.398
        39.900          21.100
 117352231.305 7  91443321.08845  22331387.594                    22331395.090
        42.100          30.200
 109722122.993 8  85497777.25946  20879426.195                    20879431.430
        52.100          41.700
 118857982.475 7  92616625.53545  22617921.953                    22617925.629
        45.500          31.000
 114352362.905 8  89105751.80945  21760532.953                    21760535.996
        49.300          32.400
 114643389.201 7  89332513.28045  21815910.273                    21815912.871
        44.400          32.100
 18  3 11 13 43 25.0000000  0 19R05R06G10G14G22R14R15R13R24R22R23G32
                                G11G28G01G24G12G17G19
                  88440331.618 5  21271621.688                    21271622.969
                        32.500
                  85407323.530 6  20578238.047                    20578238.426
                        37.100
 123393756.799 6  96151023.25144  23481059.016                    23481064.656
        41.700          26.700
 127237293.288 5  99146012.90043  24212458.656                    24212468.945
        34.500          22.500
 127380549.594 7  99257581.67444  24239714.891                    24239715.457
        42.400          26.400
                  80301409.854 6  19368438.883                    19368441.238
                        41.100
                  83464703.432 6  20081933.672                    20081936.813
                        36.400
                  92233973.463 5  22207447.656                    22207447.043
                        32.600
                  94049780.494 4  22612862.672                    22612864.805
                        24.900
                  89342980.739 6  21518936.867                    21518939.547
                        41.300
                  83744389.510 6  20128027.617                    20128031.105
                        36.700
 118464649.503 7  92310135.31045  22543073.703                    22543079.809
        45.900          33.700
 122614334.900 6  95543645.58244  23332732.609                    23332734.844
        41.100          25.400
 127787343.053 6  99574562.69243  24317122.766                    24317125.750
        39.800          21.100
 117353403.335 7  91444234.35445  22331611.227                    22331618.188
        42.600          30.900
 109723202.662 8  85498618.55546  20879630.906                    20879637.387
        51.800          41.800
 118854831.068 7  92614169.88745  22617322.797                    22617325.730
        45.500          31.000
 114352168.247 8  89105600.11245  21760495.453                    21760499.008
        48.700          32.300
 114641535.688 7  89331068.99845  21815558.547                    21815559.938
        45.300          32.000
 18  3 11 13 43 26.0000000  0 19R05R06G10G14G22R14R15R13R24R22R23G32
                                G11G28G01G24G12G17G19
                  88443032.975 5  21272271.164                    21272272.406
                        32.200
                  85406426.696 6  20578021.805                    20578021.633
                        37.700
 123396999.812 6  96153550.28644  23481675.258                    23481681.668
        41.600          26.000
 127234425.366 5  99143778.23343  24211912.766                    24211922.598
        34.600          22.300
 127378331.230 7  99255853.06744  24239292.164                    24239293.098
        42.300          27.000
                  80302512.081 6  19368705.195                    19368706.453
                        41.300
                  83462974.377 6  20081518.094                    20081521.000
                        36.400
                  92237544.933 5  22208305.438                    22208307.266
                        33.800
                  94046654.387 4  22612112.023                    22612113.449
                        25.400
                  89345825.415 6  21519623.391                    21519624.453
                        41.100
                  83743573.865 6  20127831.672                    20127835.230
                        36.600
 118462946.875 7  92308808.57845  22542749.211                    22542755.859
        45.500          33.300
 122617282.785 6  95545942.63344  23333293.391                    23333295.969
        41.400          24.600
 127791088.360 6  99577481.11043  24317835.297                    24317838.703
        39.600          21.300
 117354576.074 7  91445148.17945  22331835.539                    22331841.566
        43.000          30.600
 109724282.979 8  85499460.35646  20879836.750                    20879842.941
        51.900          41.600
 118851680.013 7  92611714.51745  22616723.156                    22616726.328
        44.900          30.500
 114351974.237 8  89105448.93645  21760458.516                    21760462.180
        48.700          32.500
 114639682.844 7  89329625.23645  21815207.164                    21815206.930
        46.500          32.300
 18  3 11 13 43 27.0000000  0 19R05R06G10G14G22R14R15R13R24R22R23G32
                                G11G28G01G24G12G17G19
                  88445734.852 5  21272920.867                    21272921.867
                        32.900
                  85405530.519 6  20577805.258                    20577805.582
                        37.800
 123400243.212 6  96156077.60444  23482292.945                    23482298.871
        41.500          26.900
 127231557.681 6  99141543.75243  24211368.711                    24211377.027
        36.200          21.800
 127376113.271 7  99254124.77844  24238870.133                    24238871.246
        42.500          26.500
                  80303614.898 6  19368971.016                    19368972.883
                        41.000
                  83461245.828 6  20081101.109                    20081105.094
                        36.000
                  92241116.631 5  22209165.344                    22209167.328
                        35.300
                  94043528.530 3  22611359.969                    22611362.133
                        23.500
                  89348670.580 6  21520307.883                    21520309.633
                        40.700
                  83742758.923 6  20127635.430                    20127639.434
                        36.500
 118461244.771 7  92307482.27445  22542425.750                    22542431.797
        46.000          34.000
 122620231.221 6  95548240.12243  23333853.977                    23333857.281
        41.100          23.800
 127794833.861 6  99580399.67943  24318548.164                    24318551.016
        39.200          21.300
 117355749.486 7  91446062.52945  22332058.266                    22332064.949
        43.000          30.500
 109725363.967 8  85500302.68047  20880042.805                    20880047.984
        51.700          42.000
 118848529.294 7  92609259.40445  22616123.219                    22616126.438
        45.100          30.200
 114351780.852 8  89105298.23645  21760421.594                    21760424.902
        48.700          32.600
 114637830.647 7  89328181.96545  21814854.148                    21814855.020
        46.300          31.600
 18  3 11 13 43 28.0000000  0 19R05R06G10G14G22R14R15R13R24R22R23G32
                                G11G28G01G24G12G17G19
                  88448437.312 5  21273571.094                    21273571.816
                        31.500
                  85404635.107 6  20577589.469                    20577589.859
                        37.500
 123403487.155 6  96158605.34944  23482910.117                    23482916.441
        41.800          27.200
 127228690.451 6  99139309.60544  24210824.117                    24210831.395
        38.800          24.900
 127373895.794 7  99252396.86844  24238448.297                    24238449.684
        42.300          26.200
                  80304718.406 6  19369236.750                    19369238.797
                        40.800
                  83459517.868 5  20080685.703                    20080689.438
                        35.900
                  92244688.469 5  22210028.773                    22210028.574
                        35.300
                  94040402.987 4  22610609.984                    22610610.707
                        24.000
                  89351516.323 6  21520993.219                    21520995.398
                        40.700
                  83741944.754 6  20127439.703                    20127444.348
                        36.500
 118459543.364 7  92306156.51245  22542102.641                    22542108.371
        46.400          34.000
 122623180.234 6  95550538.05243  23334414.594                    23334418.469
        40.900          22.500
 127798579.551 6  99583318.39243  24319260.578                    24319264.090
        38.800          20.600
 117356923.744 6  91446977.54445  22332280.844                    22332288.160
        41.900          30.600
 109726445.677 8  85501145.56346  20880249.016                    20880254.172
        51.900          41.800
 118845378.988 7  92606804.61345  22615524.055                    22615527.309
        44.800          30.400
 114351588.176 8  89105148.09745  21760385.945                    21760388.516
        48.800          33.200
 114635979.127 7  89326739.20845  21814500.078                    21814502.492
        44.600          32.100
 18  3 11 13 43 29.0000000  0 19R05R06G10G14G22R14R15R13R24R22R23G32
                                G11G28G01G24G12G17G19
                  88451140.307 5  21274220.500                    21274222.875
                        32.700
                  85403740.412 6  20577373.156                    20577374.816
                        37.300
 123406731.539 6  96161133.43844  23483527.773                    23483533.559
        41.800          27.900
 127225823.507 6  99137075.66244  24210279.578                    24210285.629
        41.600          26.900
 127371678.729 7  99250669.27344  24238026.047                    24238027.422
        42.500          26.700
                  80305822.556 6  19369503.641                    19369505.359
                        41.100
                  83457790.438 5  20080270.594                    20080273.574
                        35.900
                  92248260.572 5  22210890.000                    22210889.453
                        33.400
                  94037277.779 3  22609858.195                    22609859.363
                        22.800
                  89354362.539 6  21521679.180                    21521680.230
                        40.600
                  83741131.301 6  20127244.023                    20127248.250
                        36.900
 118457842.532 7  92304831.19145  22541778.352                    22541784.473
        46.500          33.800
 122626129.898 6  95552836.48343  23334975.813                    23334979.734
        40.200          22.800
 127802325.432 6  99586237.25843  24319973.844                    24319976.570
        38.900          20.100
 117358098.766 6  91447893.15245  22332504.563                    22332511.680
        41.700          30.500
 109727528.110 8  85501989.01146  20880454.688                    20880460.141
        51.900          41.900
 118842229.065 7  92604350.13044  22614924.320                    22614927.887
        44.900          29.800
 114351396.215 8  89104998.50745  21760349.172                    21760352.035
        48.500          33.000
 114634128.243 7  89325296.96745  21814147.836                    21814150.188
        44.700          31.300
 18  3 11 13 43 30.0000000  0 19R05R06G10G14G22R14R15R13R24R22R23G32
                                G11G28G01G24G12G17G19
                  88453843.875 5  21274870.969                    21274872.961
                        32.800
                  85402846.425 6  20577158.203                    20577159.160
                        37.100
 123409976.358 7  96163661.86544  23484144.875                    23484151.074
        42.200          26.700
 127222956.882 7  99134841.92844  24209734.523                    24209740.539
        43.400          27.800
 127369462.101 7  99248942.02244  24237604.711                    24237605.262
        42.200          24.300
                  80306927.381 6  19369769.641                    19369771.551
                        40.800
                  83456063.564 6  20079854.500                    20079858.172
                        36.200
                  92251832.973 5  22211748.531                    22211749.801
                        31.600
                  94034152.803 4  22609106.555                    22609107.707
                        24.500
                  89357209.256 6  21522364.602                    21522366.168
                        40.400
                  83740318.571 6  20127049.141                    20127052.977
                        36.800
 118456142.283 7  92303506.31845  22541454.742                    22541461.152
        46.000          33.800
 122629080.111 6  95555135.34543  23335537.734                    23335541.059
        40.400          22.000
 127806071.529 6  99589156.31243  24320686.695                    24320689.531
        39.000          21.100
 117359274.507 7  91448809.30044  22332729.688                    22332735.418
        43.500          29.900
 109728611.280 8  85502833.03346  20880660.508                    20880666.414
        52.000          41.900
 118839079.531 7  92601895.95744  22614324.961                    22614328.621
        44.300          29.900
 114351204.896 8  89104849.41245  21760311.672                    21760315.492
        48.500          32.700
 114632278.065 7  89323855.29145  21813797.156                    21813797.832
        44.900          32.700
 18  3 11 13 43 31.0000000  0 19R05R06G10G14G22R14R15R13R24R22R23G32
                                G11G28G01G24G12G17G19
                  88456547.973 5  21275521.898                    21275523.371
                        33.200
                  85401953.160 6  20576943.930                    20576944.293
                        37.000
 123413221.663 7  96166190.67044  23484763.188                    23484768.938
        42.500          28.000
 127220090.560 7  99132608.42944  24209189.445                    24209194.875
        44.200          26.400
 127367245.893 6  99247215.11644  24237182.555                    24237183.828
        41.900          26.000
                  80308032.844 6  19370036.617                    19370038.547
                        41.000
                  83454337.244 6  20079439.266                    20079442.629
                        36.000
                  92255405.720 4  22212606.016                    22212609.258
                        29.500
                  94031028.094 4  22608354.781                    22608356.422
                        24.400
                  89360056.509 6  21523049.453                    21523052.020
                        40.400
                  83739506.564 6  20126854.172                    20126857.742
                        36.600
 118454442.623 7  92302181.90945  22541131.570                    22541137.496
        46.400          33.400
 122632030.898 6  95557434.64943  23336098.719                    23336102.113
        41.200          22.600
 127809817.783 6  99592075.47043  24321398.594                    24321402.500
        38.900          21.100
 117360450.935 7  91449725.98845  22332954.164                    22332959.172
        44.300          30.700
 109729695.114 8  85503677.58446  20880866.602                    20880872.711
        51.800          41.700
 118835930.351 7  92599442.05245  22613725.914                    22613729.086
        44.900          30.500
 114351014.232 8  89104700.84545  21760275.680                    21760278.805
        48.700          32.100
 114630428.530 7  89322414.10745  21813446.180                    21813446.500
        46.100          32.200
 18  3 11 13 43 32.0000000  0 19R05R06G10G14G22R14R15R13R24R22R23G32
                                G11G28G01G24G12G17G19
                  88459252.650 5  21276172.102                    21276173.855
                        32.500
                  85401060.589 6  20576728.297                    20576729.172
                        37.100
 123416467.425 7  96168719.83544  23485380.734                    23485386.469
        42.800          27.900
 127217224.582 7  99130375.19644  24208643.969                    24208649.402
        45.000          25.800
 127365030.136 6  99245488.56244  24236761.211                    24236762.000
        41.500          26.200
                  80309139.025 6  19370303.922                    19370305.316
                        41.300
                  83452611.474 6  20079024.406                    20079027.934
                        36.200
                  92258978.774 5  22213465.656                    22213468.016
                        32.000
                  94027903.673 3  22607603.664                    22607605.273
                        23.600
                  89362904.282 6  21523736.250                    21523737.754
                        40.400
                  83738695.323 6  20126658.289                    20126662.984
                        36.400
 118452743.571 7  92300857.97945  22540808.633                    22540814.188
        46.500          33.900
 122634982.255 7  95559734.41843  23336660.594                    23336663.703
        42.100          22.200
 127813564.269 6  99594994.79243  24322111.969                    24322115.367
        39.000          20.900
 117361628.187 7  91450643.34445  22333177.211                    22333183.633
        43.000          30.900
 109730779.679 8  85504522.69446  20881073.141                    20881078.910
        51.300          41.700
 118832781.567 7  92596988.44545  22613126.664                    22613129.828
        44.500          30.300
 114350824.289 8  89104552.83545  21760240.547                    21760243.281
        49.000          32.100
 114628579.717 7  89320973.45945  21813093.219                    21813094.672
        44.900          33.200
 18  3 11 13 43 33.0000000  0 19R05R06G10G14G22R14R15R13R24R22R23G32
                                G11G28G01G24G12G17G19
                  88461957.933 5  21276822.844                    21276825.066
                        33.100
                  85400168.776 6  20576513.344                    20576514.523
                        37.400
 123419713.716 7  96171249.42244  23485998.633                    23486004.297
        42.800          28.600
 127214358.965 7  99128142.26044  24208098.977                    24208104.332
        45.300          24.400
 127362814.883 6  99243762.38844  24236339.492                    24236340.594
        41.300          24.300
                  80310245.909 6  19370570.039                    19370572.328
                        40.900
                  83450886.309 6  20078609.211                    20078612.152
                        36.200
                  92262551.976 5  22214330.664                    22214328.406
                        33.700
                  94024779.595 3  22606852.203                    22606854.234
                        23.200
                  89365752.615 6  21524422.789                    21524423.863
                        40.100
                  83737884.881 6  20126463.227                    20126468.109
                        36.500
 118451045.213 7  92299534.58945  22540485.313                    22540491.023
        46.300          33.800
 122637934.312 7  95562034.73243  23337222.836                    23337225.512
        42.300          23.000
 127817311.014 6  99597914.32943  24322825.625                    24322828.367
        38.700          21.300
 117362806.293 6  91451561.37344  22333398.594                    22333408.070
        39.500          29.400
 109731865.002 8  85505368.39446  20881280.281                    20881285.367
        51.700          41.700
 118829633.251 7  92594535.20945  22612527.164                    22612530.703
        44.400          31.300
 114350635.063 8  89104405.38445  21760204.320                    21760206.871
        49.500          32.400
 114626731.602 7  89319533.35445  21812739.961                    21812742.867
        43.700          32.300
 18  3 11 13 43 34.0000000  0 19R05R06G10G14G22R14R15R13R24R22R23G32
                                G11G28G01G24G12G17G19
                  88464663.708 5  21277474.945                    21277475.211
                        32.500
                  85399277.680 6  20576299.508                    20576300.051
                        37.100
 123422960.424 7  96173779.33244  23486616.844                    23486621.969
        43.300          28.000
 127211493.671 7  99125909.58044  24207553.938                    24207559.355
        45.600          24.000
 127360600.053 6  99242036.54744  24235917.781                    24235918.852
        41.100          25.500
                  80311353.410 6  19370837.930                    19370839.473
                        41.100
                  83449161.672 6  20078194.320                    20078197.422
                        36.100
                  92266125.406 5  22215192.125                    22215190.406
                        34.200
                  94021655.834 3  22606101.398                    22606103.180
                        23.200
                  89368601.441 6  21525107.844                    21525110.387
                        40.500
                  83737075.138 6  20126269.258                    20126273.480
                        36.800
 118449347.402 7  92298211.62545  22540162.727                    22540167.676
        46.600          33.400
 122640886.919 7  95564335.47844  23337784.883                    23337787.293
        42.300          24.700
 127821057.913 6  99600833.96943  24323538.227                    24323541.574
        38.200          21.500
 117363985.185 6  91452479.98144  22333623.578                    22333631.512
        39.900          29.900
 109732950.989 8  85506214.61346  20881487.188                    20881491.914
        51.400          41.700
 118826485.299 7  92592082.25545  22611928.164                    22611931.797
        44.500          30.900
 114350446.484 8  89104258.43345  21760168.086                    21760171.211
        49.100          32.900
 114624884.102 7  89318093.75945  21812389.125                    21812391.047
        44.400          32.400
 18  3 11 13 43 35.0000000  0 19R05R06G10G14G22R14R15R13R24R22R23G32
                                G11G28G01G24G12G17G19
                  88467370.048 5  21278124.398                    21278126.484
                        32.300
                  85398387.231 6  20576083.984                    20576084.875
                        37.400
 123426207.609 7  96176309.61844  23487234.930                    23487239.883
        43.900          27.900
 127208628.629 7  99123677.11143  24207008.594                    24207014.090
        45.200          21.500
 127358385.625 6  99240311.00944  24235496.367                    24235497.168
        41.700          25.200
                  80312461.568 6  19371104.547                    19371106.352
                        41.000
                  83447437.549 6  20077779.133                    20077782.582
                        36.000
                  92269699.090 5  22216051.000                    22216051.000
                        33.800
                  94018532.315 3  22605350.398                    22605352.313
                        23.300
                  89371450.765 6  21525794.055                    21525796.727
                        40.400
                  83736266.104 6  20126074.836                    20126078.707
                        36.900
 118447650.184 7  92296889.11845  22539839.891                    22539844.895
        47.200          34.000
 122643840.061 7  95566636.62643  23338346.258                    23338349.309
        42.000          22.900
 127824804.993 6  99603753.77843  24324251.078                    24324254.402
        38.700          21.300
 117365164.723 7  91453399.06445  22333851.531                    22333855.918
        42.800          30.700
 109734037.632 8  85507061.34846  20881693.617                    20881698.992
        51.400          41.700
 118823337.671 7  92589629.55045  22611329.328                    22611332.828
        44.500          30.900
 114350258.538 8  89104111.97945  21760131.930                    21760135.406
        49.200          33.500
 114623037.306 7  89316654.72645  21812039.234                    21812039.398
        46.200          33.100
 18  3 11 13 43 36.0000000  0 19R05R06G10G14G22R14R15R13R24R22R23G32
                                G11G28G01G24G12G17G19
                  88470076.962 5  21278776.570                    21278777.109
                        30.800
                  85397497.551 6  20575868.906                    20575870.461
                        37.500
 123429455.264 7  96178840.26744  23487852.469                    23487857.879
        43.800          28.900
 127205763.935 7  99121444.93843  24206463.898                    24206469.609
        44.600          20.900
 127356171.709 7  99238585.87344  24235075.109                    24235076.051
        42.300          25.700
                  80313570.434 6  19371372.344                    19371374.422
                        41.000
                  83445714.015 5  20077364.695                    20077367.922
                        35.900
                  92273273.122 5  22216908.055                    22216912.508
                        32.800
                  94015409.104 3  22604598.969                    22604600.844
                        22.700
                  89374300.640 6  21526480.672                    21526482.520
                        40.900
                  83735457.844 6  20125880.430                    20125885.004
                        37.200
 118445953.596 7  92295567.09645  22539516.484                    22539522.262
        46.200          34.300
 122646793.835 6  95568938.26744  23338908.203                    23338911.738
        41.700          24.900
 127828552.316 6  99606673.78143  24324964.305                    24324967.551
        39.000          21.700
 117366345.025 7  91454318.76645  22334076.727                    22334080.574
        43.900          30.600
 109735125.026 8  85507908.66346  20881899.906                    20881905.832
        51.300          41.800
 118820190.486 7  92587177.20045  22610730.234                    22610733.496
        44.500          31.300
 114350071.308 8  89103966.08645  21760096.508                    21760099.949
        48.900          32.800
 114621191.240 7  89315216.24745  21811688.172                    21811688.355
        46.100          32.400
 18  3 11 13 43 37.0000000  0 19R05R06G10G14G22R14R15R13R24R22R23G32
                                G11G28G01G24G12G17G19
                  88472784.428 5  21279425.977                    21279428.395
                        32.200
                  85396608.607 6  20575656.672                    20575656.305
                        37.600
 123432703.421 7  96181371.30644  23488470.820                    23488475.855
        44.000          29.100
 127202899.587 7  99119213.07043  24205918.445                    24205924.891
        43.800          19.300
 127353958.205 7  99236861.06844  24234654.539                    24234655.008
        42.400          25.700
                  80314679.940 6  19371639.391                    19371641.711
                        40.900
                  83443991.024 6  20076949.781                    20076953.594
                        36.300
                  92276847.470 5  22217767.945                    22217771.656
                        31.600
                  94012286.190 3  22603848.789                    22603850.121
                        23.800
                  89377151.036 6  21527168.453                    21527169.461
                        40.800
                  83734650.321 6  20125686.133                    20125690.684
                        36.800
 118444257.599 7  92294245.52845  22539192.633                    22539199.539
        45.000          33.300
 122649748.194 6  95571240.35443  23339470.617                    23339473.777
        41.400          23.200
 127832299.830 6  99609593.90843  24325677.234                    24325680.895
        38.700          21.300
 117367526.086 7  91455239.09645  22334299.539                    22334305.867
        43.000          31.700
 109736213.115 8  85508756.52246  20882106.742                    20882113.051
        51.100          41.700
 118817043.683 7  92584725.14345  22610131.570                    22610134.922
        44.500          31.500
 114349884.757 8  89103820.72445  21760061.430                    21760064.395
        49.700          33.000
 114619345.803 7  89313778.23745  21811336.047                    21811337.391
        45.100          32.300
 18  3 11 13 43 38.0000000  0 19R05R06G10G14G22R14R15R13R24R22R23G32
                                G11G28G01G24G12G17G19
                  88475492.423 5  21280077.320                    21280079.551
                        32.400
                  85395720.327 6  20575441.102                    20575442.266
                        37.700
 123435951.973 7  96183902.65444  23489088.742                    23489094.273
        43.400          28.500
 127200035.528 7  99116981.47043  24205373.266                    24205381.520
        42.200          19.300
 127351745.109 7  99235136.58244  24234233.508                    24234233.727
        42.300          26.300
                  80315790.117 6  19371907.539                    19371909.340
                        41.000
                  83442268.555 6  20076535.984                    20076539.137
                        36.500
                  92280421.945 5  22218632.383                    22218631.406
                        32.400
                  94009163.528 4  22603098.508                    22603099.457
                        24.000
                  89380001.911 6  21527855.000                    21527856.590
                        40.900
                  83733843.521 6  20125492.625                    20125496.547
                        36.700
 118442562.178 7  92292924.42545  22538870.453                    22538876.563
        45.100          33.900
 122652703.130 6  95573542.87943  23340033.250                    23340035.961
        41.700          23.900
 127836047.507 6  99612514.15743  24326390.961                    24326393.918
        39.000          21.500
 117368707.926 6  91456160.04945  22334522.531                    22334530.742
        41.100          30.400
 109737301.881 8  85509604.91146  20882314.195                    20882319.875
        51.100          41.700
 118813897.259 7  92582273.38145  22609532.898                    22609536.285
        44.600          31.200
 114349698.839 8  89103675.85145  21760026.055                    21760029.195
        49.400          32.900
 114617501.027 7  89312340.74145  21810983.953                    21810986.293
        43.900          31.900
 18  3 11 13 43 39.0000000  0 19R05R06G10G14G22R14R15R13R24R22R23G32
                                G11G28G01G24G12G17G19
                  88478200.952 5  21280729.688                    21280731.102
                        31.900
                  85394832.770 6  20575227.672                    20575228.547
                        37.700
 123439201.021 7  96186434.38344  23489707.406                    23489712.598
        43.000          29.000
 127197171.779 7  99114750.07943  24204827.469                    24204837.285
        42.000          19.000
 127349532.463 7  99233412.44844  24233812.180                    24233812.750
        42.200          25.900
                  80316900.935 6  19372175.914                    19372177.406
                        41.000
                  83440546.631 6  20076121.672                    20076124.777
                        36.100
                  92283996.688 5  22219493.969                    22219492.230
                        32.700
                  94006041.142 3  22602347.727                    22602349.020
                        23.000
                  89382853.335 6  21528540.172                    21528542.961
                        40.600
                  83733037.422 6  20125297.938                    20125303.117
                        36.700
 118440867.351 7  92291603.78345  22538548.328                    22538554.426
        46.000          34.100
 122655658.625 6  95575845.84543  23340595.797                    23340598.289
        41.600          22.500
 127839795.350 6  99615434.55843  24327103.617                    24327106.816
        38.500          21.700
 117369890.565 6  91457081.59845  22334747.938                    22334755.379
        41.100          31.000
 109738391.369 8  85510453.85746  20882522.078                    20882527.156
        51.300          41.700
 118810751.197 7  92579821.90245  22608934.109                    22608937.961
        44.600          30.800
 114349513.590 8  89103531.49145  21759990.156                    21759993.512
        48.600          33.300
 114615656.899 7  89310903.77345  21810633.242                    21810635.621
        43.900          31.400
 18  3 11 13 43 40.0000000  0 19R05R06G10G14G22R14R15R13R24R22R23G32
                                G11G28G01G24G12G17G19
                  88480910.027 5  21281381.344                    21281382.668
                        31.900
                  85393945.935 6  20575013.500                    20575014.980
                        38.000
 123442450.520 7  96188966.46544  23490325.023                    23490331.191
        42.600          28.800
 127194308.287 6  99112518.83643  24204282.539                    24204292.594
        41.100          19.900
 127347320.263 6  99231688.64644  24233391.211                    24233391.672
        41.700          27.100
                  80318012.423 6  19372443.859                    19372445.492
                        41.000
                  83438825.249 6  20075707.102                    20075710.789
                        36.000
                  92287571.722 5  22220352.555                    22220353.094
                        33.900
                  94002919.120 4  22601595.203                    22601598.551
                        25.200
                  89385705.267 6  21529227.375                    21529229.945
                        40.900
                  83732232.075 6  20125105.695                    20125109.402
                        36.500
 118439173.114 7  92290283.60445  22538226.141                    22538231.777
        46.000          33.500
 122658614.705 6  95578149.28843  23341158.320                    23341161.070
        41.000          23.800
 127843543.409 6  99618355.13443  24327817.313                    24327820.379
        39.200          21.500
 117371073.874 7  91458003.64545  22334974.336                    22334980.609
        42.300          30.500
 109739481.536 8  85511303.33446  20882729.492                    20882734.770
        51.500          41.700
 118807605.508 7  92577370.71845  22608335.289                    22608339.461
        44.600          31.500
 114349329.005 8  89103387.64745  21759955.117                    21759958.770
        48.200          33.000
 114613813.465 7  89309467.35745  21810283.789                    21810284.469
        45.000          32.300
 18  3 11 13 43 41.0000000  0 19R05R06G10G14G22R14R15R13R24R22R23G32
                                G11G28G01G24G12G17G19
                  88483619.661 5  21282033.789                    21282034.789
                        32.100
                  85393059.792 6  20574800.148                    20574800.930
                        37.900
 123445700.473 7  96191498.90144  23490944.164                    23490949.730
        42.900          29.300
 127191445.136 6  99110287.85943  24203737.250                    24203747.770
        40.300          20.900
 127345108.504 6  99229965.19844  24232970.328                    24232971.082
        41.900          27.500
                  80319124.571 6  19372711.945                    19372713.656
                        41.100
                  83437104.412 6  20075293.406                    20075296.969
                        36.000
                  92291147.068 5  22221210.859                    22221214.113
                        34.600
                  93999797.349 4  22600845.805                    22600847.938
                        25.200
                  89388557.699 6  21529915.672                    21529916.461
                        41.100
                  83731427.421 6  20124911.680                    20124915.586
                        36.900
 118437479.474 7  92288963.88645  22537904.055                    22537909.656
        46.700          33.400
 122661571.374 6  95580453.19744  23341720.250                    23341723.648
        40.900          24.200
 127847291.636 6  99621275.83043  24328530.563                    24328533.531
        38.900          21.800
 117372257.969 7  91458926.31545  22335199.875                    22335205.863
        42.700          30.800
 109740572.403 8  85512153.35446  20882936.914                    20882942.219
        51.200          41.800
 118804460.201 7  92574919.83045  22607736.508                    22607740.523
        44.600          31.700
 114349145.077 8  89103244.33345  21759920.656                    21759923.344
        48.600          32.700
 114611970.680 7  89308031.42845  21809933.047                    21809933.820
        44.700          32.400
 18  3 11 13 43 42.0000000  0 19R05R06G10G14G22R14R15R13R24R22R23G32
                                G11G28G01G24G12G17G19
                  88486329.779 5  21282684.578                    21282686.523
                        32.300
                  85392174.351 6  20574586.055                    20574587.980
                        38.100
 123448950.820 7  96194031.63944  23491561.836                    23491567.840
        42.400          28.100
 127188582.259 6  99108057.08243  24203191.391                    24203203.172
        39.500          22.000
 127342897.102 6  99228242.03344  24232549.094                    24232549.867
        41.700          25.600
                  80320237.313 6  19372980.000                    19372981.734
                        41.300
                  83435384.090 6  20074879.648                    20074882.688
                        36.000
                  92294722.599 5  22222072.266                    22222075.527
                        34.500
                  93996675.816 4  22600094.328                    22600096.547
                        25.500
                  89391410.593 6  21530603.328                    21530604.012
                        41.200
                  83730623.476 6  20124718.789                    20124722.324
                        36.400
 118435786.399 7  92287644.60345  22537581.984                    22537587.223
        47.200          33.200
 122664528.567 6  95582757.50844  23342283.930                    23342286.457
        40.500          24.000
 127851040.002 6  99624196.61543  24329244.266                    24329246.797
        39.600          21.700
 117373442.739 6  91459849.51145  22335424.375                    22335431.457
        41.900          30.800
 109741663.903 8  85513003.86646  20883144.336                    20883149.961
        51.500          41.700
 118801315.213 7  92572469.19845  22607138.734                    22607142.383
        44.900          30.800
 114348961.803 8  89103101.51845  21759886.266                    21759888.660
        48.200          32.800
 114610128.534 7  89306595.99445  21809581.531                    21809583.406
        44.600          32.700
 18  3 11 13 43 43.0000000  0 19R05R06G10G14G22R14R15R13R24R22R23G32
                                G11G28G01G24G12G17G19
                  88489040.492 5  21283335.539                    21283338.445
                        32.200
                  85391289.654 6  20574373.680                    20574375.262
                        38.300
 123452201.641 7  96196564.74644  23492180.383                    23492186.715
        42.400          29.200
 127185719.674 6  99105826.52343  24202646.000                    24202658.156
        38.100          22.900
 127340686.150 6  99226519.21944  24232128.398                    24232129.141
        41.900          26.400
                  80321350.722 6  19373249.133                    19373250.574
                        41.000
                  83433664.340 6  20074465.633                    20074468.789
                        36.200
                  92298298.300 5  22222935.078                    22222937.035
                        33.600
                  93993554.572 4  22599345.125                    22599346.625
                        25.500
                  89394264.027 6  21531289.508                    21531291.871
                        41.100
                  83729820.297 6  20124525.977                    20124529.805
                        36.500
 118434093.930 7  92286325.78745  22537259.531                    22537265.559
        46.300          33.700
 122667486.339 6  95585062.26643  23342846.336                    23342848.801
        40.500          22.600
 127854788.570 6  99627117.58943  24329957.078                    24329960.313
        39.300          21.700
 117374628.337 6  91460773.33545  22335650.688                    22335656.910
        41.700          30.600
 109742756.119 8  85513854.94346  20883352.289                    20883358.230
        51.500          41.600
 118798170.637 7  92570018.87045  22606540.484                    22606543.555
        45.100          30.700
 114348779.192 8  89102959.22945  21759851.047                    21759854.008
        48.300          33.300
 114608287.029 7  89305161.06245  21809230.680                    21809232.598
        44.700          32.400
 18  3 11 13 43 44.0000000  0 19R05R06G10G14G22R14R15R13R24R22R23G32
                                G11G28G01G24G12G17G19
                  88491751.713 5  21283988.703                    21283990.379
                        32.600
                  85390405.599 6  20574161.055                    20574161.309
                        38.000
 123455452.891 7  96199098.18544  23492799.352                    23492805.441
        42.600          28.200
 127182857.341 6  99103596.17143  24202101.156                    24202113.113
        37.500          22.900
 127338475.609 6  99224796.72144  24231707.570                    24231708.551
        41.900          25.900
                  80322464.757 6  19373517.320                    19373519.000
                        41.100
                  83431945.074 6  20074052.117                    20074055.066
                        36.100
                  92301874.217 5  22223797.969                    22223797.715
                        32.800
                  93990433.568 4  22598594.563                    22598596.117
                        25.400
                  89397117.950 6  21531975.305                    21531978.531
                        41.100
                  83729017.803 6  20124332.445                    20124336.598
                        36.100
 118432401.978 7  92285007.37045  22536937.055                    22536943.363
        45.800          34.000
 122670444.672 6  95587367.48043  23343409.328                    23343412.059
        39.900          23.800
 127858537.307 6  99630038.66243  24330670.727                    24330673.613
        40.500          22.300
 117375814.592 7  91461697.67345  22335877.727                    22335882.563
        43.700          30.600
 109743848.990 8  85514706.53646  20883560.297                    20883565.953
        51.700          41.600
 118795026.378 7  92567568.78845  22605941.938                    22605945.609
        44.500          31.400
 114348597.193 8  89102817.42045  21759815.867                    21759819.551
        48.600          32.800
 114606446.129 7  89303726.60645  21808881.070                    21808882.246
        44.100          31.700
 18  3 11 13 43 45.0000000  0 19R05R06G10G14G22R14R15R13R24R22R23G32
                                G11G28G01G24G12G17G19
                  88494463.411 5  21284640.586                    21284643.051
                        32.900
                  85389522.190 6  20573948.008                    20573948.723
                        38.000
 123458704.520 7  96201631.92144  23493417.539                    23493424.570
        42.100          28.100
 127179995.295 6  99101366.04244  24201556.180                    24201568.332
        37.500          25.100
 127336265.408 6  99223074.49544  24231287.422                    24231288.598
        41.900          27.300
                  80323579.384 6  19373786.148                    19373788.379
                        41.200
                  83430226.317 5  20073638.445                    20073641.770
                        35.600
                  92305450.363 5  22224657.727                    22224658.379
                        32.900
                  93987312.799 4  22597844.414                    22597846.094
                        24.300
                  89399972.311 6  21532664.000                    21532666.023
                        41.200
                  83728216.019 6  20124140.430                    20124144.309
                        36.100
 118430710.575 7  92283689.39445  22536615.758                    22536621.039
        45.700          34.200
 122673403.498 6  95589673.06943  23343971.914                    23343974.773
        40.600          22.900
 127862286.100 6  99632959.81543  24331383.773                    24331387.039
        39.700          21.500
 117377001.506 7  91462622.54545  22336103.539                    22336108.996
        44.400          31.500
 109744942.487 8  85515558.60446  20883768.766                    20883774.027
        51.900          41.600
 118791882.420 7  92565118.95145  22605343.484                    22605346.859
        44.600          31.100
 114348415.790 8  89102676.06445  21759781.805                    21759785.090
        48.600          32.800
 114604605.859 7  89302292.64145  21808530.898                    21808532.250
        44.900          32.100
 18  3 11 13 43 46.0000000  0 19R05R06G10G14G22R14R15R13R24R22R23G32
                                G11G28G01G24G12G17G19
                  88497175.682 5  21285292.016                    21285294.898
                        33.200
                  85388639.506 6  20573734.570                    20573736.230
                        37.700
 123461956.618 6  96204166.01544  23494036.664                    23494043.695
        41.900          28.600
 127177133.558 6  99099136.16744  24201011.734                    24201023.176
        37.300          25.600
 127334055.667 7  99221352.63044  24230866.742                    24230867.945
        42.100          26.500
                  80324694.685 6  19374056.273                    19374057.645
                        41.300
                  83428508.132 6  20073225.031                    20073227.855
                        36.000
                  92309026.851 5  22225517.570                    22225518.695
                        33.000
                  93984192.295 4  22597093.016                    22597095.730
                        25.200
                  89402827.155 6  21533352.211                    21533353.574
                        41.000
                  83727414.956 6  20123947.625                    20123951.289
                        36.200
 118429019.776 7  92282371.89245  22536294.133                    22536299.910
        45.900          34.200
 122676362.916 6  95591979.11343  23344535.500                    23344537.895
        40.700          23.400
 127866035.148 6  99635881.15643  24332096.922                    24332100.238
        39.500          21.800
 117378189.199 7  91463548.05345  22336327.844                    22336335.242
        43.100          30.800
 109746036.700 8  85516411.24046  20883977.156                    20883982.648
        52.200          41.800
 118788738.869 7  92562669.43045  22604744.672                    22604748.699
        44.900          30.900
 114348235.072 8  89102535.26745  21759747.406                    21759750.391
        48.800          33.000
 114602766.293 7  89300859.22945  21808181.516                    21808182.180
        44.900          32.200
 18  3 11 13 43 47.0000000  0 19R05R06G10G14G22R14R15R13R24R22R23G32
                                G11G28G01G24G12G17G19
                  88499888.430 5  21285946.242                    21285947.219
                        33.600
                  85387757.491 6  20573522.969                    20573523.539
                        37.900
 123465209.138 6  96206700.43744  23494655.305                    23494662.414
        41.900          28.500
 127174272.100 6  99096906.51144  24200467.953                    24200478.648
        38.300          25.900
 127331846.295 7  99219631.05244  24230446.688                    24230447.457
        42.300          24.700
                  80325810.599 6  19374324.047                    19374326.219
                        41.200
                  83426790.446 5  20072812.398                    20072814.863
                        35.400
                  92312603.580 5  22226377.180                    22226379.719
                        33.700
                  93981072.086 4  22596343.438                    22596345.813
                        25.500
                  89405682.507 6  21534039.430                    21534041.477
                        41.100
                  83726614.615 6  20123754.391                    20123758.512
                        36.500
 118427329.559 7  92281054.83645  22535971.945                    22535978.078
        45.500          34.100
 122679322.886 6  95594285.56644  23345099.031                    23345101.707
        41.200          24.100
 127869784.326 6  99638802.57543  24332810.891                    24332813.902
        39.400          22.200
 117379377.641 6  91464474.13745  22336552.313                    22336561.156
        41.100          30.500
 109747131.583 8  85517264.38946  20884185.234                    20884190.621
        51.600          41.600
 118785595.649 7  92560220.16445  22604147.195                    22604150.566
        44.600          30.700
 114348054.979 8  89102394.93945  21759713.484                    21759716.254
        48.700          33.100
 114600927.342 7  89299426.27645  21807831.000                    21807832.652
        44.900          31.900
 18  3 11 13 43 48.0000000  0 19R05R06G10G14G22R14R15R13R24R22R23G32
                                G11G28G01G24G12G17G19
                  88502601.745 5  21286598.805                    21286599.676
                        33.100
                  85386876.200 6  20573310.008                    20573311.422
                        37.800
 123468462.146 6  96209235.23744  23495274.930                    23495281.777
        41.800          29.000
 127171410.979 6  99094677.11144  24199923.461                    24199933.477
        39.400          26.900
 127329637.400 6  99217909.83944  24230026.203                    24230027.105
        41.700          25.300
                  80326927.182 6  19374593.227                    19374595.543
                        41.200
                  83425073.333 6  20072398.867                    20072401.527
                        36.100
                  92316180.502 5  22227238.656                    22227241.578
                        33.200
                  93977952.168 4  22595593.617                    22595595.301
                        27.500
                  89408538.365 6  21534727.305                    21534729.469
                        41.200
                  83725815.013 6  20123562.703                    20123566.645
                        36.700
 118425639.922 7  92279738.23745  22535650.016                    22535656.605
        45.200          33.900
 122682283.410 6  95596592.47044  23345662.094                    23345664.914
        41.700          24.800
 127873533.741 6  99641724.19443  24333524.281                    24333526.867
        39.600          22.000
 117380566.854 6  91465400.79445  22336779.461                    22336786.914
        41.200          30.900
 109748227.166 8  85518118.09046  20884393.133                    20884399.355
        51.400          41.600
 118782452.858 7  92557771.23345  22603549.211                    22603552.598
        44.400          30.900
 114347875.596 8  89102255.16445  21759678.781                    21759682.090
        48.300          33.400
 114599089.061 7  89297993.84945  21807480.938                    21807482.535
        44.300          32.100
 18  3 11 13 43 49.0000000  0 19R05R06G10G14G22R14R15R13R24R22R23G32
                                G11G28G01G24G12G17G19
                  88505315.588 5  21287251.688                    21287253.113
                        32.600
                  85385995.563 6  20573098.648                    20573098.707
                        37.600
 123471715.566 7  96211770.37144  23495894.086                    23495900.891
        42.000          28.900
 127168550.144 6  99092447.93344  24199379.219                    24199389.344
        39.900          28.400
 127327428.928 7  99216188.95844  24229605.711                    24229606.715
        42.300          25.700
                  80328044.394 6  19374863.852                    19374864.949
                        41.200
                  83423356.751 6  20071985.063                    20071988.789
                        36.200
                  92319757.611 5  22228101.117                    22228103.281
                        34.000
                  93974832.535 4  22594843.195                    22594845.066
                        26.900
                  89411394.730 6  21535415.820                    21535417.316
                        41.400
                  83725016.104 6  20123370.906                    20123375.426
                        36.900
 118423950.861 7  92278422.10245  22535328.992                    22535335.191
        46.000          33.900
 122685244.504 6  95598899.80244  23346225.266                    23346228.250
        41.700          24.300
 127877283.281 6  99644645.91243  24334237.984                    24334241.023
        38.700          22.300
 117381756.758 7  91466327.96945  22337008.133                    22337014.094
        42.800          30.300
 109749323.420 8  85518972.31246  20884601.867                    20884607.305
        51.600          41.600
 118779310.393 7  92555322.56045  22602951.258                    22602954.699
        44.200          30.600
 114347696.808 8  89102115.84945  21759644.711                    21759647.945
        48.000          33.000
 114597251.393 7  89296561.90945  21807130.836                    21807132.973
        43.900          32.700
 18  3 11 13 43 50.0000000  0 19R05R06G10G14G22R14R15R13R24R22R23G32
                                G11G28G01G24G12G17G19
                  88508029.966 5  21287904.484                    21287905.129
                        32.500
                  85385115.681 6  20572887.367                    20572887.543
                        37.700
 123474969.438 7  96214305.84744  23496513.039                    23496520.090
        42.000          29.100
 127165689.608 6  99090218.97644  24198835.875                    24198844.438
        40.500          28.500
 127325220.875 7  99214468.39444  24229186.133                    24229186.586
        42.500          27.300
                  80329162.266 6  19375132.016                    19375134.512
                        40.900
                  83421640.690 6  20071572.430                    20071575.945
                        36.000
                  92323334.955 5  22228962.781                    22228964.410
                        33.300
                  93971713.151 4  22594093.156                    22594094.527
                        24.500
                  89414251.587 6  21536103.773                    21536105.164
                        41.500
                  83724217.916 6  20123179.164                    20123182.914
                        36.700
 118422262.414 7  92277106.43245  22535007.633                    22535013.543
        46.300          33.800
 122688206.180 6  95601207.60443  23346788.609                    23346792.340
        40.900          23.400
 127881033.009 6  99647567.77243  24334951.148                    24334954.492
        39.200          22.300
 117382947.399 7  91467255.73145  22337234.539                    22337240.113
        43.400          30.500
 109750420.352 8  85519827.05646  20884810.859                    20884816.258
        51.900          41.700
 118776168.300 7  92552874.17645  22602352.938                    22602356.824
        44.300          30.700
 114347518.704 8  89101977.07145  21759610.766                    21759614.168
        48.300          33.000
 114595414.431 7  89295130.52945  21806781.367                    21806783.043
        44.900          31.900
 18  3 11 13 43 51.0000000  0 19R05R06G10G14G22R14R15R13R24R22R23G32
                                G11G28G01G24G12G17G19
                  88510744.889 5  21288556.430                    21288558.707
                        32.900
                  85384236.467 6  20572674.641                    20572675.203
                        37.900
 123478223.739 7  96216841.65844  23497132.328                    23497139.398
        42.300          28.200
 127162829.410 6  99087990.26844  24198291.445                    24198299.836
        41.900          28.500
 127323013.217 7  99212748.13944  24228765.828                    24228766.668
        42.300          25.700
                  80330280.780 6  19375402.672                    19375404.785
                        41.100
                  83419925.172 5  20071159.930                    20071162.887
                        35.800
                  92326912.596 5  22229823.906                    22229826.641
                        33.600
                  93968594.058 4  22593343.086                    22593345.063
                        25.400
                  89417108.950 6  21536791.836                    21536792.965
                        41.300
                  83723420.438 6  20122987.211                    20122991.379
                        36.900
 118420574.516 7  92275791.18945  22534686.484                    22534692.496
        46.400          33.500
 122691168.437 6  95603515.85544  23347351.852                    23347355.930
        40.300          24.900
 127884782.914 6  99650489.76943  24335665.023                    24335668.148
        38.900          22.200
 117384138.771 7  91468184.07845  22337460.344                    22337467.051
        43.100          31.300
 109751517.984 8  85520682.34346  20885020.078                    20885025.250
        52.400          41.700
 118773026.572 7  92550426.07744  22601755.180                    22601758.930
        44.400          29.600
 114347341.251 8  89101838.80945  21759576.898                    21759580.426
        48.300          33.000
 114593578.117 7  89293699.64145  21806433.164                    21806434.078
        46.200          32.100
 18  3 11 13 43 52.0000000  0 19R05R06G10G14G22R14R15R13R24R22R23G32
                                G11G28G01G24G12G17G19
                  88513460.415 5  21289210.500                    21289211.723
                        32.800
                  85383358.044 6  20572463.250                    20572463.551
                        38.100
 123481478.576 7  96219377.88044  23497752.000                    23497758.469
        42.700          27.800
 127159969.549 7  99085761.82144  24197748.117                    24197755.215
        42.900          28.200
 127320806.071 7  99211028.28544  24228345.758                    24228346.289
        42.600          26.700
                  80331400.024 6  19375672.633                    19375674.359
                        41.100
                  83418210.251 5  20070747.875                    20070750.617
                        35.800
                  92330490.519 5  22230685.180                    22230688.223
                        33.300
                  93965475.276 4  22592592.875                    22592594.422
                        27.200
                  89419966.873 6  21537480.813                    21537482.141
                        41.000
                  83722623.749 6  20122795.820                    20122799.441
                        36.800
 118418887.309 7  92274476.48845  22534366.148                    22534371.488
        47.000          34.200
 122694131.308 6  95605824.59243  23347916.500                    23347919.801
        39.900          21.800
 127888533.080 6  99653411.96743  24336378.188                    24336381.609
        38.700          22.000
 117385330.978 7  91469113.08044  22337686.461                    22337693.875
        43.000          29.900
 109752616.376 8  85521538.22746  20885228.898                    20885234.285
        52.100          41.700
 118769885.305 7  92547978.33744  22601157.148                    22601161.402
        44.700          29.600
 114347164.524 8  89101701.10845  21759543.758                    21759546.754
        48.400          32.600
 114591742.529 7  89292269.30645  21806083.148                    21806084.879
        45.600          32.100
 18  3 11 13 43 53.0000000  0 19R05R06G10G14G22R14R15R13R24R22R23G32
                                G11G28G01G24G12G17G19
                  88516176.442 5  21289863.578                    21289864.938
                        33.100
                  85382480.314 6  20572252.805                    20572252.293
                        38.100
 123484733.845 7  96221914.45144  23498371.578                    23498378.012
        42.600          28.000
 127157110.018 7  99083533.62244  24197204.078                    24197210.609
        43.100          28.900
 127318599.341 7  99209308.75544  24227925.531                    24227926.586
        42.200          26.700
                  80332519.924 6  19375942.320                    19375945.301
                        41.000
                  83416495.858 6  20070334.609                    20070338.207
                        36.000
                  92334068.728 5  22231546.156                    22231548.938
                        32.400
                  93962356.784 4  22591842.914                    22591844.836
                        26.800
                  89422825.293 6  21538168.188                    21538170.563
                        40.800
                  83721827.789 6  20122604.203                    20122608.324
                        36.900
 118417200.694 7  92273162.24245  22534044.969                    22534050.496
        46.800          34.100
 122697094.737 6  95608133.76143  23348480.016                    23348483.453
        39.800          22.200
 127892283.402 6  99656334.30443  24337091.664                    24337095.762
        39.000          21.300
 117386523.931 7  91470042.65545  22337913.406                    22337920.766
        42.400          30.700
 109753715.461 8  85522394.65446  20885437.711                    20885443.773
        51.900          41.800
 118766744.376 7  92545530.85645  22600560.461                    22600563.656
        44.500          30.700
 114346988.455 8  89101563.91845  21759510.016                    21759512.977
        48.200          32.700
 114589907.554 7  89290839.44045  21805732.773                    21805735.355
        44.200          32.500
 18  3 11 13 43 54.0000000  0 19R05R06G10G14G22R14R15R13R24R22R23G32
                                G11G28G01G24G12G17G19
                  88518893.006 5  21290516.578                    21290518.484
                        32.900
                  85381603.254 6  20572041.555                    20572041.156
                        38.300
 123487989.520 7  96224451.33944  23498991.453                    23498997.617
        42.500          27.800
 127154250.734 7  99081305.61944  24196659.516                    24196666.133
        43.700          28.300
 127316393.013 6  99207589.54044  24227506.203                    24227506.559
        41.600          25.300
                  80333640.450 6  19376213.148                    19376214.656
                        41.200
                  83414781.965 5  20069922.492                    20069925.852
                        35.700
                  92337647.149 5  22232407.813                    22232409.609
                        33.100
                  93959238.553 4  22591093.406                    22591095.395
                        25.700
                  89425684.191 6  21538857.211                    21538858.871
                        40.800
                  83721032.516 6  20122413.734                    20122417.625
                        37.000
 118415514.592 7  92271848.38645  22533723.352                    22533729.820
        46.500          33.500
 122700058.737 6  95610443.37343  23349044.477                    23349047.719
        41.000          22.200
 127896033.874 6  99659256.73643  24337805.703                    24337808.734
        39.700          21.500
 117387717.580 7  91470972.77845  22338140.422                    22338148.215
        42.100          30.000
 109754815.187 8  85523251.57346  20885646.898                    20885652.520
        51.600          41.600
 118763603.778 7  92543083.62844  22599962.211                    22599966.000
        44.500          29.700
 114346812.991 8  89101427.19745  21759476.320                    21759479.613
        48.500          33.500
 114588073.200 7  89289410.08745  21805384.727                    21805386.641
        44.700          32.800
 18  3 11 13 43 55.0000000  0 19R05R06G10G14G22R14R15R13R24R22R23G32
                                G11G28G01G24G12G17G19
                  88521610.119 5  21291170.891                    21291172.535
                        33.300
                  85380726.925 6  20571829.750                    20571829.430
                        38.300
 123491245.664 7  96226988.59244  23499611.031                    23499616.809
        43.100          28.500
 127151391.797 7  99079077.89244  24196115.703                    24196122.063
        43.800          27.600
 127314187.110 6  99205870.64544  24227085.633                    24227086.613
        41.900          26.000
                  80334761.622 6  19376483.266                    19376485.660
                        41.200
                  83413068.624 5  20069510.102                    20069513.219
                        35.600
                  92341225.823 5  22233270.859                    22233271.328
                        33.800
                  93956120.563 4  22590343.719                    22590344.953
                        24.200
                  89428543.597 6  21539546.633                    21539547.129
                        41.100
                  83720238.009 6  20122222.406                    20122226.367
                        36.800
 118413829.103 7  92270535.01645  22533402.625                    22533409.047
        45.900          33.700
 122703023.252 6  95612753.37643  23349609.266                    23349611.289
        41.400          22.300
 127899784.530 6  99662179.32043  24338519.047                    24338522.535
        39.600          21.300
 117388911.999 6  91471903.49445  22338368.070                    22338375.051
        41.800          30.500
 109755915.605 8  85524109.04446  20885856.680                    20885862.125
        51.600          41.700
 118760463.568 7  92540636.70945  22599364.602                    22599368.355
        44.500          30.400
 114346638.211 8  89101291.01345  21759443.445                    21759446.281
        49.000          32.700
 114586239.585 7  89287981.31545  21805037.266                    21805037.293
        45.500          32.300
 18  3 11 13 43 56.0000000  0 19R05R06G10G14G22R14R15R13R24R22R23G32
                                G11G28G01G24G12G17G19
                  88524327.763 5  21291823.992                    21291825.656
                        33.200
                  85379851.295 6  20571617.531                    20571618.121
                        38.100
 123494502.240 7  96229526.19144  23500230.648                    23500236.543
        43.000          27.600
 127148533.162 7  99076850.39644  24195571.969                    24195578.465
        43.300          25.100
 127311981.627 6  99204152.07944  24226666.445                    24226667.098
        41.800          24.400
                  80335883.444 6  19376753.883                    19376756.027
                        41.500
                  83411355.812 6  20069097.914                    20069101.219
                        36.000
                  92344804.673 5  22234133.852                    22234134.426
                        34.700
                  93953002.896 4  22589593.531                    22589596.215
                        26.600
                  89431403.464 6  21540235.602                    21540237.199
                        41.100
                  83719444.211 6  20122031.000                    20122035.371
                        37.200
 118412144.182 7  92269222.09945  22533082.695                    22533088.496
        46.300          33.600
 122705988.381 7  95615063.85943  23350174.023                    23350175.469
        42.400          22.000
 127903535.354 6  99665102.04743  24339233.414                    24339236.199
        39.500          22.200
 117390107.139 7  91472834.77345  22338595.820                    22338602.465
        42.100          30.400
 109757016.695 8  85524967.02846  20886066.461                    20886071.563
        51.400          41.700
 118757323.753 7  92538190.09644  22598767.156                    22598770.957
        44.200          29.800
 114346464.079 8  89101155.32645  21759410.313                    21759413.199
        48.700          33.200
 114584406.604 7  89286553.01445  21804687.836                    21804688.551
        45.900          32.100
 18  3 11 13 43 57.0000000  0 19R05R06G10G14G22R14R15R13R24R22R23G32
                                G11G28G01G24G12G17G19
                  88527045.986 5  21292477.180                    21292479.680
                        32.200
                  85378976.366 6  20571407.141                    20571407.723
                        38.200
 123497759.286 7  96232064.14544  23500850.695                    23500855.703
        42.600          25.900
 127145674.813 7  99074623.11843  24195027.609                    24195034.242
        43.600          22.300
 127309776.624 6  99202433.90244  24226246.742                    24226247.492
        41.400          26.500
                  80337005.921 6  19377024.984                    19377026.898
                        41.200
                  83409643.550 6  20068686.445                    20068689.477
                        36.000
                  92348383.809 5  22234994.789                    22234996.746
                        34.600
                  93949885.519 4  22588843.594                    22588846.559
                        25.400
                  89434263.912 6  21540922.820                    21540925.734
                        41.500
                  83718651.157 6  20121841.016                    20121845.324
                        36.800
 118410459.874 7  92267909.65445  22532761.727                    22532768.449
        45.600          33.800
 122708954.054 7  95617374.77944  23350737.844                    23350740.266
        42.000          24.500
 127907286.390 6  99668024.93643  24339947.469                    24339950.469
        39.700          22.800
 117391303.054 7  91473766.64745  22338823.367                    22338830.008
        42.100          30.600
 109758118.492 8  85525825.57247  20886276.125                    20886281.426
        52.100          42.000
 118754184.302 7  92535743.76645  22598169.648                    22598173.289
        44.500          30.700
 114346290.611 8  89101020.15645  21759377.047                    21759380.348
        48.600          32.500
 114582574.266 7  89285125.21345  21804337.859                    21804339.977
        44.100          31.500
 18  3 11 13 43 58.0000000  0 19R05R06G10G14G22R14R15R13R24R22R23G32
                                G11G28G01G24G12G17G19
                  88529764.636 5  21293132.109                    21293133.617
                        32.300
                  85378102.093 6  20571195.664                    20571197.340
                        38.100
 123501016.697 7  96234602.39944  23501470.727                    23501475.734
        43.100          27.400
 127142816.714 7  99072396.01543  24194484.344                    24194490.469
        43.700          21.700
 127307571.889 6  99200715.92844  24225827.383                    24225827.836
        41.400          25.800
                  80338129.003 6  19377295.336                    19377297.738
                        41.100
                  83407931.749 6  20068274.453                    20068277.414
                        36.000
                  92351963.139 5  22235855.461                    22235858.500
                        34.400
                  93946768.354 4  22588095.859                    22588097.031
                        26.400
                  89437124.785 6  21541611.594                    21541614.121
                        41.600
                  83717858.767 6  20121650.344                    20121654.707
                        36.800
 118408776.074 7  92266597.60445  22532440.648                    22532447.340
        45.400          34.100
 122711920.232 6  95619686.10444  23351301.867                    23351304.785
        41.700          24.600
 127911037.534 6  99670947.90443  24340660.945                    24340663.648
        39.200          22.500
 117392499.609 7  91474699.02845  22339050.250                    22339057.773
        42.000          30.100
 109759220.952 8  85526684.63046  20886485.422                    20886491.375
        52.200          41.800
 118751045.165 7  92533297.69145  22597572.445                    22597576.535
        44.700          30.900
 114346117.740 8  89100885.45345  21759343.953                    21759346.910
        48.400          31.900
 114580742.514 7  89283697.87845  21803988.375                    21803991.250
        43.700          31.700
 18  3 11 13 43 59.0000000  0 19R05R06G10G14G22R14R15R13R24R22R23G32
                                G11G28G01G24G12G17G19
                  88532483.842 5  21293785.234                    21293787.266
                        32.900
                  85377228.506 6  20570985.758                    20570986.996
                        38.000
 123504274.600 7  96237141.04644  23502090.648                    23502095.289
        43.400          27.000
 127139958.931 7  99070169.13543  24193939.992                    24193946.270
        42.500          20.100
 127305367.653 6  99198998.34344  24225407.695                    24225408.230
        41.000          24.900
                  80339252.755 6  19377566.320                    19377568.598
                        41.000
                  83406220.509 6  20067862.445                    20067865.547
                        36.100
                  92355542.759 5  22236715.477                    22236720.090
                        33.500
                  93943651.488 4  22587346.586                    22587347.758
                        26.300
                  89439986.148 6  21542302.602                    21542303.563
                        41.400
                  83717067.121 6  20121460.273                    20121464.352
                        36.100
 118407092.862 7  92265286.02745  22532121.930                    22532126.941
        46.500          34.700
 122714887.021 6  95621997.89243  23351865.703                    23351869.715
        41.000          23.900
 127914788.799 6  99673870.97443  24341375.063                    24341377.949
        39.300          22.500
 117393696.953 7  91475632.01345  22339278.984                    22339285.449
        42.800          30.500
 109760324.068 8  85527544.20146  20886694.930                    20886701.344
        51.800          41.600
 118747906.405 7  92530851.91045  22596975.219                    22596978.797
        45.000          31.100
 114345945.516 8  89100751.25745  21759311.758                    21759314.555
        48.600          32.400
 114578911.425 7  89282271.06645  21803641.445                    21803643.031
        45.500          31.900
 18  3 11 13 44  0.0000000  0 19R05R06G10G14G22R14R15R13R24R22R23G32
                                G11G28G01G24G12G17G19
                  88535203.631 5  21294439.180                    21294441.387
                        33.100
                  85376355.663 6  20570775.602                    20570776.051
                        37.800
 123507532.916 7  96239680.00944  23502710.352                    23502715.332
        43.000          26.000
 127137101.463 6  99067942.48243  24193396.164                    24193401.766
        41.400          18.600
 127303163.874 6  99197281.11644  24224987.836                    24224989.191
        40.800          25.800
                  80340377.199 6  19377837.547                    19377840.070
                        41.200
                  83404509.819 6  20067451.297                    20067454.336
                        36.200
                  92359122.560 5  22237579.664                    22237580.859
                        32.500
                  93940534.881 4  22586596.602                    22586598.574
                        26.700
                  89442848.041 6  21542992.078                    21542993.195
                        41.400
                  83716276.214 6  20121270.367                    20121274.539
                        36.600
 118405410.309 7  92263974.94745  22531802.469                    22531807.164
        46.800          34.100
 122717854.390 6  95624310.13043  23352429.680                    23352434.398
        40.200          22.600
 127918540.328 6  99676794.23243  24342088.672                    24342091.617
        39.700          22.800
 117394895.010 7  91476565.55445  22339508.031                    22339513.484
        44.100          30.400
 109761427.929 8  85528404.35446  20886905.094                    20886911.137
        52.100          41.600
 118744768.035 7  92528406.43045  22596377.961                    22596381.520
        44.700          31.300
 114345774.020 8  89100617.62845  21759278.859                    21759281.770
        48.500          32.300
 114577081.059 7  89280844.81445  21803293.648                    21803294.551
        46.400          31.600
 18  3 11 13 44  1.0000000  0 19R05R06G10G14G22R14R15R13R24R22R23G32
                                G11G28G01G24G12G17G19
                  88537924.022 5  21295094.086                    21295096.141
                        33.200
                  85375483.654 6  20570565.531                    20570566.148
                        38.100
 123510791.861 7  96242219.45944  23503330.203                    23503335.336
        43.200          26.200
 127134244.439 6  99065716.15042  24192851.367                    24192857.504
        40.000          16.300
 127300960.675 6  99195564.35144  24224568.688                    24224569.629
        40.700          24.800
                  80341502.396 6  19378109.117                    19378111.367
                        41.000
                  83402799.771 6  20067039.859                    20067042.824
                        36.300
                  92362702.740 5  22238443.070                    22238442.430
                        33.300
                  93937418.684 4  22585847.977                    22585849.102
                        24.900
                  89445710.582 6  21543680.867                    21543682.691
                        41.200
                  83715486.134 6  20121079.797                    20121084.711
                        36.500
 118403728.460 7  92262664.39845  22531480.922                    22531487.074
        46.100          34.000
 122720822.495 6  95626622.91643  23352994.695                    23352998.988
        39.200          22.000
 127922292.163 6  99679717.73943  24342803.398                    24342806.258
        40.100          22.600
 117396093.957 7  91477499.80445  22339736.555                    22339741.898
        43.900          30.500
 109762532.609 8  85529265.14146  20887115.844                    20887121.371
        52.100          41.800
 118741630.191 7  92525961.35945  22595780.578                    22595784.527
        45.200          30.800
 114345603.322 8  89100484.62345  21759246.258                    21759249.383
        48.500          32.100
 114575251.475 7  89279419.16445  21802944.461                    21802946.688
        46.000          31.600
 18  3 11 13 44  2.0000000  0 19R05R06G10G14G22R14R15R13R24R22R23G32
                                G11G28G01G24G12G17G19
                  88540644.930 5  21295748.250                    21295750.207
                        33.000
                  85374612.302 6  20570356.523                    20570356.758
                        38.000
 123514051.144 7  96244759.17544  23503950.906                    23503955.316
        43.000          24.300
 127131387.633 6  99063489.97042  24192307.289                    24192313.168
        38.900          15.600
 127298757.785 6  99193847.82044  24224149.898                    24224150.703
        40.900          25.800
                  80342628.160 6  19378380.766                    19378383.016
                        41.100
                  83401090.199 6  20066628.141                    20066631.496
                        37.000
                  92366283.151 5  22239303.820                    22239304.527
                        34.600
                  93934302.709 4  22585099.211                    22585099.555
                        26.900
                  89448573.540 6  21544369.539                    21544371.891
                        41.000
                  83714696.726 6  20120890.531                    20120894.781
                        36.700
 118402047.108 7  92261354.24545  22531160.086                    22531167.121
        45.800          33.600
 122723791.070 6  95628936.07443  23353560.297                    23353563.500
        39.800          22.300
 127926044.094 6  99682641.31443  24343516.531                    24343519.844
        39.400          22.500
 117397293.570 7  91478434.58845  22339962.898                    22339970.305
        42.800          30.000
 109763637.908 8  85530126.41046  20887326.547                    20887332.078
        52.200          41.700
 118738492.644 7  92523516.52045  22595183.727                    22595187.430
        45.000          31.200
 114345433.200 8  89100352.08245  21759214.414                    21759217.145
        48.500          32.500
 114573422.447 7  89277993.94345  21802595.891                    21802598.496
        44.700          32.400
 18  3 11 13 44  3.0000000  0 19R05R06G10G14G22R14R15R13R24R22R23G32
                                G11G28G01G24G12G17G19
                  88543366.365 5  21296402.438                    21296404.871
                        33.000
                  85373741.635 6  20570146.359                    20570146.492
                        37.900
 123517310.931 7  96247299.27744  23504570.695                    23504575.582
        43.200          26.200
 127128531.147 6  99061264.11942  24191763.242                    24191769.957
        38.200          15.600
 127296555.334 6  99192131.62644  24223730.758                    24223731.219
        41.600          25.600
                  80343754.593 6  19378651.734                    19378654.613
                        41.200
                  83399381.187 6  20066216.625                    20066220.273
                        36.500
                  92369863.789 5  22240165.422                    22240167.949
                        35.300
                  93931187.041 4  22584349.859                    22584350.789
                        26.900
                  89451437.020 6  21545059.867                    21545062.031
                        41.000
                  83713908.052 6  20120700.453                    20120705.043
                        36.900
 118400366.373 7  92260044.58645  22530841.109                    22530847.074
        46.400          33.300
 122726760.244 6  95631249.70643  23354126.063                    23354128.621
        40.900          21.800
 127929796.227 6  99685565.04743  24344230.992                    24344233.715
        40.400          22.000
 117398494.002 6  91479370.00545  22340190.266                    22340198.617
        41.300          30.700
 109764743.893 8  85530988.21746  20887536.781                    20887542.301
        52.100          41.700
 118735355.483 7  92521071.96745  22594587.023                    22594590.484
        44.700          30.800
 114345263.777 8  89100220.08345  21759181.781                    21759184.809
        48.500          32.700
 114571594.086 7  89276569.24845  21802248.391                    21802250.141
        44.800          32.600
 18  3 11 13 44  4.0000000  0 19R05R06G10G14G22R14R15R13R24R22R23G32
                                G11G28G01G24G12G17G19
                  88546088.374 5  21297057.453                    21297059.922
                        32.800
                  85372871.728 6  20569936.414                    20569936.910
                        38.100
 123520571.184 7  96249839.74944  23505190.438                    23505195.801
        42.800          25.800
 127125674.980 6  99059038.53742  24191219.125                    24191225.895
        38.500          16.300
 127294353.385 6  99190415.82244  24223311.688                    24223312.699
        41.800          26.200
                  80344881.703 6  19378924.703                    19378926.004
                        41.200
                  83397672.755 6  20065806.195                    20065809.262
                        36.100
                  92373444.688 5  22241027.078                    22241030.246
                        34.400
                  93928071.696 4  22583601.313                    22583601.828
                        25.900
                  89454301.031 6  21545749.117                    21545751.684
                        41.200
                  83713120.132 6  20120511.273                    20120515.691
                        36.800
 118398686.277 7  92258735.42145  22530521.289                    22530527.773
        46.300          33.700
 122729730.007 6  95633563.79243  23354691.352                    23354693.488
        41.600          22.200
 127933548.572 6  99688488.94943  24344944.625                    24344947.801
        39.700          22.800
 117399695.211 6  91480305.99545  22340419.914                    22340427.258
        41.400          30.500
 109765850.600 8  85531850.59046  20887747.367                    20887753.027
        52.100          41.700
 118732218.728 7  92518627.73545  22593989.961                    22593993.734
        44.900          31.400
 114345095.056 8  89100088.63145  21759149.297                    21759152.504
        48.800          33.000
 114569766.479 7  89275145.14345  21801901.313                    21801902.422
        45.700          32.400
 18  3 11 13 44  5.0000000  0 19R05R06G10G14G22R14R15R13R24R22R23G32
                                G11G28G01G24G12G17G19
                  88548810.940 5  21297711.430                    21297714.344
                        32.600
                  85372002.506 6  20569728.109                    20569727.727
                        38.000
 123523831.884 7  96252380.56044  23505810.484                    23505815.660
        42.300          26.200
 127122819.120 6  99056813.20542  24190676.742                    24190682.660
        39.100          16.900
 127292151.847 6  99188700.33944  24222892.445                    24222893.668
        41.600          27.000
                  80346009.450 6  19379196.016                    19379198.363
                        41.500
                  83395964.853 5  20065394.477                    20065397.953
                        35.600
                  92377025.833 5  22241890.086                    22241892.848
                        33.500
                  93924956.563 4  22582851.055                    22582852.090
                        25.800
                  89457165.517 6  21546440.508                    21546441.695
                        41.100
                  83712332.936 6  20120322.430                    20120326.484
                        36.800
 118397006.744 7  92257426.70345  22530201.883                    22530207.617
        45.700          33.300
 122732700.304 6  95635878.32943  23355256.805                    23355258.863
        41.600          22.600
 127937301.073 6  99691412.96843  24345659.258                    24345662.031
        40.300          22.800
 117400897.131 7  91481242.53345  22340650.508                    22340655.375
        43.300          30.600
 109766957.970 8  85532713.47846  20887957.961                    20887963.652
        51.500          41.600
 118729082.349 7  92516183.80845  22593393.375                    22593396.750
        45.200          31.400
 114344926.942 8  89099957.64645  21759117.664                    21759121.070
        48.300          33.300
 114567939.516 7  89273721.54045  21801553.672                    21801554.855
        44.100          32.600
 18  3 11 13 44  6.0000000  0 19R05R06G10G14G22R14R15R13R24R22R23G32
                                G11G28G01G24G12G17G19
                  88551533.993 5  21298368.336                    21298369.551
                        32.400
                  85371133.984 6  20569518.023                    20569518.664
                        38.100
 123527093.017 6  96254921.70244  23506431.047                    23506436.941
        41.600          27.000
 127119963.587 6  99054588.14542  24190133.406                    24190139.098
        40.000          16.900
 127289950.739 7  99186985.18144  24222473.547                    24222474.590
        42.200          25.400
                  80347137.828 6  19379468.133                    19379470.344
                        41.200
                  83394257.478 5  20064984.250                    20064987.480
                        35.800
                  92380607.157 5  22242752.336                    22242754.246
                        32.000
                  93921841.726 4  22582103.188                    22582103.758
                        25.800
                  89460030.487 6  21547129.852                    21547131.883
                        41.100
                  83711546.438 6  20120133.094                    20120138.070
                        36.600
 118395327.781 7  92256118.43745  22529883.016                    22529888.340
        46.700          33.300
 122735671.146 6  95638193.29443  23355821.906                    23355824.242
        41.700          22.900
 127941053.750 6  99694337.13643  24346372.859                    24346376.102
        39.300          22.600
 117402099.740 7  91482179.61845  22340879.531                    22340884.832
        44.300          31.200
 109768066.010 8  85533576.87946  20888168.859                    20888174.109
        51.500          41.700
 118725946.318 7  92513740.16245  22592796.078                    22592800.016
        45.400          31.400
 114344759.495 8  89099827.19045  21759085.852                    21759088.988
        48.500          32.600
 114566113.159 7  89272298.39645  21801204.766                    21801207.293
        43.400          32.100
 18  3 11 13 44  7.0000000  0 19R05R06G10G14G22R14R15R13R24R22R23G32
                                G11G28G01G24G12G17G19
                  88554257.596 5  21299023.063                    21299023.883
                        32.700
                  85370266.156 6  20569308.281                    20569309.387
                        37.900
 123530354.566 6  96257463.16144  23507051.805                    23507057.586
        40.900          26.500
 127117108.320 6  99052363.30143  24189590.117                    24189595.770
        40.700          18.300
 127287750.006 6  99185270.32244  24222055.430                    24222055.871
        41.700          24.800
                  80348266.840 6  19379741.320                    19379743.273
                        41.200
                  83392550.618 5  20064573.594                    20064576.883
                        35.800
                  92384188.689 5  22243616.367                    22243616.145
                        31.900
                  93918727.144 4  22581353.211                    22581354.730
                        24.500
                  89462896.008 6  21547818.641                    21547821.738
                        41.000
                  83710760.670 6  20119945.195                    20119948.410
                        36.600
 118393649.415 7  92254810.61745  22529563.570                    22529568.980
        46.400          33.100
 122738642.566 6  95640508.71743  23356387.094                    23356389.578
        41.400          22.600
 127944806.586 6  99697261.42043  24347087.672                    24347090.453
        40.200          22.600
 117403303.075 7  91483117.29845  22341107.234                    22341114.043
        43.300          30.600
 109769174.714 8  85534440.80246  20888379.531                    20888385.523
        51.700          41.700
 118722810.650 7  92511296.79245  22592199.617                    22592203.332
        45.300          31.000
 114344592.679 8  89099697.21945  21759053.961                    21759057.148
        48.600          32.400
 114564287.434 7  89270875.75445  21800857.500                    21800860.039
        43.400          32.100
 18  3 11 13 44  8.0000000  0 19R05R06G10G14G22R14R15R13R24R22R23G32
                                G11G28G01G24G12G17G19
                  88556981.771 5  21299677.531                    21299679.563
                        32.700
                  85369399.058 6  20569100.289                    20569100.855
                        38.000
 123533616.604 6  96260005.01144  23507672.859                    23507678.230
        40.700          28.300
 127114253.411 6  99050138.70843  24189047.461                    24189052.395
        40.800          19.900
 127285549.768 6  99183555.84444  24221636.391                    24221636.988
        41.700          26.300
                  80349396.530 6  19380012.813                    19380015.262
                        41.000
                  83390844.324 6  20064163.570                    20064166.668
                        36.000
                  92387770.597 5  22244477.563                    22244478.246
                        32.400
                  93915612.892 4  22580605.578                    22580605.777
                        25.200
                  89465762.021 6  21548510.008                    21548511.414
                        41.100
                  83709975.642 6  20119755.563                    20119759.973
                        36.700
 118391971.640 7  92253503.25145  22529242.922                    22529249.520
        45.100          32.800
 122741614.584 6  95642824.60343  23356951.539                    23356955.844
        40.200          22.800
 127948559.642 6  99700185.88243  24347800.727                    24347803.902
        39.500          22.500
 117404507.228 6  91484055.62445  22341335.078                    22341343.473
        41.900          30.500
 109770284.155 8  85535305.29846  20888590.547                    20888596.539
        51.800          41.800
 118719675.380 7  92508853.72945  22591602.844                    22591606.887
        44.900          31.000
 114344426.556 8  89099567.78345  21759022.023                    21759025.344
        48.800          31.200
 114562462.410 7  89269453.66645  21800511.289                    21800512.566
        44.500          32.100
 18  3 11 13 44  9.0000000  0 19R05R06G10G14G22R14R15R13R24R22R23G32
                                G11G28G01G24G12G17G19
                  88559706.494 5  21300332.656                    21300334.914
                        32.800
                  85368532.668 6  20568891.305                    20568891.500
                        37.800
 123536879.156 6  96262547.24544  23508293.688                    23508299.180
        41.300          29.200
 127111398.873 6  99047914.41043  24188504.039                    24188509.418
        41.400          22.200
 127283349.967 6  99181841.72544  24221218.039                    24221218.660
        41.900          26.300
                  80350526.898 6  19380286.359                    19380287.656
                        40.900
                  83389138.604 6  20063752.492                    20063755.781
                        36.000
                  92391352.797 5  22245338.898                    22245340.395
                        34.600
                  93912498.934 4  22579856.102                    22579857.328
                        25.800
                  89468628.526 6  21549201.875                    21549202.543
                        41.000
                  83709191.365 6  20119566.961                    20119571.238
                        36.900
 118390294.473 7  92252196.37845  22528924.125                    22528930.273
        45.200          33.100
 122744587.208 6  95645140.92043  23357516.500                    23357521.199
        39.200          22.600
 127952312.892 6  99703110.47943  24348515.758                    24348518.793
        40.300          22.000
 117405712.132 6  91484994.52845  22341564.219                    22341572.223
        41.700          30.600
 109771394.305 8  85536170.35346  20888802.078                    20888807.406
        52.100          41.600
 118716540.497 7  92506410.96545  22591006.422                    22591010.254
        45.100          31.200
 114344261.110 8  89099438.88445  21758991.195                    21758993.781
        49.100          32.300
 114560638.116 7  89268032.13745  21800164.211                    21800165.418
        44.800          32.100
 18  3 11 13 44 10.0000000  0 19R05R06G10G14G22R14R15R13R24R22R23G32
                                G11G28G01G24G12G17G19
                  88562431.723 5  21300987.430                    21300990.363
                        33.200
                  85367666.962 6  20568682.438                    20568683.188
                        37.700
 123540142.081 6  96265089.77644  23508914.352                    23508920.078
        41.200          28.200
 127108544.548 6  99045690.25343  24187960.969                    24187965.445
        41.300          23.000
 127281150.577 7  99180127.90944  24220799.313                    24220799.754
        42.100          26.300
                  80351657.905 6  19380559.109                    19380560.840
                        40.600
                  83387433.398 6  20063342.500                    20063346.105
                        36.000
                  92394935.222 5  22246201.453                    22246204.324
                        35.400
                  93909385.264 3  22579107.375                    22579108.336
                        23.800
                  89471495.547 6  21549891.398                    21549893.414
                        41.000
                  83708407.805 6  20119378.805                    20119382.797
                        36.800
 118388617.917 7  92250889.98945  22528606.398                    22528611.266
        46.500          32.400
 122747560.430 6  95647457.70043  23358082.164                    23358087.371
        39.500          22.600
 127956066.324 6  99706035.23243  24349229.203                    24349233.023
        40.400          23.000
 117406917.804 6  91485934.00045  22341794.852                    22341801.145
        41.700          30.500
 109772505.132 8  85537035.93046  20889013.797                    20889019.199
        52.300          41.700
 118713406.009 7  92503968.50445  22590410.055                    22590413.793
        45.100          30.400
 114344096.346 8  89099310.50945  21758959.547                    21758962.570
        48.800          32.400
 114558814.440 7  89266611.08445  21799817.305                    21799818.852
        44.600          32.200
 18  3 11 13 44 11.0000000  0 19R05R06G10G14G22R14R15R13R24R22R23G32
                                G11G28G01G24G12G17G19
                  88565157.546 5  21301644.805                    21301646.180
                        33.100
                  85366801.973 6  20568474.453                    20568474.438
                        37.500
 123543405.512 6  96267632.69544  23509536.016                    23509541.363
        41.400          28.600
 127105690.608 6  99043466.40244  24187418.148                    24187422.996
        40.900          26.200
 127278951.626 7  99178414.43844  24220380.695                    24220381.605
        42.000          27.100
                  80352789.585 6  19380830.992                    19380834.227
                        40.700
                  83385728.773 6  20062931.641                    20062936.008
                        36.200
                  92398517.867 5  22247064.367                    22247067.391
                        35.600
                  93906271.893 4  22578358.313                    22578360.188
                        25.400
                  89474363.109 6  21550580.516                    21550583.867
                        41.400
                  83707624.995 6  20119190.547                    20119194.758
                        37.000
 118386941.997 7  92249584.07545  22528287.633                    22528292.891
        46.500          32.700
 122750534.215 6  95649774.89243  23358649.711                    23358652.867
        40.200          22.600
 127959819.950 6  99708960.14643  24349944.141                    24349947.164
        40.400          22.800
 117408124.187 6  91486874.03245  22342024.008                    22342031.258
        41.100          30.800
 109773616.696 8  85537902.08046  20889225.273                    20889230.691
        51.900          41.600
 118710271.903 7  92501526.34145  22589813.484                    22589817.184
        45.100          30.400
 114343932.221 8  89099182.63245  21758928.133                    21758931.461
        48.200          32.100
 114556991.450 7  89265190.56845  21799469.750                    21799471.488
        43.800          31.900
 18  3 11 13 44 12.0000000  0 19R05R06G10G14G22R14R15R13R24R22R23G32
                                G11G28G01G24G12G17G19
                  88567883.847 5  21302300.148                    21302301.930
                        32.400
                  85365937.668 6  20568266.164                    20568265.914
                        37.800
 123546669.363 6  96270175.95344  23510157.039                    23510162.270
        41.800          29.100
 127102836.945 6  99041242.76844  24186874.953                    24186880.180
        41.300          25.600
 127276753.122 7  99176701.31744  24219962.508                    24219963.727
        42.000          26.600
                  80353921.904 6  19381104.672                    19381106.961
                        40.900
                  83384024.618 6  20062521.539                    20062525.539
                        36.400
                  92402100.657 5  22247928.672                    22247929.863
                        34.100
                  93903158.767 4  22577610.172                    22577611.398
                        24.300
                  89477231.128 6  21551272.414                    21551273.715
                        41.300
                  83706842.880 6  20119003.047                    20119006.926
                        36.800
 118385266.610 7  92248278.57345  22527967.188                    22527973.621
        45.600          33.600
 122753508.515 6  95652092.49143  23359216.414                    23359218.602
        41.800          22.200
 127963573.731 6  99711885.16943  24350658.359                    24350661.684
        39.400          22.300
 117409331.323 6  91487814.64945  22342253.508                    22342260.949
        40.200          31.000
 109774728.888 8  85538768.71646  20889436.625                    20889442.531
        51.300          41.600
 118707138.143 7  92499084.45145  22589217.414                    22589220.578
        44.700          30.500
 114343768.743 8  89099055.26845  21758897.594                    21758900.234
        48.200          31.600
 114555169.087 7  89263770.54445  21799123.078                    21799124.480
        43.500          32.600
 18  3 11 13 44 13.0000000  0 19R05R06G10G14G22R14R15R13R24R22R23G32
                                G11G28G01G24G12G17G19
                  88570610.713 5  21302955.656                    21302957.605
                        33.300
                  85365074.034 6  20568057.344                    20568058.422
                        37.500
 123549933.659 7  96272719.55544  23510778.211                    23510784.219
        42.400          28.700
 127099983.571 6  99039019.37044  24186331.547                    24186337.199
        41.600          26.200
 127274554.995 6  99174988.48844  24219544.242                    24219545.250
        41.300          26.500
                  80355054.910 6  19381377.852                    19381380.480
                        40.500
                  83382321.029 6  20062112.836                    20062115.844
                        36.700
                  92405683.701 5  22248792.383                    22248792.266
                        32.900
                  93900045.901 3  22576861.250                    22576863.074
                        23.600
                  89480099.635 6  21551964.164                    21551965.422
                        41.200
                  83706061.509 6  20118815.398                    20118819.051
                        36.700
 118383591.825 7  92246973.53345  22527648.703                    22527655.098
        45.200          33.100
 122756483.404 7  95654410.58643  23359782.695                    23359785.305
        42.800          22.500
 127967327.655 6  99714810.30243  24351373.242                    24351375.816
        40.500          22.600
 117410539.217 6  91488755.84845  22342484.352                    22342490.457
        40.600          31.200
 109775841.815 8  85539635.93246  20889648.313                    20889654.254
        51.600          41.500
 118704004.765 7  92496642.86845  22588621.031                    22588624.641
        44.700          30.800
 114343605.943 8  89098928.42645  21758866.016                    21758869.441
        48.300          32.000
 114553347.377 7  89262351.03345  21798776.539                    21798778.277
        44.300          32.100
 18  3 11 13 44 14.0000000  0 19R05R06G10G14G22R14R15R13R24R22R23G32
                                G11G28G01G24G12G17G19
                  88573338.102 5  21303611.797                    21303613.266
                        32.600
                  85364211.153 6  20567849.188                    20567849.797
                        37.400
 123553198.435 7  96275263.53144  23511399.500                    23511405.902
        42.500          29.600
 127097130.541 6  99036796.25744  24185788.734                    24185794.098
        41.700          27.300
 127272357.333 6  99173276.01944  24219125.680                    24219126.754
        41.600          26.600
                  80356188.571 6  19381651.570                    19381653.773
                        40.900
                  83380617.999 6  20061701.930                    20061705.902
                        36.400
                  92409267.076 5  22249655.313                    22249654.645
                        32.900
                  93896933.377 4  22576113.547                    22576114.781
                        25.600
                  89482968.674 6  21552653.953                    21552656.570
                        41.200
                  83705280.883 6  20118627.375                    20118631.691
                        36.400
 118381917.639 7  92245668.97045  22527330.289                    22527336.453
        44.900          33.400
 122759458.870 7  95656729.14943  23360348.234                    23360351.133
        43.200          22.600
 127971081.855 6  99717735.65843  24352086.992                    24352090.020
        40.000          22.200
 117411747.837 6  91489697.61245  22342715.766                    22342720.539
        41.700          30.900
 109776955.451 8  85540503.69846  20889860.352                    20889866.000
        51.500          41.500
 118700871.798 7  92494201.60645  22588024.836                    22588028.469
        44.600          30.800
 114343443.807 7  89098802.10445  21758834.867                    21758837.875
        47.900          32.300
 114551526.393 7  89260932.07445  21798430.445                    21798431.535
        44.300          33.100
 18  3 11 13 44 15.0000000  0 19R05R06G10G14G22R14R15R13R24R22R23G32
                                G11G28G01G24G12G17G19
                  88576066.004 5  21304268.031                    21304269.559
                        32.700
                  85363348.957 6  20567642.086                    20567642.555
                        37.600
 123556463.590 7  96277807.79144  23512020.891                    23512027.531
        43.000          29.400
 127094277.781 6  99034573.34544  24185246.195                    24185251.836
        41.600          27.700
 127270160.107 6  99171563.89444  24218707.633                    24218708.617
        41.100          27.300
                  80357322.850 6  19381925.484                    19381927.023
                        41.000
                  83378915.469 6  20061293.008                    20061296.293
                        36.000
                  92412850.724 5  22250515.422                    22250516.977
                        33.700
                  93893821.073 4  22575365.406                    22575366.168
                        25.000
                  89485838.205 6  21553345.086                    21553347.445
                        41.400
                  83704500.936 6  20118439.742                    20118444.008
                        36.200
 118380243.988 7  92244364.83145  22527010.742                    22527017.781
        43.900          33.500
 122762434.854 7  95659048.14143  23360914.641                    23360917.152
        43.000          22.300
 127974836.139 6  99720661.07243  24352801.695                    24352804.848
        40.400          23.000
 117412957.166 7  91490639.96045  22342945.688                    22342950.777
        42.300          31.500
 109778069.728 8  85541371.96546  20890072.813                    20890078.238
        51.500          41.700
 118697739.173 7  92491760.60445  22587428.758                    22587432.414
        44.700          31.300
 114343282.304 8  89098676.27545  21758804.547                    21758807.711
        48.100          31.900
 114549706.026 7  89259513.60745  21798083.875                    21798085.438
        44.500          32.300
 18  3 11 13 44 16.0000000  0 19R05R06G10G14G22R14R15R13R24R22R23G32
                                G11G28G01G24G12G17G19
                  88578794.485 5  21304924.172                    21304925.734
                        32.800
                  85362487.484 6  20567433.102                    20567434.910
                        37.700
 123559729.230 7  96280352.43645  23512643.219                    23512648.770
        43.400          30.400
 127091425.358 6  99032350.69244  24184703.500                    24184709.141
        41.800          27.500
 127267963.282 6  99169852.09944  24218289.461                    24218291.016
        40.900          24.800
                  80358457.808 6  19382198.398                    19382200.945
                        41.100
                  83377213.518 6  20060882.773                    20060886.938
                        36.200
                  92416434.677 5  22251377.750                    22251379.168
                        35.000
                  93890709.101 4  22574617.953                    22574618.266
                        24.300
                  89488708.226 6  21554038.383                    21554038.461
                        41.200
                  83703721.756 6  20118252.422                    20118256.910
                        36.400
 118378570.975 7  92243061.20545  22526693.664                    22526699.305
        44.700          33.000
 122765411.458 7  95661367.60743  23361480.125                    23361483.586
        42.200          22.800
 127978590.679 6  99723586.68243  24353515.758                    24353519.191
        40.100          22.600
 117414167.240 6  91491582.90145  22343174.813                    22343181.566
        41.400          30.800
 109779184.728 8  85542240.79846  20890285.000                    20890290.281
        51.700          41.500
 118694606.947 7  92489319.91445  22586832.648                    22586836.020
        45.000          30.800
 114343121.502 8  89098550.99045  21758774.352                    21758776.578
        48.700          32.100
 114547886.344 7  89258095.67045  21797737.602                    21797739.270
        44.600          31.900
 18  3 11 13 44 17.0000000  0 19R05R06G10G14G22R14R15R13R24R22R23G32
                                G11G28G01G24G12G17G19
                  88581523.447 5  21305580.742                    21305582.438
                        32.500
                  85361626.734 6  20567227.164                    20567227.582
                        37.800
 123562995.313 7  96282897.43745  23513265.094                    23513270.766
        43.500          30.000
 127088573.184 7  99030128.25344  24184160.797                    24184166.594
        42.200          26.900
 127265766.889 6  99168140.63144  24217871.594                    24217872.656
        40.800          26.400
                  80359593.389 6  19382473.055                    19382475.273
                        40.900
                  83375512.074 5  20060474.430                    20060477.250
                        35.800
                  92420018.808 5  22252240.984                    22252242.582
                        35.300
                  93887597.362 3  22573869.281                    22573870.055
                        23.200
                  89491578.755 6  21554727.758                    21554730.594
                        41.200
                  83702943.274 6  20118065.219                    20118069.715
                        36.400
 118376898.533 7  92241758.02945  22526376.625                    22526381.336
        46.300          33.900
 122768388.611 6  95663687.48643  23362046.695                    23362050.598
        40.400          22.300
 127982345.327 6  99726512.36643  24354230.859                    24354233.387
        40.800          22.600
 117415378.088 6  91492526.43945  22343403.195                    22343411.977
        39.300          30.900
 109780300.346 8  85543110.11446  20890497.258                    20890503.000
        51.700          41.800
 118691475.044 7  92486879.47045  22586236.695                    22586239.746
        45.600          31.100
 114342961.317 8  89098426.18345  21758743.422                    21758746.199
        48.800          32.500
 114546067.272 7  89256678.20745  21797391.070                    21797392.844
        44.200          32.200
 18  3 11 13 44 18.0000000  0 19R05R06G10G14G22R14R15R13R24R22R23G32
                                G11G28G01G24G12G17G19
                  88584252.952 5  21306236.445                    21306238.734
                        32.700
                  85360766.654 6  20567019.844                    20567020.609
                        38.000
 123566261.796 7  96285442.74044  23513886.328                    23513892.258
        43.200          29.700
 127085721.331 7  99027906.05044  24183618.086                    24183623.793
        42.200          25.300
 127263570.902 6  99166429.47744  24217453.547                    24217454.656
        40.900          26.400
                  80360729.568 6  19382746.953                    19382749.230
                        41.100
                  83373811.167 5  20060064.695                    20060068.266
                        35.600
                  92423603.046 5  22253107.609                    22253107.191
                        34.700
                  93884485.916 4  22573120.672                    22573122.309
                        24.300
                  89494449.789 6  21555419.023                    21555421.820
                        41.100
                  83702165.495 6  20117878.430                    20117882.766
                        36.900
 118375226.671 7  92240455.27945  22526057.922                    22526063.648
        46.100          33.500
 122771366.294 6  95666007.76043  23362612.039                    23362616.859
        39.700          22.300
 127986100.135 6  99729438.20043  24354944.820                    24354948.031
        39.900          22.500
 117416589.668 6  91493470.52345  22343633.922                    22343642.289
        39.000          30.400
 109781416.619 8  85543979.93846  20890709.094                    20890715.008
        51.800          41.700
 118688343.506 7  92484439.30945  22585641.133                    22585644.129
        45.500          31.400
 114342801.759 8  89098301.86045  21758712.922                    21758715.906
        48.700          33.000
 114544248.844 7  89255261.24745  21797044.836                    21797046.680
        44.600          31.600
 18  3 11 13 44 19.0000000  0 19R05R06G10G14G22R14R15R13R24R22R23G32
                                G11G28G01G24G12G17G19
                  88586982.977 5  21306894.047                    21306895.160
                        32.500
                  85359907.252 6  20566812.242                    20566813.563
                        38.000
 123569528.706 7  96287988.39145  23514508.148                    23514513.980
        43.300          30.000
 127082869.745 7  99025684.05344  24183075.023                    24183081.359
        42.300          25.700
 127261375.303 6  99164718.63044  24217036.109                    24217036.883
        41.100          26.600
                  80361866.411 6  19383020.938                    19383023.102
                        40.900
                  83372110.776 6  20059655.195                    20059659.180
                        36.000
                  92427187.484 5  22253971.570                    22253970.395
                        34.000
                  93881374.686 3  22572373.563                    22572374.379
                        23.200
                  89497321.250 6  21556112.891                    21556112.512
                        40.800
                  83701388.446 6  20117691.594                    20117696.121
                        36.900
 118373555.341 7  92239152.93245  22525739.031                    22525745.246
        45.300          33.400
 122774344.548 6  95668328.45043  23363179.914                    23363183.773
        39.200          22.600
 127989855.105 6  99732364.14944  24355659.672                    24355662.734
        41.100          24.000
 117417801.920 6  91494415.10645  22343865.938                    22343872.715
        40.100          31.200
 109782533.593 8  85544850.30646  20890921.570                    20890927.266
        51.600          41.500
 118685212.316 7  92481999.41445  22585045.008                    22585048.363
        45.400          31.200
 114342642.856 8  89098178.05045  21758682.742                    21758685.773
        48.700          32.800
 114542431.059 7  89253844.79745  21796699.820                    21796700.609
        44.500          32.300
 18  3 11 13 44 20.0000000  0 19R05R06G10G14G22R14R15R13R24R22R23G32
                                G11G28G01G24G12G17G19
                  88589713.518 5  21307550.055                    21307552.188
                        33.100
                  85359048.596 6  20566605.734                    20566606.547
                        38.400
 123572796.079 7  96290534.39144  23515129.375                    23515136.199
        43.200          29.900
 127080018.466 7  99023462.28844  24182532.758                    24182538.531
        42.200          25.300
 127259180.133 6  99163008.11044  24216618.211                    24216619.402
        41.100          26.400
                  80363003.930 6  19383295.219                    19383297.344
                        41.200
                  83370410.934 6  20059247.086                    20059249.965
                        36.100
                  92430772.255 5  22254832.539                    22254833.891
                        33.400
                  93878263.758 3  22571625.133                    22571626.512
                        22.100
                  89500193.237 6  21556803.961                    21556805.219
                        40.800
                  83700612.119 6  20117504.609                    20117509.594
                        37.300
 118371884.621 7  92237851.06845  22525421.547                    22525427.016
        46.000          34.000
 122777323.388 6  95670649.58843  23363747.445                    23363750.523
        40.200          22.600
 127993610.260 6  99735290.24443  24356374.102                    24356377.340
        40.300          22.300
 117419014.949 6  91495360.31045  22344098.273                    22344103.547
        41.200          31.100
 109783651.215 8  85545721.18046  20891134.516                    20891140.051
        50.800          41.700
 118682081.496 7  92479559.81645  22584449.391                    22584452.395
        45.100          31.700
 114342484.580 8  89098054.73945  21758652.266                    21758655.484
        48.800          32.400
 114540613.972 7  89252428.88745  21796354.242                    21796355.387
        44.300          32.400
 18  3 11 13 44 21.0000000  0 19R05R06G10G14G22R14R15R13R24R22R23G32
                                G11G28G01G24G12G17G19
                  88592444.638 5  21308205.695                    21308209.328
                        32.300
                  85358190.646 6  20566399.492                    20566400.504
                        38.100
 123576063.868 7  96293080.72244  23515751.219                    23515757.660
        43.400          29.600
 127077167.510 7  99021240.79244  24181990.563                    24181995.895
        42.100          24.300
 127256985.416 6  99161297.94944  24216201.461                    24216201.887
        41.900          25.800
                  80364142.099 6  19383569.641                    19383572.113
                        41.400
                  83368711.629 5  20058838.273                    20058841.344
                        35.700
                  92434357.307 5  22255693.102                    22255696.625
                        32.500
                  93875153.138 4  22570877.625                    22570878.816
                        24.000
                  89503065.749 6  21557493.906                    21557497.035
                        40.800
                  83699836.507 6  20117318.977                    20117322.820
                        36.900
 118370214.505 7  92236549.67445  22525104.008                    22525109.582
        45.800          34.400
 122780302.704 6  95672971.09643  23364315.133                    23364317.535
        41.600          22.600
 127997365.585 6  99738216.47643  24357088.602                    24357092.102
        41.300          22.900
 117420228.646 6  91496306.04945  22344328.664                    22344334.480
        41.700          31.300
 109784769.537 8  85546592.59846  20891347.734                    20891352.914
        50.600          41.400
 118678951.066 7  92477120.52545  22583853.406                    22583856.633
        45.000          31.400
 114342326.988 8  89097931.96545  21758623.234                    21758625.734
        49.000          31.600
 114538797.529 7  89251013.46545  21796007.406                    21796009.520
        43.500          32.600
 18  3 11 13 44 22.0000000  0 19R05R06G10G14G22R14R15R13R24R22R23G32
                                G11G28G01G24G12G17G19
                  88595176.235 5  21308864.047                    21308866.160
                        32.700
                  85357333.338 6  20566193.016                    20566192.922
                        38.000
 123579332.098 7  96295627.39244  23516373.070                    23516379.855
        43.800          29.400
 127074316.800 6  99019019.47443  24181447.391                    24181453.828
        41.700          22.300
 127254791.095 7  99159588.09244  24215783.555                    24215784.109
        42.100          25.800
                  80365280.907 6  19383844.820                    19383846.699
                        41.400
                  83367012.867 5  20058429.125                    20058432.336
                        35.800
                  92437942.649 5  22256556.766                    22256558.309
                        33.100
                  93872042.754 3  22570129.781                    22570130.242
                        22.300
                  89505938.729 6  21558187.102                    21558188.742
                        40.900
                  83699061.626 6  20117132.453                    20117135.961
                        36.200
 118368544.902 7  92235248.68345  22524784.891                    22524791.383
        44.600          33.500
 122783282.592 7  95675293.07143  23364882.336                    23364884.773
        42.400          22.600
 128001121.059 6  99741142.81643  24357803.367                    24357806.348
        40.800          22.500
 117421443.071 6  91497252.36845  22344559.148                    22344565.762
        41.200          30.200
 109785888.537 8  85547464.54546  20891560.609                    20891565.984
        50.700          41.600
 118675820.959 7  92474681.48145  22583257.891                    22583261.336
        45.400          30.900
 114342170.031 8  89097809.67745  21758593.266                    21758595.805
        49.400          32.400
 114536981.700 7  89249598.52945  21795661.289                    21795663.941
        43.100          31.900
 18  3 11 13 44 23.0000000  0 19R05R06G10G14G22R14R15R13R24R22R23G32
                                G11G28G01G24G12G17G19
                  88597908.399 5  21309521.125                    21309523.469
                        31.800
                  85356476.775 6  20565986.023                    20565987.195
                        37.900
 123582600.788 7  96298174.42444  23516995.156                    23517001.750
        43.200          29.100
 127071466.449 6  99016798.44343  24180905.125                    24180911.016
        41.400          22.000
 127252597.230 7  99157878.58344  24215365.805                    24215366.871
        42.600          24.900
                  80366420.359 6  19384118.648                    19384121.309
                        41.200
                  83365314.650 5  20058021.031                    20058023.719
                        35.600
                  92441528.110 5  22257423.688                    22257421.754
                        33.100
                  93868932.688 3  22569382.133                    22569382.836
                        22.800
                  89508812.179 6  21558880.805                    21558880.883
                        41.100
                  83698287.497 6  20116946.859                    20116950.219
                        36.700
 118366875.937 7  92233948.20245  22524468.188                    22524473.875
        45.200          33.600
 122786263.057 7  95677615.51343  23365449.531                    23365451.883
        42.000          22.300
 128004876.730 6  99744069.31043  24358518.008                    24358520.914
        41.200          22.600
 117422658.341 6  91498199.33445  22344789.742                    22344797.023
        40.400          31.100
 109787008.275 8  85548337.06546  20891773.430                    20891779.328
        51.100          41.700
 118672691.271 7  92472242.76945  22582662.695                    22582665.715
        45.600          31.300
 114342013.759 8  89097687.90845  21758562.445                    21758566.000
        48.400          32.000
 114535166.578 7  89248184.16745  21795316.805                    21795318.563
        44.300          32.300
 18  3 11 13 44 24.0000000  0 19R05R06G10G14G22R14R15R13R24R22R23G32
                                G11G28G01G24G12G17G19
                  88600641.137 5  21310178.820                    21310180.098
                        32.000
                  85355620.912 6  20565780.422                    20565780.848
                        38.300
 123585869.953 7  96300721.81744  23517617.219                    23517623.691
        42.700          27.700
 127068616.408 6  99014577.65343  24180362.758                    24180368.313
        40.900          19.900
 127250403.813 7  99156169.42444  24214949.117                    24214949.133
        42.100          26.400
                  80367560.487 6  19384394.164                    19384396.848
                        41.200
                  83363616.984 5  20057612.031                    20057615.602
                        35.500
                  92445113.809 5  22258286.594                    22258285.141
                        34.800
                  93865822.900 3  22568634.367                    22568634.828
                        23.200
                  89511686.171 6  21559570.383                    21559573.434
                        40.900
                  83697514.106 6  20116760.359                    20116764.625
                        36.500
 118365207.631 7  92232648.23845  22524151.648                    22524156.617
        46.500          33.400
 122789244.126 6  95679938.45843  23366015.609                    23366019.301
        41.400          22.300
 128008632.611 6  99746995.96043  24359232.500                    24359236.512
        40.600          22.600
 117423874.290 6  91499146.82745  22345021.234                    22345028.523
        40.300          30.800
 109788128.722 8  85549210.14546  20891986.336                    20891992.168
        51.200          41.200
 118669561.971 7  92469804.35645  22582066.797                    22582070.141
        45.800          31.400
 114341858.147 8  89097566.66045  21758532.898                    21758536.512
        48.200          32.100
 114533352.149 7  89246770.32845  21794972.063                    21794972.992
        45.200          32.200
 18  3 11 13 44 25.0000000  0 19R05R06G10G14G22R14R15R13R24R22R23G32
                                G11G28G01G24G12G17G19
                  88603374.381 5  21310836.898                    21310837.191
                        30.900
                  85354765.742 6  20565574.531                    20565574.316
                        38.100
 123589139.538 7  96303269.54944  23518239.180                    23518246.281
        42.900          28.000
 127065766.686 6  99012357.06542  24179820.875                    24179825.883
        41.000          17.800
 127248210.815 7  99154460.59544  24214530.539                    24214531.930
        42.200          24.600
                  80368701.249 6  19384669.867                    19384671.379
                        41.000
                  83361919.854 5  20057203.086                    20057206.438
                        35.900
                  92448699.770 5  22259149.359                    22259149.410
                        35.100
                  93862713.418 4  22567886.039                    22567887.270
                        24.500
                  89514560.716 6  21560262.227                    21560265.270
                        41.000
                  83696741.445 6  20116574.688                    20116579.148
                        36.500
 118363539.887 7  92231348.69745  22523833.234                    22523839.516
        46.200          32.800
 122792225.777 6  95682261.86843  23366583.078                    23366586.410
        40.100          22.300
 128012388.658 6  99749922.73543  24359947.945                    24359950.941
        41.500          23.500
 117425091.074 6  91500094.96645  22345252.969                    22345259.668
        40.600          31.200
 109789249.883 8  85550083.77646  20892199.523                    20892205.559
        51.300          41.600
 118666433.023 7  92467366.22045  22581471.414                    22581474.680
        46.000          31.400
 114341703.194 8  89097445.94345  21758503.625                    21758506.906
        48.800          32.600
 114531538.368 7  89245356.97945  21794626.297                    21794628.082
        45.000          32.100
 18  3 11 13 44 26.0000000  0 19R05R06G10G14G22R14R15R13R24R22R23G32
                                G11G28G01G24G12G17G19
                  88606108.170 5  21311493.109                    21311495.645
                        31.500
                  85353911.272 6  20565368.117                    20565368.852
                        38.100
 123592409.577 7  96305817.62844  23518861.125                    23518867.879
        42.800          27.500
 127062917.242 6  99010136.62042  24179278.211                    24179283.348
        41.000          17.400
 127246018.224 7  99152752.08344  24214113.930                    24214114.777
        42.000          25.500
                  80369842.627 6  19384944.398                    19384946.551
                        41.100
                  83360223.247 5  20056795.859                    20056799.441
                        35.900
                  92452285.981 5  22260010.438                    22260013.332
                        34.300
                  93859604.191 4  22567138.000                    22567139.527
                        24.000
                  89517435.677 6  21560957.891                    21560957.344
                        41.300
                  83695969.470 6  20116389.758                    20116393.496
                        36.800
 118361872.681 7  92230049.57345  22523515.336                    22523521.867
        46.200          32.900
 122795207.979 6  95684585.68543  23367150.055                    23367153.863
        39.200          21.700
 128016144.867 6  99752849.66243  24360661.750                    24360665.289
        41.400          22.800
 117426308.528 6  91501043.61845  22345485.234                    22345491.207
        41.200          30.500
 109790371.677 8  85550957.90646  20892413.477                    20892419.227
        51.400          41.400
 118663304.453 7  92464928.37045  22580876.008                    22580879.461
        45.200          31.200
 114341548.889 8  89097325.71845  21758474.773                    21758477.406
        49.100          32.700
 114529725.190 7  89243944.10545  21794280.664                    21794283.148
        43.500          32.100
 18  3 11 13 44 27.0000000  0 19R05R06G10G14G22R14R15R13R24R22R23G32
                                G11G28G01G24G12G17G19
                  88608842.457 5  21312151.336                    21312153.004
                        31.900
                  85353057.541 6  20565163.070                    20565162.910
                        37.700
 123595680.072 7  96308366.07544  23519483.383                    23519489.875
        42.900          26.600
 127060068.138 6  99007916.44142  24178736.195                    24178740.691
        40.900          17.800
 127243826.106 6  99151043.93044  24213696.609                    24213697.465
        41.900          26.300
                  80370984.669 6  19385220.484                    19385222.766
                        41.300
                  83358527.191 5  20056387.469                    20056390.590
                        35.900
                  92455872.499 5  22260872.570                    22260876.953
                        34.000
                  93856495.245 4  22566390.617                    22566392.133
                        24.000
                  89520311.144 6  21561650.867                    21561651.195
                        40.900
                  83695198.254 6  20116204.438                    20116207.992
                        36.900
 118360206.116 7  92228750.95545  22523199.141                    22523204.594
        46.200          32.800
 122798190.739 6  95686909.92943  23367716.867                    23367721.551
        38.900          22.300
 128019901.271 6  99755776.73043  24361377.391                    24361380.117
        40.500          22.200
 117427526.727 6  91501992.86345  22345717.297                    22345723.285
        41.000          31.300
 109791494.194 8  85551832.58846  20892627.023                    20892632.602
        51.900          41.300
 118660176.261 7  92462490.81745  22580280.703                    22580283.836
        45.400          31.300
 114341395.261 8  89097206.02145  21758445.297                    21758448.492
        48.700          32.800
 114527912.713 7  89242531.78545  21793936.398                    21793938.375
        44.100          31.800
 18  3 11 13 44 28.0000000  0 19R05R06G10G14G22R14R15R13R24R22R23G32
                                G11G28G01G24G12G17G19
                  88611577.236 5  21312809.453                    21312810.625
                        31.700
                  85352204.457 6  20564957.586                    20564957.480
                        38.000
 123598951.001 7  96310914.86944  23520106.148                    23520112.711
        42.600          26.900
 127057219.285 6  99005696.47043  24178193.961                    24178197.949
        41.100          19.300
 127241634.367 7  99149336.07644  24213279.102                    24213279.906
        42.000          24.600
                  80372127.367 6  19385496.141                    19385497.918
                        41.200
                  83356831.648 6  20055978.945                    20055982.902
                        36.500
                  92459459.131 5  22261738.680                    22261739.250
                        32.400
                  93853386.615 4  22565643.531                    22565644.648
                        25.400
                  89523187.164 6  21562340.656                    21562343.547
                        40.800
                  83694427.746 6  20116018.672                    20116022.730
                        36.800
 118358540.115 7  92227452.76345  22522881.828                    22522887.488
        46.100          32.400
 122801174.077 6  95689234.59943  23368285.867                    23368289.223
        39.400          22.200
 128023657.826 6  99758703.91743  24362092.164                    24362095.332
        40.400          22.800
 117428745.669 6  91502942.68845  22345948.297                    22345955.219
        41.000          30.900
 109792617.412 8  85552707.82846  20892840.539                    20892846.402
        52.100          41.600
 118657048.438 7  92460053.55545  22579685.641                    22579689.031
        46.100          31.200
 114341242.260 8  89097086.81545  21758415.711                    21758419.070
        48.500          32.800
 114526100.898 7  89241119.98745  21793592.086                    21793593.715
        44.800          31.800
 18  3 11 13 44 29.0000000  0 19R05R06G10G14G22R14R15R13R24R22R23G32
                                G11G28G01G24G12G17G19
                  88614312.597 5  21313466.625                    21313469.043
                        31.700
                  85351352.096 6  20564751.742                    20564752.301
                        37.500
 123602222.363 7  96313463.99844  23520728.125                    23520734.809
        42.000          26.900
 127054370.819 6  99003476.87943  24177652.344                    24177655.719
        40.900          20.100
 127239443.073 6  99147628.57544  24212862.914                    24212863.582
        41.600          24.900
                  80373270.685 6  19385771.008                    19385773.547
                        41.100
                  83355136.665 6  20055571.328                    20055575.195
                        36.400
                  92463046.050 5  22262604.992                    22262602.926
                        32.700
                  93850278.253 3  22564895.938                    22564897.422
                        23.800
                  89526063.695 6  21563033.258                    21563036.160
                        40.900
                  83693657.924 6  20115833.875                    20115838.176
                        37.200
 118356874.666 7  92226155.00245  22522564.000                    22522570.902
        45.100          33.300
 122804157.971 6  95691559.67943  23368853.953                    23368857.316
        40.100          22.500
 128027414.573 6  99761631.24844  24362807.258                    24362809.883
        40.600          24.000
 117429965.360 6  91503893.10345  22346179.992                    22346187.578
        40.800          30.600
 109793741.284 8  85553583.57446  20893054.578                    20893060.086
        51.800          41.400
 118653920.999 7  92457616.59045  22579090.648                    22579093.852
        46.300          30.700
 114341089.913 8  89096968.11745  21758387.055                    21758390.105
        48.400          32.300
 114524289.740 7  89239708.69445  21793247.211                    21793248.770
        44.600          32.200
 18  3 11 13 44 30.0000000  0 19R05R06G10G14G22R14R15R13R24R22R23G32
                                G11G28G01G24G12G17G19
                  88617048.471 5  21314125.109                    21314126.656
                        32.000
                  85350500.465 6  20564547.148                    20564546.980
                        37.600
 123605494.188 6  96316013.48944  23521350.961                    23521357.117
        41.500          26.000
 127051522.617 6  99001257.51343  24177110.070                    24177114.090
        40.700          20.900
 127237252.207 6  99145921.40144  24212445.414                    24212445.965
        41.100          25.800
                  80374414.688 6  19386047.977                    19386049.504
                        41.500
                  83353442.240 6  20055164.539                    20055167.313
                        36.100
                  92466633.222 5  22263468.016                    22263466.426
                        33.200
                  93847170.171 4  22564148.727                    22564149.820
                        25.300
                  89528940.642 6  21563728.383                    21563728.340
                        40.800
                  83692888.869 6  20115648.445                    20115652.266
                        37.400
 118355209.816 7  92224857.72545  22522248.508                    22522253.820
        46.300          33.200
 122807142.439 6  95693885.20043  23369422.281                    23369424.797
        40.600          23.900
 128031171.505 6  99764558.72543  24363521.602                    24363524.730
        40.800          23.000
 117431185.806 6  91504844.09944  22346412.539                    22346419.262
        40.900          29.800
 109794865.866 8  85554459.87346  20893268.563                    20893274.109
        51.400          41.400
 118650793.946 7  92455179.92645  22578495.773                    22578498.574
        46.200          31.500
 114340938.246 8  89096849.94845  21758358.273                    21758361.059
        49.000          32.100
 114522479.222 7  89238297.89345  21792902.180                    21792904.406
        43.800          32.300
 18  3 11 13 44 31.0000000  0 19R05R06G10G14G22R14R15R13R24R22R23G32
                                G11G28G01G24G12G17G19
                  88619784.897 5  21314783.859                    21314785.418
                        32.000
                  85349649.535 6  20564342.367                    20564341.617
                        37.700
 123608766.475 6  96318563.33344  23521973.461                    23521979.434
        41.500          26.200
 127048674.749 6  98999038.43043  24176568.102                    24176572.316
        40.700          22.300
 127235061.822 6  99144214.60744  24212028.656                    24212029.480
        40.500          25.600
                  80375559.323 6  19386323.883                    19386326.125
                        41.200
                  83351748.353 6  20054755.805                    20054759.797
                        36.300
                  92470220.719 5  22264329.070                    22264330.320
                        34.200
                  93844062.378 4  22563400.969                    22563402.563
                        26.000
                  89531818.113 6  21564421.258                    21564422.602
                        41.100
                  83692120.551 6  20115464.703                    20115468.379
                        36.900
 118353545.611 7  92223560.94745  22521933.008                    22521937.344
        47.000          33.200
 122810127.440 6  95696211.16343  23369990.766                    23369992.848
        41.400          22.800
 128034928.561 6  99767486.29543  24364236.672                    24364240.176
        41.100          22.900
 117432406.978 6  91505795.65845  22346645.422                    22346651.844
        41.300          31.000
 109795991.140 8  85555336.71546  20893482.492                    20893488.227
        51.500          41.400
 118647667.273 7  92452743.55545  22577900.547                    22577903.598
        46.000          31.200
 114340787.239 8  89096732.28445  21758329.891                    21758332.527
        48.800          32.100
 114520669.393 7  89236887.63045  21792558.391                    21792560.078
        44.500          31.600
 18  3 11 13 44 32.0000000  0 19R05R06G10G14G22R14R15R13R24R22R23G32
                                G11G28G01G24G12G17G19
                  88622521.874 5  21315440.906                    21315443.699
                        32.200
                  85348799.305 6  20564137.109                    20564137.027
                        37.500
 123612039.174 6  96321113.49844  23522596.102                    23522602.125
        41.100          26.100
 127045827.136 6  98996819.55343  24176025.563                    24176030.246
        40.200          23.500
 127232871.803 6  99142508.09944  24211612.328                    24211612.891
        40.800          25.900
                  80376704.621 6  19386599.398                    19386601.848
                        41.500
                  83350055.015 5  20054348.953                    20054352.434
                        35.600
                  92473808.493 5  22265190.586                    22265194.453
                        35.200
                  93840954.808 4  22562654.164                    22562655.926
                        25.300
                  89534696.093 6  21565112.750                    21565115.391
                        41.000
                  83691352.934 6  20115279.734                    20115283.793
                        37.100
 118351881.973 7  92222264.58845  22521614.602                    22521621.156
        45.900          33.700
 122813112.990 7  95698537.57643  23370558.055                    23370560.996
        42.100          23.200
 128038685.826 6  99770414.02243  24364951.328                    24364954.734
        40.600          22.900
 117433628.849 6  91506747.77245  22346878.016                    22346884.219
        41.500          30.900
 109797117.062 8  85556214.05746  20893696.680                    20893702.395
        51.500          41.500
 118644540.916 7  92450307.43545  22577305.789                    22577308.793
        45.600          31.900
 114340636.876 8  89096615.12145  21758300.758                    21758303.516
        48.600          32.400
 114518860.207 7  89235477.87945  21792214.680                    21792215.426
        45.100          32.000
 18  3 11 13 44 33.0000000  0 19R05R06G10G14G22R14R15R13R24R22R23G32
                                G11G28G01G24G12G17G19
                  88625259.365 5  21316099.969                    21316101.332
                        31.600
                  85347949.797 6  20563931.773                    20563932.199
                        37.600
 123615312.282 6  96323663.98344  23523219.266                    23523224.734
        41.600          25.400
 127042979.846 6  98994600.91643  24175483.125                    24175488.859
        39.800          22.800
 127230682.199 6  99140801.91144  24211195.391                    24211195.973
        40.500          25.000
                  80377850.553 6  19386876.398                    19386878.898
                        41.500
                  83348362.213 5  20053940.758                    20053945.156
                        35.500
                  92477396.373 5  22266056.133                    22266058.789
                        35.000
                  93837847.538 4  22561907.477                    22561908.340
                        25.100
                  89537574.585 6  21565806.102                    21565808.902
                        41.100
                  83690586.054 6  20115095.422                    20115099.617
                        37.000
 118350218.857 7  92220968.63845  22521296.742                    22521304.125
        44.200          33.300
 122816099.107 6  95700864.43243  23371126.438                    23371129.316
        41.500          22.900
 128042443.281 6  99773341.90443  24365666.539                    24365669.371
        41.000          22.800
 117434851.498 6  91507700.48145  22347110.891                    22347117.059
        41.800          31.500
 109798243.654 8  85557091.92746  20893911.039                    20893916.484
        51.700          41.600
 118641414.971 7  92447871.63845  22576710.156                    22576713.813
        45.600          31.800
 114340487.153 8  89096498.46545  21758272.219                    21758275.445
        48.400          32.400
 114517051.694 7  89234068.63845  21791870.063                    21791871.629
        45.300          32.200
 18  3 11 13 44 34.0000000  0 19R05R06G10G14G22R14R15R13R24R22R23G32
                                G11G28G01G24G12G17G19
                  88627997.438 5  21316757.945                    21316760.047
                        32.700
                  85347101.027 6  20563727.484                    20563727.984
                        37.900
 123618585.947 6  96326214.89044  23523841.602                    23523847.020
        41.400          25.800
 127040132.886 6  98992382.52943  24174941.938                    24174946.871
        39.500          22.600
 127228493.095 6  99139096.11544  24210778.492                    24210779.684
        40.900          25.800
                  80378997.193 6  19387153.086                    19387155.184
                        41.500
                  83346670.003 6  20053534.297                    20053537.902
                        36.000
                  92480984.498 5  22266923.156                    22266923.500
                        34.400
                  93834740.611 4  22561160.547                    22561161.324
                        24.600
                  89540453.600 6  21566500.227                    21566502.258
                        41.000
                  83689819.958 6  20114910.914                    20114915.523
                        36.700
 118348556.431 7  92219673.24945  22520982.164                    22520988.590
        45.500          33.800
 122819085.862 6  95703191.79643  23371693.906                    23371697.902
        40.200          22.600
 128046200.927 6  99776269.94643  24366381.953                    24366385.109
        40.800          23.000
 117436074.950 7  91508653.81345  22347343.594                    22347349.816
        42.400          31.600
 109799371.007 8  85557970.38546  20894126.070                    20894131.633
        51.900          41.400
 118638289.432 7  92445436.15545  22576116.023                    22576119.371
        45.800          32.100
 114340338.174 8  89096382.38845  21758244.164                    21758246.613
        48.400          32.600
 114515243.872 7  89232659.93645  21791525.008                    21791527.547
        45.000          32.100
 18  3 11 13 44 35.0000000  0 19R05R06G10G14G22R14R15R13R24R22R23G32
                                G11G28G01G24G12G17G19
                  88630736.018 5  21317417.008                    21317418.129
                        31.900
                  85346252.913 6  20563523.125                    20563523.352
                        38.100
 123621859.936 6  96328766.05644  23524465.453                    23524470.316
        41.700          26.900
 127037286.178 6  98990164.35343  24174399.477                    24174405.117
        38.800          22.600
 127226304.373 6  99137390.60444  24210362.406                    24210363.066
        40.800          24.700
                  80380144.405 6  19387429.633                    19387431.523
                        41.500
                  83344978.289 5  20053127.266                    20053131.004
                        35.700
                  92484572.820 5  22267786.938                    22267787.184
                        33.300
                  93831633.910 4  22560413.773                    22560414.180
                        25.100
                  89543333.040 6  21567193.898                    21567195.344
                        40.900
                  83689054.501 6  20114726.797                    20114731.484
                        36.300
 118346894.547 7  92218378.27645  22520665.852                    22520671.797
        45.700          33.600
 122822073.105 6  95705519.53743  23372262.141                    23372266.285
        39.500          22.500
 128049958.711 6  99779198.09543  24367097.047                    24367099.781
        41.100          23.000
 117437299.030 7  91509607.63345  22347576.859                    22347582.563
        43.100          31.500
 109800498.971 8  85558849.32046  20894340.930                    20894346.246
        51.900          41.400
 118635164.207 7  92443000.91745  22575521.008                    22575524.477
        45.600          31.500
 114340189.756 8  89096266.74645  21758215.875                    21758218.996
        48.400          31.700
 114513436.644 7  89231251.70145  21791181.383                    21791183.438
        45.500          32.400
 18  3 11 13 44 36.0000000  0 19R05R06G10G14G22R14R15R13R24R22R23G32
                                G11G28G01G24G12G17G19
                  88633475.080 5  21318076.367                    21318076.996
                        31.900
                  85345405.514 6  20563318.727                    20563319.457
                        37.900
 123625134.419 6  96331317.60644  23525088.500                    23525093.629
        41.600          28.000
 127034439.785 6  98987946.40143  24173858.781                    24173863.246
        39.500          22.500
 127224116.090 6  99135685.44844  24209945.648                    24209946.469
        40.800          25.800
                  80381292.284 6  19387706.148                    19387708.629
                        41.300
                  83343287.120 6  20052720.430                    20052724.098
                        36.100
                  92488161.438 5  22268650.078                    22268650.984
                        31.700
                  93828527.553 4  22559666.750                    22559667.656
                        24.800
                  89546212.984 6  21567888.172                    21567889.305
                        40.900
                  83688289.812 6  20114543.352                    20114547.711
                        36.100
 118345233.218 7  92217083.74745  22520349.391                    22520355.641
        45.800          34.000
 122825060.982 6  95707847.76543  23372830.219                    23372834.629
        38.800          21.800
 128053716.656 6  99782126.36543  24367813.109                    24367814.930
        41.200          22.500
 117438523.890 7  91510562.07445  22347809.578                    22347816.164
        42.700          31.200
 109801627.626 8  85559728.79346  20894555.547                    20894560.715
        51.700          41.400
 118632039.384 7  92440565.98945  22574926.172                    22574929.809
        45.500          31.000
 114340041.998 8  89096151.62245  21758187.602                    21758190.723
        48.600          31.400
 114511630.118 7  89229844.02145  21790838.320                    21790839.621
        45.500          32.100
 18  3 11 13 44 37.0000000  0 19R05R06G10G14G22R14R15R13R24R22R23G32
                                G11G28G01G24G12G17G19
                  88636214.658 5  21318735.000                    21318736.629
                        32.600
                  85344558.771 6  20563115.477                    20563115.227
                        38.100
 123628409.283 6  96333869.46344  23525711.539                    23525716.613
        41.600          26.400
 127031593.646 6  98985728.66043  24173316.758                    24173321.676
        40.300          23.000
 127221928.154 6  99133980.56344  24209529.523                    24209530.230
        41.400          25.600
                  80382440.771 6  19387983.516                    19387985.633
                        41.400
                  83341596.450 6  20052313.414                    20052316.863
                        36.200
                  92491750.345 5  22269511.703                    22269513.980
                        33.100
                  93825421.408 4  22558918.750                    22558920.953
                        26.200
                  89549093.400 6  21568580.461                    21568583.590
                        40.900
                  83687525.785 6  20114360.023                    20114363.906
                        36.700
 118343572.462 7  92215789.65945  22520034.680                    22520039.574
        47.200          33.900
 122828049.331 6  95710176.35143  23373399.570                    23373403.211
        39.000          21.500
 128057474.737 6  99785054.72843  24368527.219                    24368530.027
        41.200          22.600
 117439749.427 7  91511517.05145  22348042.281                    22348049.391
        42.100          31.000
 109802756.887 8  85560608.73446  20894770.000                    20894775.574
        51.200          41.400
 118628914.853 7  92438131.28445  22574332.000                    22574335.195
        45.300          31.500
 114339894.860 8  89096036.97745  21758159.734                    21758162.578
        48.800          32.100
 114509824.189 7  89228436.80445  21790494.602                    21790496.324
        44.200          32.600
 18  3 11 13 44 38.0000000  0 19R05R06G10G14G22R14R15R13R24R22R23G32
                                G11G28G01G24G12G17G19
                  88638954.727 5  21319394.453                    21319395.645
                        31.700
                  85343712.728 6  20562911.688                    20562911.453
                        38.100
 123631684.554 6  96336421.62144  23526334.867                    23526339.891
        41.800          26.800
 127028747.816 6  98983511.12844  24172775.844                    24172780.363
        41.300          24.800
 127219740.668 6  99132276.03944  24209113.242                    24209114.039
        41.200          25.700
                  80383589.878 6  19388260.867                    19388262.898
                        41.500
                  83339906.332 6  20051907.211                    20051910.391
                        36.100
                  92495339.449 5  22270375.336                    22270378.133
                        34.000
                  93822315.557 4  22558171.945                    22558173.988
                        24.300
                  89551974.332 6  21569273.492                    21569277.008
                        40.900
                  83686762.469 6  20114176.734                    20114181.008
                        36.600
 118341912.310 7  92214496.02445  22519719.172                    22519724.051
        47.000          33.600
 122831038.234 6  95712505.35243  23373969.586                    23373972.102
        39.400          22.000
 128061232.965 6  99787983.22243  24369242.164                    24369245.281
        41.300          22.300
 117440975.717 6  91512472.59845  22348275.016                    22348282.563
        41.600          30.900
 109803886.847 8  85561489.22846  20894985.070                    20894990.738
        51.300          41.500
 118625790.708 7  92435696.88545  22573737.578                    22573740.758
        45.600          31.200
 114339748.377 8  89095922.83945  21758131.797                    21758134.488
        48.700          32.400
 114508018.895 7  89227030.07245  21790150.203                    21790152.648
        43.100          32.500
 18  3 11 13 44 39.0000000  0 19R05R06G10G14G22R14R15R13R24R22R23G32
                                G11G28G01G24G12G17G19
                  88641695.429 5  21320053.336                    21320054.711
                        32.500
                  85342867.482 6  20562707.844                    20562707.422
                        37.900
 123634960.382 6  96338974.21144  23526958.586                    23526963.766
        41.500          27.800
 127025902.388 6  98981293.91043  24172234.781                    24172238.930
        41.700          22.200
 127217553.688 6  99130571.89544  24208697.281                    24208697.684
        40.900          26.300
                  80384739.722 6  19388538.375                    19388540.473
                        41.500
                  83338216.804 5  20051499.711                    20051503.496
                        35.900
                  92498928.839 5  22271241.750                    22271243.145
                        35.300
                  93819210.028 4  22557426.359                    22557427.379
                        24.400
                  89554855.811 6  21569968.961                    21569970.313
                        40.700
                  83685999.954 6  20113992.617                    20113997.281
                        36.400
 118340252.820 7  92213202.89045  22519401.664                    22519408.531
        45.600          33.500
 122834027.778 6  95714834.85043  23374538.758                    23374541.266
        40.000          22.200
 128064991.504 6  99790911.96443  24369957.688                    24369960.590
        41.200          23.000
 117442202.844 7  91513428.78645  22348509.930                    22348516.039
        42.800          31.300
 109805017.597 8  85562370.33146  20895200.477                    20895205.949
        51.400          41.400
 118622667.041 7  92433262.86145  22573143.164                    22573146.410
        45.400          31.200
 114339602.624 8  89095809.27245  21758104.180                    21758106.629
        48.600          32.800
 114506214.367 7  89225623.94945  21789807.109                    21789808.813
        43.000          31.700
 18  3 11 13 44 40.0000000  0 19R05R06G10G14G22R14R15R13R24R22R23G32
                                G11G28G01G24G12G17G19
                  88644436.616 5  21320711.914                    21320714.805
                        32.000
                  85342022.869 6  20562503.984                    20562504.297
                        38.400
 123638236.602 6  96341527.10644  23527582.094                    23527587.293
        41.500          29.100
 127023057.277 7  98979076.93743  24171693.805                    24171697.418
        42.300          22.900
 127215367.084 6  99128868.04444  24208280.602                    24208282.098
        40.400          25.300
                  80385890.196 6  19388815.250                    19388817.555
                        41.400
                  83336527.815 6  20051094.977                    20051097.320
                        36.100
                  92502518.331 5  22272107.320                    22272107.809
                        35.200
                  93816104.740 4  22556680.094                    22556680.805
                        24.200
                  89557737.702 6  21570664.328                    21570665.039
                        40.800
                  83685238.142 6  20113810.211                    20113814.445
                        36.700
 118338593.835 7  92211910.16045  22519084.992                    22519092.172
        44.700          32.700
 122837017.841 6  95717164.76843  23375107.719                    23375110.254
        41.400          22.600
 128068750.131 6  99793840.76143  24370673.188                    24370675.730
        41.500          23.300
 117443430.635 7  91514385.50245  22348743.906                    22348749.645
        43.700          31.400
 109806148.973 8  85563251.91946  20895415.836                    20895421.184
        51.600          41.400
 118619543.696 7  92430829.09045  22572548.758                    22572551.770
        45.800          31.900
 114339457.506 8  89095696.20045  21758076.156                    21758079.262
        49.000          32.600
 114504410.488 7  89224218.34345  21789464.727                    21789465.867
        44.300          32.000
 18  3 11 13 44 41.0000000  0 19R05R06G10G14G22R14R15R13R24R22R23G32
                                G11G28G01G24G12G17G19
                  88647178.339 5  21321371.430                    21321373.441
                        32.000
                  85341179.002 6  20562299.594                    20562300.727
                        37.700
 123641513.246 7  96344080.33344  23528205.242                    23528210.992
        42.100          29.300
 127020212.425 7  98976860.14643  24171152.281                    24171155.680
        42.800          22.600
 127213180.927 6  99127164.54044  24207865.328                    24207865.781
        40.500          24.900
                  80387041.299 6  19389093.359                    19389095.379
                        41.200
                  83334839.339 5  20050688.078                    20050691.094
                        35.800
                  92506108.104 5  22272971.531                    22272972.668
                        34.900
                  93812999.729 4  22555934.016                    22555934.746
                        25.600
                  89560620.129 6  21571357.734                    21571359.254
                        41.000
                  83684477.045 6  20113627.711                    20113631.793
                        36.700
 118336935.486 7  92210617.95645  22518770.953                    22518776.855
        45.800          33.700
 122840008.433 6  95719495.10143  23375676.219                    23375678.984
        41.500          22.300
 128072508.960 6  99796769.70743  24371388.117                    24371390.898
        41.500          23.800
 117444659.185 7  91515342.82145  22348977.180                    22348983.871
        43.300          32.200
 109807281.056 8  85564134.05946  20895631.227                    20895636.414
        51.700          41.300
 118616420.717 7  92428395.61045  22571954.391                    22571957.793
        45.500          30.900
 114339313.020 8  89095583.61745  21758048.648                    21758051.602
        48.600          32.600
 114502607.270 7  89222813.23945  21789122.094                    21789122.547
        45.000          32.400
 18  3 11 13 44 42.0000000  0 19R05R06G10G14G22R14R15R13R24R22R23G32
                                G11G28G01G24G12G17G19
                  88649920.562 5  21322030.773                    21322033.750
                        32.100
                  85340335.820 6  20562097.953                    20562097.598
                        37.900
 123644790.338 7  96346633.90644  23528829.414                    23528834.957
        42.100          29.800
 127017367.840 7  98974643.57743  24170610.883                    24170614.391
        42.700          22.900
 127210995.137 6  99125461.33944  24207448.883                    24207449.906
        40.500          25.900
                  80388193.013 6  19389370.602                    19389373.445
                        41.100
                  83333151.380 6  20050281.977                    20050284.977
                        36.100
                  92509698.085 5  22273835.188                    22273837.105
                        33.700
                  93809894.965 4  22555186.766                    22555187.926
                        25.600
                  89563503.047 6  21572050.719                    21572054.168
                        41.000
                  83683716.654 6  20113444.180                    20113449.063
                        36.400
 118335277.681 7  92209326.16045  22518455.203                    22518461.379
        45.500          33.400
 122842999.574 6  95721825.86043  23376245.461                    23376248.309
        41.300          23.300
 128076267.891 6  99799698.73343  24372104.000                    24372106.535
        41.800          23.800
 117445888.401 7  91516300.66145  22349210.148                    22349217.723
        42.400          31.800
 109808413.758 8  85565016.67546  20895846.430                    20895852.383
        51.400          41.300
 118613298.085 7  92425962.39645  22571360.211                    22571363.559
        45.500          30.900
 114339169.159 8  89095471.52145  21758021.156                    21758024.375
        48.900          33.000
 114500804.639 7  89221408.58745  21788777.789                    21788779.973
        43.800          32.000
 18  3 11 13 44 43.0000000  0 19R05R06G10G14G22R14R15R13R24R22R23G32
                                G11G28G01G24G12G17G19
                  88652663.364 5  21322690.734                    21322692.711
                        31.400
                  85339493.339 6  20561893.250                    20561894.980
                        37.400
 123648067.836 7  96349187.80044  23529453.227                    23529458.945
        42.700          29.800
 127014523.596 7  98972427.26843  24170069.789                    24170072.922
        42.000          23.000
 127208809.768 6  99123758.45844  24207032.766                    24207033.789
        40.000          24.900
                  80389345.424 6  19389648.672                    19389650.605
                        41.200
                  83331463.967 6  20049875.711                    20049878.281
                        36.200
                  92513288.304 5  22274698.820                    22274701.207
                        32.900
                  93806790.465 4  22554440.469                    22554441.250
                        24.900
                  89566386.442 6  21572746.969                    21572748.586
                        41.200
                  83682957.002 6  20113261.781                    20113265.730
                        36.500
 118333620.424 7  92208034.78945  22518138.805                    22518145.875
        44.500          33.400
 122845991.278 6  95724157.06343  23376813.961                    23376817.691
        40.600          23.000
 128080027.015 6  99802627.92343  24372818.648                    24372822.008
        41.400          22.600
 117447118.408 7  91517259.10945  22349444.086                    22349451.387
        42.500          30.600
 109809547.168 8  85565899.85046  20896061.984                    20896067.844
        51.600          41.400
 118610175.843 7  92423529.48145  22570766.250                    22570769.469
        46.000          31.400
 114339025.971 8  89095359.95345  21757994.328                    21757996.988
        49.000          33.200
 114499002.672 7  89220004.45445  21788434.414                    21788436.809
        42.600          31.400
 18  3 11 13 44 44.0000000  0 19R05R06G10G14G22R14R15R13R24R22R23G32
                                G11G28G01G24G12G17G19
                  88655406.646 5  21323351.711                    21323352.035
                        31.900
                  85338651.603 6  20561691.797                    20561691.270
                        38.000
 123651345.796 7  96351742.05644  23530076.688                    23530082.566
        42.800          29.600
 127011679.629 6  98970211.19243  24169528.008                    24169531.641
        41.400          23.600
 127206624.904 6  99122055.96244  24206617.125                    24206618.438
        40.100          25.000
                  80390498.489 6  19389927.258                    19389928.945
                        41.400
                  83329777.104 6  20049469.844                    20049472.742
                        36.100
                  92516878.876 5  22275561.992                    22275564.445
                        31.800
                  93803686.317 4  22553693.977                    22553694.695
                        24.900
                  89569270.330 6  21573441.742                    21573442.453
                        40.900
                  83682198.095 6  20113079.852                    20113084.074
                        36.300
 118331963.807 7  92206743.93145  22517824.844                    22517830.531
        46.000          33.100
 122848983.625 6  95726488.76843  23377382.773                    23377386.656
        40.100          23.300
 128083786.338 7  99805557.27343  24373534.008                    24373536.785
        42.200          22.800
 117448349.146 7  91518218.12045  22349679.383                    22349685.652
        42.200          31.000
 109810681.278 8  85566783.57646  20896278.141                    20896283.762
        51.800          41.500
 118607053.979 7  92421096.86345  22570171.977                    22570175.145
        45.800          31.800
 114338883.458 8  89095248.91345  21757967.492                    21757970.066
        49.100          32.400
 114497201.408 7  89218600.88945  21788092.594                    21788093.684
        44.400          32.400
 18  3 11 13 44 45.0000000  0 19R05R06G10G14G22R14R15R13R24R22R23G32
                                G11G28G01G24G12G17G19
                  88658150.515 5  21324011.172                    21324012.328
                        32.000
                  85337810.581 6  20561488.992                    20561489.453
                        37.900
 123654624.235 7  96354296.68345  23530700.820                    23530706.879
        43.000          30.200
 127008836.005 6  98967995.37743  24168987.219                    24168990.711
        40.600          22.300
 127204440.460 6  99120353.80144  24206201.258                    24206202.676
        39.700          24.700
                  80391652.214 6  19390204.461                    19390207.207
                        41.300
                  83328090.808 5  20049063.867                    20049067.203
                        35.300
                  92520469.680 5  22276427.344                    22276428.617
                        34.600
                  93800582.439 4  22552948.320                    22552948.609
                        25.400
                  89572154.770 6  21574135.422                    21574137.879
                        40.900
                  83681439.939 6  20112897.063                    20112901.305
                        36.600
 118330307.823 7  92205453.55445  22517510.641                    22517515.348
        46.500          33.200
 122851976.530 6  95728820.90143  23377952.578                    23377956.742
        39.600          22.300
 128087545.844 6  99808486.75643  24374249.750                    24374252.813
        41.600          22.300
 117449580.659 6  91519177.73145  22349914.141                    22349919.883
        41.700          30.600
 109811816.089 8  85567667.84046  20896494.570                    20896499.793
        51.200          41.400
 118603932.504 7  92418664.55345  22569578.422                    22569581.469
        45.900          31.300
 114338741.612 8  89095138.38845  21757939.852                    21757942.789
        48.400          31.800
 114495400.839 7  89217197.85445  21787750.367                    21787750.992
        44.900          32.300
 18  3 11 13 44 46.0000000  0 19R05R06G10G14G22R14R15R13R24R22R23G32
                                G11G28G01G24G12G17G19
                  88660894.912 5  21324670.063                    21324672.527
                        31.900
                  85336970.230 6  20561285.430                    20561286.723
                        37.800
 123657903.107 7  96356851.64945  23531324.523                    23531331.355
        43.400          30.900
 127005992.697 6  98965779.82043  24168445.492                    24168449.172
        39.800          22.200
 127202256.428 6  99118651.96344  24205785.313                    24205787.227
        38.700          26.000
                  80392806.551 6  19390483.578                    19390485.867
                        41.400
                  83326405.048 5  20048658.242                    20048661.781
                        35.900
                  92524060.677 5  22277292.555                    22277293.781
                        35.300
                  93797478.896 3  22552200.961                    22552202.094
                        22.500
                  89575039.691 6  21574829.953                    21574832.598
                        41.300
                  83680682.515 6  20112715.133                    20112719.145
                        36.400
 118328652.380 7  92204163.58145  22517194.109                    22517200.391
        45.400          33.200
 122854969.971 6  95731153.44243  23378522.477                    23378526.375
        39.400          22.200
 128091305.505 6  99811416.36243  24374965.352                    24374968.004
        41.800          23.400
 117450812.869 6  91520137.89845  22350147.375                    22350154.711
        40.700          31.300
 109812951.570 8  85568552.63146  20896710.656                    20896716.176
        51.100          41.300
 118600811.419 7  92416232.53845  22568983.781                    22568987.375
        45.900          30.900
 114338600.418 8  89095028.36845  21757913.430                    21757915.918
        48.500          31.800
 114493600.943 7  89215795.33445  21787407.180                    21787408.996
        44.100          32.600
 18  3 11 13 44 47.0000000  0 19R05R06G10G14G22R14R15R13R24R22R23G32
                                G11G28G01G24G12G17G19
                  88663639.832 5  21325331.398                    21325332.605
                        32.100
                  85336130.603 6  20561085.156                    20561084.820
                        37.800
 123661182.390 7  96359406.93444  23531948.508                    23531954.863
        43.500          29.800
 127003149.635 6  98963564.45743  24167904.648                    24167908.344
        40.000          21.800
 127200072.838 6  99116950.46443  24205370.977                    24205371.648
        39.400          22.800
                  80393961.533 6  19390761.727                    19390764.242
                        40.900
                  83324719.825 5  20048252.656                    20048256.469
                        35.900
                  92527651.897 5  22278157.820                    22278159.445
                        35.600
                  93794375.600 4  22551455.406                    22551456.762
                        25.400
                  89577925.119 6  21575525.313                    21575527.094
                        41.000
                  83679925.806 6  20112533.266                    20112537.559
                        36.700
 118326997.518 7  92202874.06345  22516879.039                    22516885.105
        45.600          33.800
 122857963.997 6  95733486.44243  23379093.094                    23379095.938
        39.800          22.200
 128095065.350 6  99814346.10143  24375680.344                    24375683.211
        41.600          23.400
 117452045.841 6  91521098.65845  22350382.063                    22350389.262
        40.300          31.500
 109814087.729 8  85569437.95146  20896926.523                    20896932.156
        51.300          41.200
 118597690.677 7  92413800.78945  22568390.477                    22568393.688
        46.100          31.000
 114338459.873 8  89094918.85745  21757886.539                    21757889.215
        48.800          31.900
 114491801.632 7  89214393.26045  21787063.828                    21787066.594
        43.000          31.200
 18  3 11 13 44 48.0000000  0 19R05R06G10G14G22R14R15R13R24R22R23G32
                                G11G28G01G24G12G17G19
                  88666385.309 5  21325990.953                    21325993.051
                        31.700
                  85335291.660 6  20560881.578                    20560882.566
                        37.900
 123664462.130 7  96361962.57445  23532572.977                    23532579.348
        43.200          30.200
 127000306.924 6  98961349.38343  24167363.359                    24167367.438
        39.400          21.700
 127197889.673 6  99115249.28144  24204954.672                    24204955.793
        39.400          25.300
                  80395117.183 6  19391040.641                    19391043.152
                        41.000
                  83323035.152 5  20047848.719                    20047850.746
                        35.700
                  92531243.336 5  22279022.289                    22279024.688
                        35.400
                  93791272.620 4  22550708.945                    22550710.137
                        25.400
                  89580811.012 6  21576221.328                    21576222.387
                        41.100
                  83679169.820 6  20112351.789                    20112356.023
                        36.800
 118325343.307 7  92201585.06045  22516565.406                    22516570.730
        46.900          33.800
 122860958.563 6  95735819.88543  23379662.898                    23379665.711
        40.400          23.200
 128098825.375 6  99817275.99143  24376396.492                    24376398.781
        41.600          22.800
 117453279.584 6  91522060.00945  22350617.188                    22350623.734
        41.100          30.900
 109815224.581 8  85570323.80946  20897142.461                    20897148.387
        51.100          41.400
 118594570.348 7  92411369.35745  22567796.016                    22567799.934
        45.500          31.300
 114338319.984 8  89094809.85845  21757860.328                    21757862.695
        48.900          32.500
 114490003.027 7  89212991.75745  21786722.281                    21786724.211
        44.200          31.800
 18  3 11 13 44 49.0000000  0 19R05R06G10G14G22R14R15R13R24R22R23G32
                                G11G28G01G24G12G17G19
                  88669131.242 5  21326651.484                    21326653.766
                        32.100
                  85334453.351 6  20560679.930                    20560679.906
                        37.300
 123667742.262 7  96364518.52845  23533196.594                    23533203.465
        43.600          30.400
 126997464.476 6  98959134.51743  24166822.391                    24166826.547
        39.900          20.600
 127195706.866 6  99113548.39444  24204539.844                    24204540.898
        39.800          25.300
                  80396273.453 6  19391320.133                    19391321.988
                        41.200
                  83321350.965 5  20047442.891                    20047445.895
                        35.800
                  92534834.971 5  22279887.523                    22279889.430
                        34.000
                  93788169.863 4  22549964.820                    22549964.711
                        24.200
                  89583697.359 6  21576916.273                    21576917.324
                        41.100
                  83678414.532 6  20112169.797                    20112174.184
                        36.600
 118323689.601 7  92200296.44745  22516250.016                    22516256.031
        45.800          33.300
 122863953.598 6  95738153.68543  23380233.063                    23380235.273
        41.100          22.200
 128102585.495 6  99820205.94543  24377111.695                    24377114.473
        41.300          22.200
 117454513.982 6  91523021.87345  22350852.617                    22350858.625
        41.600          30.900
 109816362.044 8  85571210.13646  20897358.953                    20897364.926
        51.100          41.400
 118591450.304 7  92408938.15745  22567202.352                    22567205.730
        45.200          31.400
 114338180.706 8  89094701.33745  21757833.578                    21757836.359
        48.400          32.700
 114488205.026 7  89211590.73145  21786380.922                    21786382.098
        45.100          32.500
 18  3 11 13 44 50.0000000  0 19R05R06G10G14G22R14R15R13R24R22R23G32
                                G11G28G01G24G12G17G19
                  88671877.747 5  21327311.445                    21327313.918
                        31.600
                  85333615.816 6  20560477.758                    20560478.656
                        37.600
 123671022.874 7  96367074.85145  23533821.320                    23533828.051
        43.400          30.200
 126994622.339 6  98956919.89443  24166282.016                    24166285.551
        39.800          20.400
 127193524.577 6  99111847.91144  24204124.422                    24204125.645
        40.400          24.500
                  80397430.401 6  19391598.484                    19391601.148
                        41.000
                  83319667.351 5  20047037.813                    20047041.184
                        35.700
                  92538427.005 5  22280749.805                    22280753.605
                        32.900
                  93785067.403 3  22549216.414                    22549218.434
                        23.200
                  89586584.248 6  21577611.680                    21577613.480
                        41.100
                  83677659.992 6  20111988.461                    20111993.066
                        36.800
 118322036.524 7  92199008.32345  22515934.438                    22515941.633
        45.000          33.200
 122866949.263 6  95740487.99643  23380802.883                    23380805.230
        41.100          23.000
 128106345.846 6  99823136.09843  24377827.500                    24377830.035
        41.600          22.300
 117455749.179 6  91523984.36545  22351087.430                    22351093.988
        41.200          30.500
 109817500.237 8  85572097.03646  20897575.867                    20897581.316
        51.200          41.300
 118588330.672 7  92406507.27945  22566608.945                    22566612.566
        45.200          31.900
 114338042.128 8  89094593.35345  21757806.766                    21757809.914
        48.000          33.500
 114486407.750 7  89210190.26645  21786039.055                    21786039.859
        44.900          32.800
 18  3 11 13 44 51.0000000  0 19R05R06G10G14G22R14R15R13R24R22R23G32
                                G11G28G01G24G12G17G19
                  88674624.808 5  21327972.734                    21327974.895
                        31.600
                  85332778.960 6  20560275.250                    20560277.484
                        37.500
 123674303.970 7  96369631.55044  23534445.930                    23534452.230
        43.100          29.800
 126991780.574 6  98954705.54743  24165741.125                    24165744.633
        39.800          20.600
 127191342.692 6  99110147.74444  24203709.172                    24203709.941
        40.500          24.200
                  80398588.029 6  19391878.047                    19391880.695
                        41.200
                  83317984.303 6  20046632.680                    20046636.063
                        36.200
                  92542019.229 5  22281615.023                    22281617.496
                        32.900
                  93781965.295 3  22548471.367                    22548472.941
                        23.000
                  89589471.646 6  21578305.438                    21578309.039
                        40.900
                  83676906.217 6  20111807.953                    20111811.527
                        36.900
 118320384.079 7  92197720.71345  22515620.969                    22515626.660
        46.100          33.100
 122869945.493 6  95742822.72743  23381372.828                    23381375.898
        41.000          22.900
 128110106.401 6  99826066.39343  24378542.930                    24378545.805
        41.700          23.000
 117456985.115 6  91524947.43544  22351321.109                    22351328.895
        40.200          29.800
 109818639.153 8  85572984.50346  20897792.727                    20897797.992
        51.600          41.300
 118585211.460 7  92404076.73245  22566014.883                    22566019.219
        45.300          31.500
 114337904.215 8  89094485.88445  21757780.781                    21757783.680
        48.500          32.800
 114484611.164 7  89208790.32745  21785696.680                    21785698.578
        45.100          33.400
 18  3 11 13 44 52.0000000  0 19R05R06G10G14G22R14R15R13R24R22R23G32
                                G11G28G01G24G12G17G19
                  88677372.379 5  21328633.703                    21328635.340
                        32.000
                  85331942.871 6  20560074.813                    20560075.605
                        37.500
 123677585.494 7  96372188.58445  23535070.063                    23535076.691
        42.600          30.000
 126988939.104 6  98952491.40643  24165200.375                    24165203.902
        40.500          21.100
 127189161.293 6  99108447.95843  24203294.313                    24203295.289
        40.000          23.400
                  80399746.306 6  19392157.422                    19392159.934
                        41.000
                  83316301.791 6  20046227.367                    20046231.133
                        36.200
                  92545611.675 5  22282484.391                    22282482.164
                        34.400
                  93778863.402 3  22547725.695                    22547726.852
                        22.100
                  89592359.585 6  21579001.828                    21579003.676
                        41.000
                  83676153.158 6  20111626.273                    20111630.613
                        36.700
 118318732.231 7  92196433.56345  22515307.297                    22515312.742
        46.000          34.000
 122872942.358 6  95745157.94343  23381942.547                    23381946.352
        40.100          22.800
 128113867.144 6  99828996.84443  24379258.453                    24379261.363
        41.200          23.800
 117458221.810 6  91525911.07945  22351558.195                    22351564.258
        40.700          31.600
 109819778.754 8  85573872.50646  20898009.172                    20898014.645
        51.200          41.400
 118582092.643 7  92401646.50145  22565421.813                    22565425.676
        45.500          31.600
 114337766.979 8  89094378.95045  21757755.000                    21757757.453
        48.500          32.600
 114482815.212 7  89207390.88245  21785354.234                    21785356.500
        44.700          32.600
 18  3 11 13 44 53.0000000  0 19R05R06G10G14G22R14R15R13R24R22R23G32
                                G11G28G01G24G12G17G19
                  88680120.450 5  21329295.180                    21329296.457
                        32.500
                  85331107.452 6  20559873.805                    20559874.535
                        37.500
 123680867.433 6  96374745.93544  23535693.672                    23535701.211
        41.900          29.900
 126986097.912 6  98950277.46343  24164659.625                    24164663.070
        41.000          20.900
 127186980.234 6  99106748.42344  24202879.000                    24202880.074
        40.500          26.700
                  80400905.172 6  19392436.703                    19392439.125
                        41.000
                  83314619.778 6  20045823.273                    20045825.883
                        36.400
                  92549204.285 5  22283350.047                    22283347.723
                        35.600
                  93775761.755 3  22546979.328                    22546980.898
                        22.800
                  89595247.929 6  21579698.547                    21579699.484
                        40.600
                  83675400.784 6  20111445.297                    20111449.707
                        36.500
 118317080.900 7  92195146.80545  22514991.688                    22514998.465
        44.300          33.600
 122875939.695 6  95747493.51343  23382512.906                    23382516.660
        40.000          22.800
 128117627.985 6  99831927.36643  24379974.320                    24379977.293
        41.300          22.600
 117459459.157 7  91526875.24445  22351794.945                    22351799.938
        42.000          31.400
 109820918.975 8  85574760.98546  20898226.289                    20898231.930
        50.900          41.600
 118578974.139 7  92399216.49745  22564828.422                    22564831.941
        45.700          31.900
 114337630.354 8  89094272.48645  21757729.172                    21757731.289
        48.900          33.200
 114481019.865 7  89205991.92145  21785012.477                    21785014.570
        44.200          32.800
 18  3 11 13 44 54.0000000  0 19R05R06G10G14G22R14R15R13R24R22R23G32
                                G11G28G01G24G12G17G19
                  88682869.049 5  21329956.141                    21329957.316
                        31.800
                  85330272.705 6  20559672.156                    20559672.930
                        37.400
 123684149.740 6  96377303.56544  23536318.703                    23536325.750
        41.200          29.600
 126983256.967 6  98948063.70843  24164119.828                    24164122.387
        40.900          20.900
 127184799.617 6  99105049.23744  24202464.297                    24202464.918
        40.900          25.800
                  80402064.664 6  19392717.188                    19392719.246
                        40.800
                  83312938.267 6  20045418.039                    20045422.125
                        36.500
                  92552797.152 5  22284212.641                    22284213.258
                        35.600
                  93772660.392 3  22546234.813                    22546235.445
                        22.700
                  89598136.740 6  21580394.922                    21580395.512
                        41.000
                  83674649.113 6  20111265.398                    20111269.527
                        36.700
 118315430.109 7  92193860.49145  22514678.039                    22514683.875
        44.700          33.300
 122878937.569 6  95749829.49543  23383083.359                    23383087.328
        39.900          23.800
 128121389.002 6  99834858.03143  24380689.766                    24380692.723
        41.700          22.600
 117460697.222 7  91527839.97845  22352030.555                    22352035.699
        42.700          31.800
 109822059.856 8  85575649.97946  20898443.570                    20898448.855
        51.000          41.500
 118575855.952 7  92396786.74545  22564235.242                    22564238.641
        45.700          31.600
 114337494.339 8  89094166.50445  21757703.305                    21757705.582
        49.000          33.600
 114479225.180 7  89204593.47345  21784671.758                    21784672.988
        44.700          31.600
 18  3 11 13 44 55.0000000  0 19R05R06G10G14G22R14R15R13R24R22R23G32
                                G11G28G01G24G12G17G19
                  88685618.178 5  21330616.961                    21330619.000
                        32.400
                  85329438.694 6  20559471.813                    20559471.887
                        37.600
 123687432.550 6  96379861.59844  23536943.000                    23536950.383
        41.100          29.300
 126980416.398 6  98945850.25143  24163578.891                    24163581.848
        41.700          20.900
 127182619.440 6  99103350.38844  24202049.531                    24202050.301
        40.900          24.600
                  80403224.842 6  19392995.859                    19392998.941
                        40.900
                  83311257.320 6  20045013.820                    20045017.469
                        36.000
                  92556390.310 5  22285074.789                    22285079.520
                        35.100
                  93769559.351 3  22545489.070                    22545489.938
                        22.800
                  89601026.112 6  21581088.039                    21581091.750
                        41.000
                  83673898.170 6  20111084.734                    20111088.941
                        37.000
 118313779.968 7  92192574.67645  22514365.367                    22514369.926
        46.700          33.100
 122881936.028 6  95752165.94043  23383653.891                    23383657.645
        39.600          22.500
 128125150.202 6  99837788.83543  24381405.625                    24381408.445
        41.200          22.000
 117461936.063 6  91528805.33345  22352264.047                    22352271.750
        41.100          31.600
 109823201.447 8  85576539.53246  20898660.547                    20898666.484
        50.800          41.500
 118572738.183 7  92394357.31345  22563642.336                    22563645.375
        45.900          31.500
 114337359.024 8  89094061.06045  21757676.844                    21757680.020
        48.900          33.200
 114477431.194 7  89203195.56945  21784330.742                    21784331.621
        45.400          32.600
 18  3 11 13 44 56.0000000  0 19R05R06G10G14G22R14R15R13R24R22R23G32
                                G11G28G01G24G12G17G19
                  88688367.888 5  21331278.008                    21331279.855
                        31.900
                  85328605.414 6  20559270.844                    20559271.020
                        38.000
 123690715.796 6  96382419.96944  23537567.680                    23537575.457
        41.400          28.000
 126977576.168 6  98943637.07343  24163038.250                    24163041.156
        41.600          22.000
 127180439.690 6  99101651.86744  24201634.352                    24201635.141
        40.900          25.100
                  80404385.661 6  19393276.250                    19393278.531
                        41.000
                  83309576.961 6  20044610.258                    20044612.922
                        36.200
                  92559983.725 5  22285939.570                    22285943.941
                        34.600
                  93766458.594 3  22544742.773                    22544744.066
                        23.200
                  89603916.004 6  21581784.906                    21581787.297
                        40.800
                  83673147.988 6  20110903.953                    20110908.652
                        36.400
 118312130.445 7  92191289.33345  22514051.242                    22514056.473
        46.400          33.700
 122884935.072 6  95754502.82643  23384225.516                    23384228.230
        40.300          22.000
 128128911.584 6  99840719.77543  24382120.938                    24382124.387
        41.300          22.900
 117463175.703 6  91529771.30045  22352498.250                    22352507.344
        38.500          30.200
 109824343.738 8  85577429.62946  20898878.250                    20898883.484
        50.800          41.400
 118569620.841 7  92391928.21145  22563048.914                    22563052.426
        46.100          32.200
 114337224.373 8  89093956.14545  21757650.938                    21757654.215
        48.800          32.800
 114475637.895 7  89201798.19345  21783989.102                    21783990.754
        45.800          31.800
 18  3 11 13 44 57.0000000  0 19R05R06G10G14G22R14R15R13R24R22R23G32
                                G11G28G01G24G12G17G19
                  88691118.075 5  21331939.648                    21331941.359
                        31.700
                  85327772.790 6  20559070.109                    20559070.594
                        37.700
 123693999.459 6  96384978.66944  23538192.992                    23538199.848
        41.100          28.800
 126974736.155 7  98941424.08043  24162498.156                    24162500.863
        42.100          22.900
 127178260.344 6  99099953.67644  24201220.039                    24201220.559
        41.100          25.800
                  80405547.111 6  19393556.609                    19393559.191
                        41.300
                  83307897.097 6  20044205.516                    20044208.941
                        37.000
                  92563577.234 5  22286807.719                    22286808.254
                        34.000
                  93763358.111 4  22543996.953                    22543998.879
                        24.000
                  89606806.298 6  21582483.617                    21582483.660
                        41.400
                  83672398.513 6  20110724.531                    20110728.301
                        36.800
 118310481.458 7  92190004.39045  22513736.836                    22513742.672
        46.400          34.000
 122887934.645 6  95756840.16443  23384795.742                    23384799.266
        40.600          21.800
 128132673.112 6  99843650.83743  24382837.141                    24382840.199
        41.700          22.600
 117464416.060 6  91530737.79645  22352736.281                    22352743.137
        39.200          30.900
 109825486.678 8  85578320.22546  20899095.953                    20899101.078
        51.000          41.300
 118566503.816 7  92389499.36245  22562455.492                    22562459.063
        45.900          31.400
 114337090.348 8  89093851.71445  21757626.313                    21757628.867
        49.400          33.100
 114473845.191 7  89200401.27445  21783647.203                    21783649.613
        43.700          32.100
 18  3 11 13 44 58.0000000  0 19R05R06G10G14G22R14R15R13R24R22R23G32
                                G11G28G01G24G12G17G19
                  88693868.843 5  21332601.484                    21332603.129
                        31.400
                  85326940.955 6  20558870.828                    20558870.277
                        37.400
 123697283.624 6  96387537.75944  23538817.109                    23538825.352
        41.400          27.200
 126971896.529 6  98939211.37543  24161958.102                    24161960.215
        41.500          22.800
 127176081.467 6  99098255.83944  24200804.625                    24200805.781
        40.800          27.000
                  80406709.239 6  19393836.594                    19393838.895
                        41.700
                  83306217.818 6  20043801.758                    20043804.941
                        36.500
                  92567171.002 5  22287676.852                    22287673.691
                        33.600
                  93760257.913 3  22543251.445                    22543253.180
                        22.100
                  89609697.122 6  21583179.039                    21583180.160
                        40.900
                  83671649.798 6  20110544.063                    20110548.652
                        36.600
 118308833.131 7  92188719.96345  22513423.250                    22513428.895
        46.600          32.700
 122890934.824 6  95759177.99243  23385367.125                    23385370.203
        41.400          21.100
 128136434.874 6  99846582.07643  24383553.297                    24383556.113
        41.500          22.300
 117465657.174 6  91531704.85845  22352974.406                    22352979.039
        41.600          31.400
 109826630.361 8  85579211.40146  20899313.227                    20899318.848
        51.500          41.500
 118563387.226 7  92387070.84245  22561862.383                    22561866.184
        45.900          32.100
 114336957.023 8  89093747.82845  21757601.039                    21757603.734
        49.100          32.800
 114472053.173 7  89199004.89845  21783306.469                    21783308.234
        44.100          31.800
 18  3 11 13 44 59.0000000  0 19R05R06G10G14G22R14R15R13R24R22R23G32
                                G11G28G01G24G12G17G19
                  88696620.126 5  21333264.375                    21333265.484
                        32.300
                  85326109.776 6  20558668.445                    20558670.141
                        37.900
 123700568.200 6  96390097.15944  23539442.961                    23539450.055
        40.700          27.500
 126969057.195 6  98936998.90844  24161417.891                    24161420.324
        41.300          24.700
 127173903.041 6  99096558.35544  24200390.031                    24200391.586
        40.000          25.800
                  80407872.004 6  19394117.180                    19394119.098
                        41.800
                  83304539.098 6  20043397.875                    20043400.824
                        36.400
                  92570765.070 5  22288540.719                    22288539.234
                        33.400
                  93757158.029 3  22542506.453                    22542508.363
                        22.500
                  89612588.489 6  21583873.227                    21583876.047
                        41.200
                  83670901.835 6  20110364.375                    20110368.563
                        36.700
 118307185.394 7  92187435.99345  22513109.648                    22513115.496
        46.000          33.300
 122893935.537 6  95761516.22943  23385937.688                    23385940.855
        41.100          21.300
 128140196.782 7  99849513.44144  24384268.844                    24384271.703
        42.000          24.700
 117466898.964 7  91532672.47545  22353211.406                    22353215.328
        42.900          31.000
 109827774.731 8  85580103.11546  20899531.133                    20899536.453
        51.500          41.200
 118560270.996 7  92384642.61245  22561269.203                    22561273.336
        46.000          31.500
 114336824.376 8  89093644.46245  21757575.500                    21757578.203
        48.800          32.400
 114470261.827 7  89197609.05945  21782966.313                    21782967.383
        44.900          32.400
 18  3 11 13 45  0.0000000  0 19R05R06G10G14G22R14R15R13R24R22R23G32
                                G11G28G01G24G12G17G19
                  88699371.922 5  21333926.047                    21333927.113
                        31.900
                  85325279.313 6  20558469.695                    20558469.723
                        37.700
 123703853.219 6  96392656.90944  23540067.734                    23540074.996
        40.700          26.900
 126966218.188 6  98934786.70744  24160877.586                    24160880.340
        40.800          24.300
 127171725.055 6  99094861.24144  24199976.148                    24199977.234
        40.800          27.000
                  80409035.400 6  19394397.711                    19394399.813
                        41.800
                  83302860.894 6  20042994.117                    20042997.621
                        36.700
                  92574359.427 5  22289403.367                    22289404.688
                        34.400
                  93754058.419 3  22541761.250                    22541763.188
                        22.700
                  89615480.327 6  21584570.266                    21584572.746
                        41.300
                  83670154.565 6  20110185.156                    20110189.332
                        36.300
 118305538.193 7  92186152.43845  22512794.195                    22512801.609
        44.300          32.700
 122896936.820 6  95763854.89743  23386508.742                    23386511.832
        41.400          22.500
 128143958.857 6  99852444.93844  24384984.758                    24384987.859
        41.600          24.700
 117468141.504 7  91533640.70745  22353446.359                    22353452.270
        42.400          31.500
 109828919.786 8  85580995.36446  20899749.063                    20899754.508
        51.500          41.300
 118557155.134 7  92382214.67845  22560676.656                    22560679.934
        45.800          31.700
 114336692.340 8  89093541.57445  21757550.531                    21757553.031
        49.300          32.500
 114468471.186 7  89196213.76245  21782625.969                    21782626.859
        45.500          32.500
 18  3 11 13 45  1.0000000  0 19R05R06G10G14G22R14R15R13R24R22R23G32
                                G11G28G01G24G12G17G19
                  88702124.299 5  21334587.453                    21334589.215
                        31.900
                  85324449.578 6  20558270.852                    20558270.121
                        38.300
 123707138.737 6  96395217.05444  23540692.313                    23540699.898
        40.600          26.700
 126963379.518 6  98932574.77643  24160336.742                    24160340.008
        39.900          22.800
 127169547.531 6  99093164.48944  24199561.336                    24199563.316
        40.900          27.000
                  80410199.486 6  19394678.508                    19394681.199
                        41.500
                  83301183.271 6  20042590.242                    20042593.684
                        36.200
                  92577954.138 5  22290266.859                    22290269.852
                        35.100
                  93750959.121 3  22541016.422                    22541017.832
                        21.900
                  89618372.678 6  21585268.055                    21585269.336
                        41.000
                  83669408.064 6  20110004.656                    20110009.766
                        36.400
 118303891.613 7  92184869.39545  22512482.695                    22512488.520
        45.400          32.900
 122899938.717 6  95766194.03643  23387080.602                    23387083.363
        41.000          23.600
 128147721.165 7  99855376.59543  24385700.563                    24385703.590
        42.200          22.000
 117469384.860 6  91534609.58745  22353681.023                    22353689.207
        40.400          31.400
 109830065.571 8  85581888.18146  20899966.773                    20899972.559
        51.300          41.400
 118554039.712 7  92379787.08645  22560083.711                    22560087.070
        45.800          31.100
 114336561.051 8  89093439.26845  21757525.484                    21757527.980
        49.100          32.100
 114466681.241 7  89194818.99645  21782284.813                    21782286.336
        44.800          32.300
 18  3 11 13 45  2.0000000  0 19R05R06G10G14G22R14R15R13R24R22R23G32
                                G11G28G01G24G12G17G19
                  88704877.198 5  21335249.531                    21335250.906
                        31.800
                  85323620.509 6  20558070.086                    20558070.594
                        37.900
 123710424.680 6  96397777.52644  23541318.273                    23541325.355
        40.200          25.400
 126960541.142 6  98930363.06243  24159796.766                    24159800.105
        40.000          23.000
 127167370.418 6  99091468.05144  24199147.508                    24199148.691
        40.500          28.000
                  80411364.194 6  19394959.875                    19394961.406
                        41.200
                  83299506.168 6  20042186.977                    20042190.102
                        36.000
                  92581548.912 5  22291134.406                    22291135.449
                        34.900
                                  22540271.609

                  89621265.521 6  21585964.523                    21585966.047
                        40.900
                  83668662.277 6  20109826.961                    20109830.621
                        36.900
 118302245.644 7  92183586.82645  22512171.000                    22512175.477
        46.100          34.400
 122902941.125 6  95768533.58143  23387650.953                    23387654.395
        41.100          22.200
 128151483.595 7  99858308.35943  24386416.461                    24386419.777
        42.500          22.600
 117470629.002 6  91535579.06245  22353917.109                    22353925.445
        39.800          31.500
 109831212.013 8  85582781.51146  20900184.492                    20900190.609
        51.100          41.200
 118550924.632 7  92377359.75745  22559490.891                    22559494.254
        46.000          31.400
 114336430.355 8  89093337.42945  21757499.992                    21757503.137
        48.900          32.500
 114464891.896 7  89193424.69745  21781942.797                    21781945.602
        42.600          32.400
 18  3 11 13 45  3.0000000  0 19R05R06G10G14G22R14R15R13R24R22R23G32
                                G11G28G01G24G12G17G19
                  88707630.611 5  21335912.461                    21335913.125
                        32.500
                  85322792.190 6  20557870.492                    20557870.582
                        38.200
 123713711.070 6  96400338.36044  23541943.391                    23541950.621
        39.900          25.700
 126957703.046 6  98928151.57443  24159256.438                    24159259.809
        39.400          21.300
 127165193.757 6  99089771.96044  24198732.945                    24198734.617
        40.500          27.100
                  80412529.560 6  19395240.602                    19395242.617
                        40.900
                  83297829.618 6  20041783.789                    20041786.852
                        36.300
                  92585143.867 5  22292003.086                    22292001.863
                        34.700
                                  22539525.930

                  89624158.879 6  21586661.289                    21586663.262
                        40.600
                  83667917.205 6  20109646.414                    20109651.301
                        36.800
 118300600.236 7  92182304.65745  22511856.164                    22511862.402
        44.500          34.200
 122905944.137 6  95770873.59244  23388222.563                    23388225.910
        40.800          24.800
 128155246.250 7  99861240.28444  24387132.516                    24387135.395
        42.600          24.300
 117471873.819 6  91536549.02345  22354156.102                    22354162.223
        41.400          31.200
 109832359.154 8  85583675.38646  20900403.531                    20900408.930
        51.600          41.600
 118547809.930 7  92374932.71445  22558898.367                    22558901.820
        45.700          32.400
 114336300.360 8  89093236.13545  21757475.773                    21757478.477
        49.300          32.600
 114463103.226 7  89192030.94245  21781603.445                    21781604.754
        43.700          33.200
 18  3 11 13 45  4.0000000  0 19R05R06G10G14G22R14R15R13R24R22R23G32
                                G11G28G01G24G12G17G19
                  88710384.620 5  21336573.672                    21336575.238
                        32.700
                  85321964.595 6  20557671.375                    20557671.078
                        38.000
 123716997.914 6  96402899.54144  23542569.023                    23542575.652
        40.300          26.200
 126954865.352 6  98925940.38343  24158715.688                    24158719.977
        38.600          22.000
 127163017.566 6  99088076.22544  24198318.773                    24198320.105
        40.100          25.300
                  80413695.608 6  19395523.008                    19395524.355
                        40.600
                  83296153.640 6  20041380.141                    20041383.625
                        36.400
                  92588739.150 5  22292869.398                    22292867.609
                        34.500
                                  22538781.086

                  89627052.728 6  21587359.164                    21587360.379
                        40.900
                  83667172.909 6  20109468.273                    20109472.324
                        37.400
 118298955.433 7  92181022.94445  22511542.266                    22511549.332
        43.800          32.900
 122908947.755 6  95773214.06143  23388793.742                    23388797.531
        40.200          23.300
 128159009.098 7  99864172.36944  24387849.016                    24387851.543
        42.300          24.600
 117473119.389 7  91537519.57745  22354394.281                    22354399.422
        42.300          30.800
 109833507.018 8  85584569.82546  20900622.117                    20900627.496
        51.600          41.400
 118544695.658 7  92372506.00445  22558305.211                    22558309.004
        45.500          32.400
 114336171.062 8  89093135.37945  21757451.563                    21757453.852
        49.300          33.200
 114461315.296 7  89190637.77045  21781264.617                    21781264.883
        45.000          32.900
 18  3 11 13 45  5.0000000  0 19R05R06G10G14G22R14R15R13R24R22R23G32
                                G11G28G01G24G12G17G19
                  88713139.070 5  21337237.461                    21337237.527
                        32.000
                  85321137.670 6  20557472.336                    20557472.074
                        37.500
 123720285.165 6  96405461.04644  23543195.250                    23543200.695
        41.200          27.200
 126952027.871 6  98923729.36443  24158175.422                    24158180.047
        37.900          21.300
 127160841.721 6  99086380.76644  24197904.508                    24197906.012
        40.900          25.800
                  80414862.289 6  19395803.664                    19395805.566
                        40.500
                  83294478.140 6  20040976.914                    20040980.160
                        36.500
                  92592334.635 5  22293733.242                    22293733.176
                        34.200
                                  22538034.695

                  89629947.075 6  21588054.875                    21588057.969
                        41.100
                  83666429.297 6  20109289.898                    20109293.863
                        37.200
 118297311.180 7  92179741.67745  22511230.797                    22511236.145
        45.200          33.200
 122911951.884 6  95775554.90843  23389365.820                    23389369.738
        40.500          23.400
 128162772.074 7  99867104.54343  24388564.898                    24388567.688
        42.700          22.600
 117474365.666 7  91538490.69645  22354630.594                    22354637.156
        42.900          31.200
 109834655.515 8  85585464.75846  20900841.000                    20900846.109
        51.700          41.400
 118541581.688 7  92370079.53245  22557713.133                    22557716.457
        45.500          33.000
 114336042.347 8  89093035.07545  21757426.469                    21757429.234
        49.100          32.300
 114459527.995 7  89189245.06845  21780924.031                    21780924.883
        44.700          32.900
 18  3 11 13 45  6.0000000  0 19R05R06G10G14G22R14R15R13R24R22R23G32
                                G11G28G01G24G12G17G19
                  88715894.039 5  21337899.516                    21337901.156
                        31.300
                  85320311.476 6  20557272.602                    20557272.984
                        37.600
 123723572.848 7  96408022.88244  23543821.063                    23543826.047
        42.100          26.700
 126949190.703 6  98921518.60243  24157635.680                    24157640.121
        37.700          20.400
 127158666.303 6  99084685.64744  24197491.352                    24197492.543
        40.800          25.800
                  80416029.633 6  19396085.164                    19396087.430
                        40.800
                  83292803.198 6  20040574.336                    20040577.352
                        36.200
                  92595930.439 5  22294595.797                    22294598.762
                        33.600
                                  22537291.633

                  89632841.901 6  21588752.094                    21588754.762
                        41.200
                  83665686.401 6  20109110.352                    20109115.016
                        37.500
 118295667.561 7  92178460.89845  22510917.547                    22510923.797
        45.400          33.000
 122914956.571 6  95777896.20443  23389937.531                    23389941.285
        40.600          22.800
 128166535.227 7  99870036.85443  24389281.383                    24389284.102
        42.400          23.200
 117475612.671 7  91539462.39745  22354866.883                    22354874.426
        42.700          31.900
 109835804.653 8  85586360.18246  20901059.367                    20901064.590
        51.700          41.500
 118538468.111 7  92367653.37645  22557121.047                    22557124.262
        45.900          32.300
 114335914.297 8  89092935.30145  21757402.039                    21757404.879
        49.200          32.900
 114457741.291 7  89187852.82045  21780582.602                    21780584.746
        43.100          32.300
 18  3 11 13 45  7.0000000  0 19R05R06G10G14G22R14R15R13R24R22R23G32
                                G11G28G01G24G12G17G19
                  88718649.538 5  21338561.539                    21338563.230
                        31.800
                  85319485.967 6  20557073.430                    20557073.875
                        37.600
 123726860.947 7  96410585.04644  23544447.203                    23544451.988
        42.600          27.000
 126946353.807 6  98919308.04643  24157095.039                    24157099.801
        38.100          19.300
 127156491.331 6  99082990.86244  24197076.711                    24197078.027
        41.300          25.800
                  80417197.605 6  19396366.922                    19396368.727
                        40.400
                  83291128.771 6  20040171.156                    20040174.293
                        36.000
                  92599526.490 5  22295461.969                    22295464.313
                        34.400
                                  22536546.375

                  89635737.193 6  21589451.141                    21589451.453
                        41.500
                  83664944.251 6  20108933.211                    20108936.770
                        37.500
 118294024.467 7  92177180.53545  22510604.313                    22510610.941
        44.700          32.600
 122917961.776 6  95780237.92443  23390510.375                    23390513.289
        41.100          22.600
 128170298.485 7  99872969.26144  24389997.531                    24390000.004
        42.100          24.500
 117476860.441 7  91540434.69845  22355103.859                    22355111.422
        42.600          31.500
 109836954.477 8  85587256.14946  20901277.555                    20901283.504
        51.800          41.400
 118535354.873 7  92365227.48345  22556528.414                    22556531.789
        46.000          32.300
 114335786.888 8  89092836.01945  21757377.688                    21757380.523
        49.100          32.800
 114455955.239 7  89186461.09245  21780242.609                    21780244.699
        42.700          32.200
 18  3 11 13 45  8.0000000  0 19R05R06G10G14G22R14R15R13R24R22R23G32
                                G11G28G01G24G12G17G19
                  88721405.619 5  21339225.555                    21339226.391
                        32.200
                  85318661.218 6  20556875.594                    20556875.102
                        37.300
 123730149.513 7  96413147.57444  23545073.711                    23545077.586
        43.400          28.100
 126943517.305 6  98917097.80343  24156556.367                    24156560.199
        39.200          19.900
 127154316.843 6  99081296.44544  24196663.352                    24196664.418
        41.300          24.700
                  80418366.284 6  19396648.656                    19396650.805
                        41.000
                  83289454.947 6  20039768.688                    20039772.324
                        36.200
                  92603122.759 5  22296329.273                    22296329.879
                        35.600
                  93729270.56013  22535801.828                    22535802.395
                        21.900
                  89638633.002 6  21590148.234                    21590149.246
                        41.500
                  83664202.866 6  20108753.234                    20108758.566
                        37.200
 118292382.048 7  92175900.71545  22510293.164                    22510298.434
        46.200          33.300
 122920967.611 6  95782580.14043  23391082.180                    23391085.453
        41.100          22.200
 128174062.009 7  99875901.88044  24390713.648                    24390716.000
        42.600          24.500
 117478108.994 7  91541407.59945  22355341.914                    22355349.230
        42.700          31.500
 109838105.030 8  85588152.67646  20901496.922                    20901502.344
        51.700          41.400
 118532242.075 7  92362801.93645  22555935.844                    22555939.188
        46.200          32.400
 114335660.194 8  89092737.30345  21757353.828                    21757356.355
        49.200          32.600
 114454169.943 7  89185069.96945  21779904.273                    21779905.117
        44.300          31.800
 18  3 11 13 45  9.0000000  0 19R05R06G10G14G22R14R15R13R24R22R23G32
                                G11G28G01G24G12G17G19
                  88724162.190 5  21339887.813                    21339889.711
                        31.600
                  85317837.124 6  20556676.461                    20556676.945
                        37.500
 123733438.507 7  96415710.43844  23545699.508                    23545703.262
        43.500          28.100
 126940681.038 6  98914887.70643  24156016.930                    24156020.488
        39.800          19.600
 127152142.758 6  99079602.35244  24196250.156                    24196250.859
        40.900          26.200
                  80419535.533 6  19396930.602                    19396932.375
                        40.900
                  83287781.622 6  20039365.672                    20039368.922
                        36.200
                  92606719.188 5  22297195.734                    22297196.746
                        35.000
                  93726173.02414  22535057.422                    22535057.605
                        24.600
                  89641529.316 6  21590844.180                    21590846.867
                        41.200
                  83663462.154 6  20108575.984                    20108580.672
                        37.500
 118290740.147 7  92174621.28545  22509981.406                    22509986.219
        47.000          34.200
 122923973.964 6  95784922.75843  23391654.117                    23391657.281
        40.900          21.700
 128177825.646 7  99878834.59143  24391429.695                    24391432.453
        42.100          23.800
 117479358.220 7  91542381.02045  22355579.898                    22355586.660
        42.400          31.700
 109839256.232 8  85589049.71646  20901715.797                    20901721.250
        51.700          41.600
 118529129.626 7  92360376.64645  22555343.719                    22555346.727
        46.500          32.300
 114335534.082 8  89092639.03345  21757329.984                    21757332.668
        49.400          33.400
 114452385.264 7  89183679.31345  21779565.125                    21779565.844
        45.000          32.400
 18  3 11 13 45 10.0000000  0 19R05R06G10G14G22R14R15R13R24R22R23G32
                                G11G28G01G24G12G17G19
                  88726919.329 5  21340551.289                    21340552.094
                        31.500
                  85317013.753 6  20556478.016                    20556478.668
                        37.400
 123736727.955 7  96418273.66044  23546325.242                    23546328.984
        43.600          29.000
 126937845.151 6  98912677.89943  24155478.234                    24155480.770
        41.000          20.400
 127149969.081 6  99077908.56544  24195836.578                    24195837.211
        41.300          26.500
                  80420705.443 6  19397213.680                    19397214.641
                        40.800
                  83286108.842 6  20038963.828                    20038966.594
                        36.500
                  92610315.846 5  22298061.563                    22298063.121
                        35.700
                  93723076.343 4  22534312.938                    22534313.023
                        25.900
                  89644426.152 6  21591541.695                    21591544.531
                        41.400
                  83662722.209 6  20108398.664                    20108403.129
                        36.900
 118289098.862 7  92173342.31045  22509667.273                    22509674.336
        45.300          33.600
 122926980.872 6  95787265.81543  23392226.289                    23392229.500
        40.600          21.100
 128181589.480 7  99881767.45943  24392145.563                    24392148.293
        42.100          22.900
 117480608.205 6  91543355.02844  22355817.531                    22355824.324
        41.800          29.900
 109840408.171 8  85589947.33046  20901935.203                    20901940.719
        51.600          41.600
 118526017.574 7  92357951.66745  22554751.273                    22554754.523
        46.000          31.900
 114335408.675 8  89092541.31445  21757306.102                    21757308.789
        49.200          32.900
 114450601.254 7  89182289.15845  21779224.531                    21779226.195
        44.100          31.900
 18  3 11 13 45 11.0000000  0 19R05R06G10G14G22R14R15R13R24R22R23G32
                                G11G28G01G24G12G17G19
                  88729676.989 5  21341213.945                    21341215.660
                        32.500
                  85316191.112 6  20556280.602                    20556280.254
                        37.500
 123740017.832 7  96420837.21844  23546951.398                    23546954.953
        43.800          29.900
 126935009.576 6  98910468.34143  24154938.055                    24154941.250
        41.200          22.500
 127147795.886 6  99076215.16144  24195422.516                    24195423.180
        41.500          25.300
                  80421876.008 6  19397494.633                    19397497.289
                        41.000
                  83284436.656 6  20038560.258                    20038564.473
                        36.400
                  92613912.807 5  22298926.039                    22298928.930
                        34.100
                  93719979.896 4  22533568.016                    22533568.441
                        24.500
                  89647323.450 6  21592241.727                    21592242.633
                        41.400
                  83661983.002 6  20108219.883                    20108224.590
                        37.000
 118287458.186 7  92172063.81445  22509355.156                    22509361.254
        45.400          33.400
 122929988.383 6  95789609.33843  23392798.383                    23392801.512
        40.600          21.100
 128185353.505 7  99884700.46843  24392861.523                    24392864.566
        42.200          23.400
 117481858.973 7  91544329.63345  22356056.477                    22356062.172
        42.100          30.700
 109841560.781 8  85590845.46646  20902154.664                    20902160.383
        51.300          41.400
 118522905.885 7  92355526.97145  22554158.875                    22554162.457
        46.100          31.600
 114335283.955 8  89092444.13345  21757282.477                    21757285.109
        48.600          32.700
 114448817.901 7  89180899.52545  21778884.344                    21778887.078
        42.900          32.400
 18  3 11 13 45 12.0000000  0 19R05R06G10G14G22R14R15R13R24R22R23G32
                                G11G28G01G24G12G17G19
                  88732435.208 5  21341877.594                    21341878.988
                        32.600
                  85315369.188 6  20556081.695                    20556082.129
                        37.500
 123743308.223 7  96423401.17844  23547577.594                    23547581.648
        43.800          29.900
 126932174.363 6  98908259.07444  24154399.492                    24154401.973
        41.700          24.400
 127145623.150 6  99074522.12044  24195009.336                    24195010.336
        41.300          25.900
                  80423047.255 6  19397778.281                    19397779.617
                        41.000
                  83282765.031 6  20038158.688                    20038162.234
                        36.400
                  92617510.087 5  22299791.297                    22299794.996
                        33.800
                  93716883.793 3  22532823.422                    22532823.594
                        21.900
                  89650221.265 6  21592939.430                    21592941.000
                        41.300
                  83661244.553 6  20108043.531                    20108047.004
                        37.200
 118285818.202 7  92170785.87745  22509044.570                    22509049.500
        46.000          33.900
 122932996.469 6  95791953.31343  23393371.008                    23393373.527
        40.500          21.300
 128189117.735 7  99887633.63643  24393578.109                    24393581.266
        42.200          22.500
 117483110.451 7  91545304.80145  22356295.047                    22356300.707
        43.500          31.300
 109842714.144 8  85591744.19046  20902373.555                    20902379.473
        51.300          41.400
 118519794.640 7  92353102.62045  22553566.547                    22553570.371
        46.000          32.100
 114335159.909 8  89092347.46845  21757258.664                    21757261.184
        48.700          32.600
 114447035.264 7  89179510.46645  21778545.703                    21778547.148
        43.700          32.400
 18  3 11 13 45 13.0000000  0 19R05R06G10G14G22R14R15R13R24R22R23G32
                                G11G28G01G24G12G17G19
                  88735193.911 5  21342541.172                    21342542.824
                        33.000
                  85314547.955 6  20555882.961                    20555884.379
                        37.500
 123746598.972 7  96425965.41645  23548203.703                    23548207.914
        43.800          30.100
 126929339.390 7  98906050.00944  24153860.328                    24153862.594
        42.200          24.000
 127143450.776 6  99072829.35344  24194595.867                    24194596.793
        40.500          26.000
                  80424219.109 6  19398060.578                    19398062.293
                        41.200
                  83281093.896 6  20037756.844                    20037760.074
                        36.500
                  92621107.557 5  22300658.391                    22300660.473
                        32.500
                  93713787.949 4  22532079.484                    22532080.172
                        24.500
                  89653119.567 6  21593635.797                    21593638.582
                        41.100
                  83660506.761 6  20107865.469                    20107869.465
                        36.800
 118284178.742 7  92169508.34545  22508731.258                    22508738.133
        43.900          32.600
 122936005.067 6  95794297.67843  23393943.234                    23393946.270
        40.500          22.300
 128192882.072 7  99890566.86844  24394294.641                    24394297.438
        42.600          24.300
 117484362.640 7  91546280.53845  22356533.195                    22356538.918
        43.600          31.400
 109843868.132 8  85592643.39946  20902593.227                    20902598.879
        51.300          41.600
 118516683.708 7  92350678.52145  22552975.172                    22552978.402
        45.800          31.700
 114335036.462 8  89092251.26945  21757235.094                    21757237.949
        48.800          32.700
 114445253.246 7  89178121.88345  21778207.594                    21778208.277
        45.100          32.600
 18  3 11 13 45 14.0000000  0 19R05R06G10G14G22R14R15R13R24R22R23G32
                                G11G28G01G24G12G17G19
                  88737953.165 5  21343205.195                    21343206.422
                        32.500
                  85313727.475 6  20555686.008                    20555686.824
                        37.400
 123749890.197 7  96428530.01745  23548829.906                    23548834.352
        43.600          30.900
 126926504.788 7  98903841.21944  24153320.820                    24153322.945
        42.600          26.200
 127141278.896 6  99071136.97044  24194182.445                    24194183.715
        39.900          26.800
                  80425391.615 6  19398343.203                    19398345.293
                        41.200
                  83279423.365 6  20037354.625                    20037358.195
                        36.500
                  92624705.242 5  22301524.148                    22301525.430
                        32.800
                  93710692.388 4  22531335.148                    22531335.527
                        24.300
                  89656018.364 6  21594335.125                    21594336.699
                        41.200
                  83659769.729 6  20107688.711                    20107692.848
                        37.000
 118282539.852 7  92168231.27145  22508418.023                    22508426.105
        43.000          32.100
 122939014.263 6  95796642.51643  23394516.141                    23394519.102
        40.200          22.800
 128196646.610 7  99893500.27243  24395010.781                    24395014.004
        42.600          23.000
 117485615.605 6  91547256.90844  22356770.008                    22356777.383
        41.400          29.900
 109845022.858 8  85593543.18246  20902813.289                    20902818.746
        51.500          41.400
 118513573.190 7  92348254.74045  22552383.055                    22552386.633
        45.700          31.900
 114334913.726 8  89092155.63845  21757212.016                    21757214.719
        48.800          32.400
 114443471.954 7  89176733.85645  21777868.609                    21777869.668
        45.000          32.800
 18  3 11 13 45 15.0000000  0 19R05R06G10G14G22R14R15R13R24R22R23G32
                                G11G28G01G24G12G17G19
                  88740712.920 5  21343868.047                    21343870.480
                        32.400
                  85312907.620 6  20555488.305                    20555488.699
                        37.500
 123753181.798 7  96431094.90745  23549456.039                    23549460.965
        44.100          31.100
 126923670.432 7  98901632.62744  24152781.938                    24152784.230
        42.900          25.300
 127139107.346 6  99069444.84944  24193768.750                    24193770.758
        39.600          24.700
                  80426564.720 6  19398626.141                    19398628.230
                        41.300
                  83277753.312 5  20036953.148                    20036956.480
                        35.800
                  92628303.113 5  22302392.219                    22302392.398
                        33.800
                  93707597.063 4  22530591.164                    22530591.352
                        24.300
                  89658917.563 6  21595033.352                    21595035.176
                        41.400
                  83659033.381 6  20107511.797                    20107515.941
                        36.600
 118280901.542 7  92166954.68845  22508108.945                    22508113.629
        45.900          32.900
 122942023.986 6  95798987.75243  23395088.016                    23395092.215
        40.200          23.000
 128200411.298 7  99896433.79544  24395727.016                    24395729.992
        42.600          24.600
 117486869.286 6  91548233.81145  22357006.813                    22357016.199
        39.200          30.200
 109846178.188 8  85594443.43446  20903033.492                    20903038.930
        51.400          41.300
 118510462.986 7  92345831.21245  22551791.570                    22551794.445
        46.000          32.400
 114334791.584 8  89092060.46145  21757188.945                    21757191.348
        48.900          33.100
 114441691.219 7  89175346.25945  21777528.578                    21777530.410
        44.000          32.100
 18  3 11 13 45 16.0000000  0 19R05R06G10G14G22R14R15R13R24R22R23G32
                                G11G28G01G24G12G17G19
                  88743473.237 5  21344532.469                    21344534.555
                        31.400
                  85312088.526 6  20555289.742                    20555291.680
                        37.400
 123756473.881 7  96433660.17145  23550082.578                    23550087.602
        44.000          30.900
 126920836.392 7  98899424.28744  24152242.227                    24152244.699
        42.100          26.200
 127136936.331 6  99067753.15044  24193355.617                    24193357.031
        40.000          25.300
                  80427738.549 6  19398908.977                    19398911.184
                        41.400
                  83276083.854 6  20036550.492                    20036554.867
                        37.000
                  92631901.274 5  22303257.734                    22303259.004
                        35.300
                  93704502.118 3  22529846.211                    22529847.777
                        22.500
                  89661817.349 6  21595731.008                    21595733.570
                        41.200
                  83658297.787 6  20107334.500                    20107339.309
                        36.300
 118279263.971 7  92165678.66645  22507798.148                    22507802.629
        46.400          33.700
 122945034.284 6  95801333.42943  23395661.672                    23395665.098
        40.400          23.000
 128204176.177 7  99899367.47343  24396443.727                    24396446.652
        42.800          23.500
 117488123.773 6  91549211.30845  22357248.109                    22357254.457
        40.100          30.900
 109847334.270 8  85595344.28146  20903253.172                    20903258.758
        52.000          41.400
 118507353.214 7  92343408.01145  22551199.711                    22551203.055
        46.200          32.200
 114334670.149 8  89091965.83645  21757165.383                    21757168.301
        49.200          33.100
 114439911.226 7  89173959.25545  21777190.250                    21777191.840
        44.100          31.500
 18  3 11 13 45 17.0000000  0 19R05R06G10G14G22R14R15R13R24R22R23G32
                                G11G28G01G24G12G17G19
                  88746234.064 5  21345196.227                    21345197.840
                        32.700
                  85311270.140 6  20555094.328                    20555094.660
                        37.600
 123759766.413 7  96436225.77645  23550708.758                    23550714.613
        43.200          31.400
 126918002.703 7  98897216.22844  24151703.594                    24151705.883
        42.400          26.300
 127134765.700 6  99066061.75544  24192942.922                    24192944.059
        40.400          25.200
                  80428913.022 6  19399192.406                    19399194.586
                        41.300
                  83274414.933 6  20036149.164                    20036152.953
                        36.300
                  92635499.699 5  22304123.633                    22304126.113
                        35.600
                  93701407.420 4  22529101.938                    22529103.652
                        25.200
                  89664717.590 6  21596430.055                    21596432.609
                        41.200
                  83657562.923 6  20107158.219                    20107162.723
                        36.500
 118277626.902 7  92164403.02545  22507484.266                    22507491.332
        45.400          33.700
 122948045.137 6  95803679.52643  23396234.461                    23396237.961
        40.800          22.600
 128207941.222 7  99902301.27943  24397159.789                    24397163.234
        42.400          23.400
 117489378.909 7  91550189.30545  22357488.523                    22357493.418
        42.300          31.300
 109848491.000 8  85596245.62946  20903473.477                    20903478.992
        51.900          41.300
 118504243.795 7  92340985.08145  22550607.625                    22550611.555
        46.100          32.400
 114334549.365 8  89091871.71845  21757142.258                    21757145.238
        49.400          33.000
 114438131.873 7  89172572.75145  21776851.766                    21776853.137
        44.400          31.200
 18  3 11 13 45 18.0000000  0 19R05R06G10G14G22R14R15R13R24R22R23G32
                                G11G28G01G24G12G17G19
                  88748995.493 5  21345860.203                    21345862.219
                        31.600
                  85310452.491 6  20554896.617                    20554898.082
                        37.100
 123763059.427 7  96438791.76345  23551334.820                    23551341.551
        42.600          30.700
 126915169.312 7  98895008.38443  24151164.031                    24151167.047
        42.400          23.600
 127132595.551 6  99064370.73944  24192530.109                    24192531.250
        40.400          24.400
                  80430088.190 6  19399475.977                    19399477.879
                        41.400
                  83272746.577 6  20035748.484                    20035751.703
                        36.200
                  92639098.380 5  22304989.141                    22304993.125
                        35.100
                  93698313.040 4  22528357.180                    22528359.813
                        25.500
                  89667618.384 6  21597129.172                    21597130.359
                        41.200
                  83656828.855 6  20106982.266                    20106986.203
                        36.700
 118275990.513 7  92163127.92245  22507173.781                    22507179.191
        46.200          33.800
 122951056.608 6  95806026.12343  23396807.563                    23396810.902
        40.900          22.000
 128211706.513 7  99905235.27143  24397876.727                    24397879.414
        42.900          23.900
 117490634.819 7  91551167.93745  22357727.133                    22357732.770
        42.400          31.300
 109849648.520 8  85597147.59446  20903693.469                    20903699.156
        51.700          41.300
 118501134.810 7  92338562.48845  22550016.242                    22550019.988
        45.800          31.000
 114334429.286 8  89091778.15545  21757119.898                    21757122.230
        49.800          33.100
 114436353.245 7  89171186.81345  21776513.633                    21776514.742
        44.100          31.700
 18  3 11 13 45 19.0000000  0 19R05R06G10G14G22R14R15R13R24R22R23G32
                                G11G28G01G24G12G17G19
                  88751757.386 5  21346525.391                    21346526.582
                        32.300
                  85309635.521 6  20554700.039                    20554700.410
                        37.000
 123766352.824 6  96441358.04744  23551960.984                    23551968.410
        41.600          29.400
 126912336.237 6  98892800.78243  24150624.875                    24150627.238
        41.300          22.900
 127130425.787 6  99062680.01044  24192116.992                    24192118.402
        40.400          25.700
                  80431263.933 6  19399759.883                    19399761.238
                        41.500
                  83271078.722 5  20035346.883                    20035350.379
                        35.900
                  92642697.227 5  22305856.000                    22305859.523
                        33.500
                  93695218.948 4  22527614.094                    22527615.367
                        25.500
                  89670519.631 6  21597827.430                    21597829.293
                        41.100
                  83656095.466 6  20106805.547                    20106809.711
                        36.600
 118274354.729 7  92161853.30145  22506863.102                    22506868.594
        46.900          34.000
 122954068.582 6  95808373.11443  23397381.125                    23397384.176
        41.500          22.000
 128215471.883 7  99908169.32643  24398592.883                    24398596.082
        42.800          23.000
 117491891.482 6  91552147.17045  22357964.750                    22357972.199
        40.900          30.900
 109850806.658 8  85598050.03646  20903913.766                    20903919.379
        51.400          41.500
 118498026.170 7  92336140.17745  22549424.219                    22549428.145
        45.900          32.600
 114334309.813 8  89091685.05845  21757097.172                    21757099.418
        49.200          32.800
 114434575.204 7  89169801.32945  21776174.914                    21776176.848
        43.800          31.900
 18  3 11 13 45 20.0000000  0 19R05R06G10G14G22R14R15R13R24R22R23G32
                                G11G28G01G24G12G17G19
                  88754519.837 5  21347188.414                    21347190.742
                        32.900
                  85308819.279 6  20554502.836                    20554504.031
                        37.500
 123769646.713 6  96443924.70044  23552587.305                    23552595.031
        41.300          29.100
 126909503.463 6  98890593.40643  24150085.992                    24150088.617
        40.300          22.000
 127128256.470 6  99060989.63644  24191704.211                    24191705.496
        39.200          25.400
                  80432440.338 6  19400042.758                    19400045.027
                        41.100
                  83269411.447 6  20034945.656                    20034949.160
                        36.300
                  92646296.352 5  22306724.250                    22306724.906
                        32.400
                  93692125.128 4  22526869.977                    22526872.031
                        24.300
                  89673421.428 6  21598526.656                    21598528.754
                        41.200
                  83655362.845 6  20106629.555                    20106633.719
                        36.400
 118272719.533 7  92160579.13845  22506551.000                    22506557.199
        45.300          33.700
 122957081.149 6  95810720.57543  23397954.602                    23397957.648
        41.200          21.800
 128219237.497 7  99911103.56143  24399309.914                    24399312.320
        43.100          22.900
 117493148.892 6  91553126.99045  22358203.398                    22358210.953
        40.000          30.800
 109851965.526 8  85598953.04446  20904133.953                    20904139.895
        51.500          41.300
 118494917.908 7  92333718.15845  22548833.141                    22548836.992
        46.100          31.900
 114334191.016 8  89091592.48845  21757074.203                    21757076.914
        49.100          32.700
 114432797.871 7  89168416.38945  21775836.773                    21775838.258
        44.200          32.200
 18  3 11 13 45 21.0000000  0 19R05R06G10G14G22R14R15R13R24R22R23G32
                                G11G28G01G24G12G17G19
                  88757282.802 5  21347854.117                    21347855.258
                        31.300
                  85308003.702 6  20554306.328                    20554307.594
                        37.800
 123772941.022 6  96446491.68844  23553213.898                    23553222.363
        40.800          28.900
 126906671.021 6  98888386.27643  24149546.094                    24149549.703
        38.900          21.100
 127126087.648 6  99059299.64244  24191291.219                    24191292.629
        39.200          25.100
                  80433617.382 6  19400326.414                    19400328.922
                        41.500
                  83267744.716 6  20034544.695                    20034548.965
                        36.200
                  92649895.687 5  22307592.805                    22307590.602
                        32.800
                  93689031.597 4  22526127.414                    22526127.727
                        25.400
                  89676323.717 6  21599225.508                    21599227.594
                        41.200
                  83654630.946 6  20106453.539                    20106458.168
                        36.900
 118271084.897 7  92159305.41645  22506238.648                    22506246.016
        44.300          34.000
 122960094.271 6  95813068.46943  23398527.375                    23398530.520
        41.400          21.800
 128223003.247 7  99914037.90744  24400026.188                    24400028.988
        43.400          24.200
 117494407.079 6  91554107.39445  22358443.211                    22358450.172
        40.200          30.500
 109853125.043 8  85599856.56046  20904354.555                    20904360.652
        51.600          41.500
 118491810.065 7  92331296.46245  22548242.000                    22548245.301
        46.300          31.900
 114334072.903 8  89091500.45345  21757051.945                    21757054.336
        49.100          33.000
 114431021.237 7  89167031.99245  21775498.477                    21775500.023
        44.300          32.100
 18  3 11 13 45 22.0000000  0 19R05R06G10G14G22R14R15R13R24R22R23G32
                                G11G28G01G24G12G17G19
                  88760046.303 5  21348519.141                    21348519.648
                        31.400
                  85307188.877 6  20554111.625                    20554111.309
                        37.800
 123776235.806 6  96449059.04144  23553841.023                    23553849.285
        39.900          28.900
 126903838.867 6  98886179.40543  24149006.750                    24149010.465
        37.100          20.100
 127123919.252 6  99057609.99044  24190879.063                    24190880.160
        39.600          25.800
                  80434795.129 6  19400611.508                    19400613.105
                        41.300
                  83266078.528 6  20034144.219                    20034147.793
                        36.600
                  92653495.361 5  22308458.945                    22308457.035
                        34.700
                  93685938.369 4  22525382.430                    22525384.227
                        25.700
                  89679226.479 6  21599924.570                    21599926.738
                        40.900
                  83653899.784 6  20106278.148                    20106282.473
                        37.100
 118269450.916 7  92158032.22245  22505929.258                    22505934.891
        44.900          33.900
 122963107.977 6  95815416.82643  23399100.391                    23399103.332
        41.400          21.700
 128226769.219 7  99916972.43243  24400743.227                    24400745.656
        43.000          23.000
 117495666.003 6  91555088.36145  22358683.766                    22358689.980
        41.300          30.800
 109854285.282 8  85600760.64246  20904575.836                    20904581.719
        51.500          41.600
 118488702.583 7  92328875.04545  22547650.234                    22547654.082
        46.300          32.200
 114333955.465 8  89091408.94245  21757029.453                    21757032.457
        49.000          33.300
 114429245.248 7  89165648.09945  21775160.625                    21775162.141
        44.700          32.500
 18  3 11 13 45 23.0000000  0 19R05R06G10G14G22R14R15R13R24R22R23G32
                                G11G28G01G24G12G17G19
                  88762810.355 5  21349183.273                    21349184.688
                        31.900
                  85306374.745 6  20553914.188                    20553914.457
                        37.700
 123779531.039 6  96451626.74044  23554468.164                    23554476.703
        39.200          28.200
 126901007.120 5  98883972.80143  24148467.383                    24148472.258
        35.000          18.600
 127121751.297 6  99055920.67644  24190466.539                    24190467.410
        40.500          25.800
                  80435973.544 6  19400895.500                    19400896.656
                        41.400
                  83264412.901 6  20033743.148                    20033746.578
                        36.200
                  92657095.264 6  22309324.070                    22309324.895
                        36.400
                  93682845.393 4  22524639.875                    22524640.484
                        27.000
                  89682129.774 6  21600623.875                    21600626.043
                        40.900
                  83653169.375 6  20106102.500                    20106106.371
                        37.100
 118267817.517 7  92156759.46345  22505618.219                    22505624.230
        44.600          33.600
 122966122.246 6  95817765.64443  23399674.711                    23399677.836
        41.100          21.300
 128230535.351 7  99919907.10343  24401459.492                    24401462.488
        43.300          22.600
 117496925.646 6  91556069.89945  22358922.945                    22358929.699
        40.900          30.200
 109855446.200 8  85601665.24446  20904796.891                    20904802.219
        51.400          41.500
 118485595.511 7  92326453.94745  22547059.133                    22547062.910
        46.100          31.700
 114333838.683 8  89091317.94045  21757007.133                    21757009.957
        49.100          32.600
 114427469.941 7  89164264.74545  21774823.016                    21774824.176
        45.200          32.300
 18  3 11 13 45 24.0000000  0 19R05R06G10G14G22R14R15R13R24R22R23G32
                                G11G28G01G24G12G17G19
                  88765574.929 5  21349848.938                    21349849.828
                        31.200
                  85305561.358 6  20553718.836                    20553719.332
                        37.100
 123782826.772 6  96454194.81944  23555095.344                    23555104.094
        38.900          28.700
 126898175.510 5  98881766.33243  24147926.188                    24147933.301
        32.500          18.300
 127119583.757 6  99054231.69344  24190053.766                    24190055.289
        40.500          25.900
                  80437152.571 6  19401179.555                    19401181.852
                        41.200
                  83262747.802 6  20033342.609                    20033345.984
                        36.200
                  92660695.419 6  22310188.297                    22310191.965
                        36.400
                  93679752.728 4  22523895.375                    22523897.141
                        25.100
                  89685033.509 6  21601323.758                    21601324.793
                        40.800
                  83652439.675 6  20105926.297                    20105931.258
                        36.700
 118266184.613 7  92155487.07145  22505305.680                    22505313.574
        42.900          32.600
 122969137.055 6  95820114.85843  23400247.727                    23400251.145
        40.700          21.300
 128234301.665 7  99922841.88744  24402176.727                    24402178.922
        42.800          24.300
 117498186.056 6  91557052.05245  22359162.664                    22359169.430
        40.400          30.800
 109856607.803 8  85602570.38446  20905018.133                    20905023.234
        51.300          41.600
 118482488.789 7  92324033.12145  22546467.938                    22546471.414
        46.300          31.800
 114333722.535 8  89091227.43445  21756985.297                    21756987.473
        49.400          33.000
 114425695.303 7  89162881.91245  21774485.297                    21774486.617
        45.000          32.800
 18  3 11 13 45 25.0000000  0 19R05R06G10G14G22R14R15R13R24R22R23G32
                                G11G28G01G24G12G17G19
                  88768340.085 5  21350513.016                    21350514.742
                        32.400
                  85304748.709 6  20553523.859                    20553523.316
                        37.200
 123786122.867 6  96456763.18044  23555722.398                    23555730.883
        38.900          27.900
 126895344.33715                  24147386.008
        33.300
 127117416.734 6  99052543.10644  24189642.063                    24189642.801
        40.200          24.100
                  80438332.292 6  19401464.938                    19401465.852
                        40.900
                  83261083.313 6  20032942.602                    20032945.977
                        36.200
                  92664295.772 5  22311056.914                    22311059.449
                        35.600
                  93676660.415 3  22523152.508                    22523153.699
                        23.000
                  89687937.798 6  21602023.180                    21602025.035
                        40.600
                  83651710.756 6  20105751.602                    20105755.648
                        36.800
 118264552.366 7  92154215.19645  22504996.898                    22505002.383
        44.500          32.800
 122972152.493 6  95822464.55443  23400821.688                    23400824.660
        40.200          22.000
 128238068.192 7  99925776.84143  24402893.453                    24402896.133
        42.600          22.300
 117499447.252 6  91558034.80044  22359402.352                    22359409.223
        40.200          29.800
 109857770.143 8  85603476.10446  20905238.906                    20905244.578
        51.000          41.500
 118479382.501 7  92321612.64245  22545876.711                    22545880.289
        46.300          31.900
 114333607.115 8  89091137.49345  21756962.844                    21756965.578
        49.500          33.100
 114423921.348 7  89161499.61045  21774147.297                    21774149.180
        43.900          33.000
 18  3 11 13 45 26.0000000  0 19R05R06G10G14G22R14R15R13R24R22R23G32
                                G11G28G01G24G12G17G19
                  88771105.783 5  21351178.516                    21351180.324
                        32.400
                  85303936.768 6  20553326.773                    20553327.309
                        36.600
 123789419.453 6  96459331.93144  23556350.672                    23556358.262
        38.700          29.200
 126892513.47415                  24146849.508
        35.700
 127115250.144 6  99050854.85244  24189229.406                    24189230.422
        40.800          25.900
                  80439512.667 6  19401748.672                    19401750.582
                        40.800
                  83259419.383 5  20032541.828                    20032545.766
                        35.800
                  92667896.304 5  22311926.203                    22311926.441
                        33.200
                  93673568.392 3  22522410.031                    22522410.688
                        21.900
                  89690842.569 6  21602722.531                    21602724.684
                        40.700
                  83650982.575 6  20105576.844                    20105581.199
                        37.000
 118262920.777 7  92152943.82345  22504687.563                    22504692.355
        45.800          33.700
 122975168.521 6  95824814.70643  23401395.211                    23401398.656
        40.500          21.500
 128241834.872 7  99928711.90143  24403610.063                    24403612.094
        42.100          22.600
 117500709.183 6  91559018.11645  22359643.727                    22359649.605
        40.800          31.000
 109858933.169 8  85604382.36046  20905459.906                    20905466.191
        51.000          41.100
 118476276.591 7  92319192.45145  22545285.750                    22545288.984
        46.200          31.700
 114333492.350 8  89091048.06845  21756941.188                    21756943.840
        49.100          33.000
 114422148.099 7  89160117.85445  21773810.117                    21773811.629
        44.300          32.700
 18  3 11 13 45 27.0000000  0 19R05R06G10G14G22R14R15R13R24R22R23G32
                                G11G28G01G24G12G17G19
                  88773871.915 5  21351843.914                    21351845.492
                        31.900
                  85303125.496 6  20553132.281                    20553132.262
                        36.900
 123792716.407 6  96461900.97144  23556978.250                    23556986.133
        39.200          28.700
 126889682.85216                  24146311.563
        38.100
 127113083.892 6  99049166.86044  24188816.414                    24188818.348
        40.800          26.000
                  80440693.648 6  19402034.469                    19402036.020
                        41.100
                  83257755.916 6  20032141.227                    20032145.699
                        36.000
                  92671497.039 5  22312793.961                    22312792.941
                        32.500
                  93670476.617 3  22521666.203                    22521666.652
                        23.500
                  89693747.773 6  21603421.813                    21603423.910
                        40.700
                  83650255.064 6  20105401.516                    20105406.598
                        36.700
 118261289.683 7  92151672.80845  22504376.336                    22504381.973
        44.600          33.600
 122978184.962 6  95827165.15043  23401970.273                    23401973.090
        41.100          22.200
 128245601.668 7  99931647.05643  24404326.766                    24404329.355
        42.400          22.000
 117501971.729 6  91560001.91544  22359884.273                    22359890.004
        41.000          29.900
 109860096.828 8  85605289.10946  20905681.719                    20905687.145
        51.500          41.500
 118473170.998 7  92316772.51445  22544694.984                    22544697.695
        46.600          31.500
 114333378.180 8  89090959.10445  21756919.766                    21756922.020
        49.200          33.000
 114420375.451 7  89158736.57845  21773473.313                    21773474.262
        44.700          32.300
