     2.11           OBSERVATION DATA    M (MIXED)           RINEX VERSION / TYPE
teqc  2018Mar15                         20180319 14:17:34UTCPGM / RUN BY / DATE
Linux 2.6.32-573.12.1.x86_64|x86_64|gcc -static|Linux 64|=+ COMMENT
END OF STATIC MODE OBSERVATION                              COMMENT
BIT 2 OF LLI FLAGS DATA COLLECTED UNDER A/S CONDITION       COMMENT
-Unknown-                                                   MARKER NAME
4625                                                        MARKER NUMBER
-Unknown-           -Unknown-                               OBSERVER / AGENCY
5127468778          TRIMBLE             4.63                REC # / TYPE / VERS
47477114                            NONE                    ANT # / TYPE
  5440561.7196        0.0000 -3317640.7097                  APPROX POSITION XYZ
        0.0000        0.0000        0.0000                  ANTENNA: DELTA H/E/N
     1     1                                                WAVELENGTH FACT L1/2
     7    L1    L2    C1    P1    P2    S1    S2            # / TYPES OF OBSERV
    18                                                      LEAP SECONDS
 SNR is mapped to RINEX snr flag value [0-9]                COMMENT
  L1 & L2: min(max(int(snr_dBHz/6), 0), 9)                  COMMENT
  2018     3    15    13    41   43.0000000     GPS         TIME OF FIRST OBS
                                                            END OF HEADER
 18  3 15 13 41 43.0000000  0 12R02G12R10R11R18G17G01G10R19G24G32G19
                  84767385.776 6  20424050.258                    20424052.582
                        39.300
 116541091.661 7  90811135.31343  22177003.063                    22177007.031
        43.500          23.200
                  81405468.980 6  19634733.445                    19634736.617
                        38.100
                  84972084.664 6  20444614.273                    20444616.629
                        39.600
                                  22537997.031

 114747288.664 7  89413489.92744  21835693.461                    21835696.902
        47.000          29.600
 118990170.140 6  92719633.75642  22643076.469                    22643083.758
        37.700          14.800
 126731670.476 5                  24116242.578
        33.900
                  83970704.287 6  20182421.789                    20182421.855
                        37.100
 111267328.383 8  86701833.87645  21173468.141                    21173474.391
        49.000          34.200
 117512509.243 7  91568201.75843  22361887.781                    22361893.988
        44.100          22.200
 113602852.961 7  88521660.66243  21617904.672                    21617905.176
        42.500          22.500
 18  3 15 13 41 44.0000000  0 11R02G12R10R11G17G01G10R19G24G32G19
                  84767272.551 6  20424022.563                    20424025.418
                        40.900
 116538305.155 7  90808964.01744  22176472.195                    22176476.547
        43.400          24.300
                  81407061.619 6  19635118.188                    19635120.984
                        40.000
                  84970184.878 6  20444157.344                    20444159.547
                        41.000
 114747664.786 7  89413783.00645  21835765.031                    21835768.730
        47.400          30.100
 118991981.125 6  92721044.91542  22643421.625                    22643428.605
        37.600          15.600
 126735270.601 5                  24116927.906
        34.800
                  83971262.762 6  20182556.211                    20182555.891
                        38.700
 111269007.256 8  86703142.09145  21173788.586                    21173793.965
        49.400          35.300
 117511355.114 6                  22361669.063
        41.700
 113601603.593 6  88520687.13043  21617666.633                    21617667.551
        41.700          22.900
 18  3 15 13 41 45.0000000  0 11R02G12R10R11G17G01G10R19G24G32G19
                  84767160.032 6  20423995.641                    20423998.477
                        41.500
 116535519.037 7  90806793.00644  22175943.156                    22175946.461
        43.900          25.700
                  81408654.853 6  19635502.203                    19635505.766
                        40.200
                  84968285.562 6  20443700.188                    20443702.379
                        40.900
 114748041.501 7  89414076.55044  21835836.711                    21835840.297
        47.300          29.800
 118993792.819 6  92722456.59042  22643766.758                    22643773.504
        38.300          16.300
 126738871.139 5                  24117613.234
        31.500
                  83971821.968 6  20182691.031                    20182690.383
                        39.100
 111270686.733 8  86704450.76945  21174108.500                    21174113.723
        49.800          34.700
 117510201.396 7  91566403.52353  22361448.852                    22361455.355
        42.300          23.300
 113600354.878 6  88519714.10343  21617427.570                    21617430.012
        40.800          22.800
 18  3 15 13 41 46.0000000  0 12R02G12R10R11G17G01G10R19G24G32R03G19
                  84767048.297 6  20423968.773                    20423971.391
                        41.200
 116532733.394 7  90804622.37844  22175412.320                    22175416.453
        43.500          25.500
                  81410248.722 6  19635886.484                    19635890.250
                        40.200
                  84966386.707 6  20443243.586                    20443245.676
                        40.700
 114748418.865 7  89414370.59644  21835908.453                    21835911.918
        46.700          29.100
 118995605.184 6  92723868.84142  22644110.836                    22644118.316
        36.300          16.300
 126742472.045 5                  24118298.789
        32.900
                  83972381.895 6  20182825.867                    20182825.383
                        38.700
 111272366.874 8  86705759.96845  21174427.719                    21174433.566
        49.500          35.500
 117509048.266 6  91565504.98943  22361229.195                    22361235.965
        41.700          21.700
                  95353179.40414  22902137.328                    22902140.867
                        26.300
 113599106.901 7  88518741.67343  21617191.344                    21617192.348
        42.000          22.800
 18  3 15 13 41 47.0000000  0 13R02G12R10R11R18G17G01G10R19G24G32R03
                                G19
                  84766937.321 7  20423942.414                    20423944.707
                        42.000
 116529948.177 7  90802452.06744  22174882.164                    22174886.105
        43.600          25.700
                  81411843.200 6  19636271.141                    19636274.809
                        39.800
                  84964488.403 6  20442787.031                    20442788.980
                        41.500
                                  22541280.125

 114748796.883 7  89414665.15344  21835980.594                    21835984.449
        47.200          29.200
 118997418.161 6  92725281.48742  22644455.250                    22644463.129
        37.100          15.600
 126746073.218 5                  24118983.297
        34.800
                  83972942.566 6  20182959.625                    20182959.465
                        38.600
 111274047.641 8  86707069.65845  21174747.617                    21174753.508
        49.300          35.000
 117507895.818 7  91564606.97343  22361010.414                    22361016.410
        44.600          21.500
                  95350367.513 4  22901462.781                    22901465.734
                        26.800
 113597859.639 6  88517769.79144  21616954.758                    21616955.473
        41.600          24.800
 18  3 15 13 41 48.0000000  0 13R02G12R10R11R18G17G01G10R19G24G32R03
                                G19
                  84766827.083 6  20423915.875                    20423918.414
                        37.200
 116527163.338 7  90800282.07344  22174352.281                    22174356.336
        42.900          24.700
                  81413438.279 6  19636655.555                    19636659.680
                        40.000
                  84962590.540 6  20442330.492                    20442332.164
                        40.500
                                  22542101.688

 114749175.529 7  89414960.19744  21836052.938                    21836056.160
        47.000          29.400
 118999231.798 6  92726694.65242  22644800.813                    22644808.012
        37.200          14.800
 126749675.20316                  24119668.273
        37.200
                  83973503.976 6  20183094.531                    20183094.551
                        38.700
 111275728.973 8  86708379.78145  21175068.102                    21175073.410
        49.600          35.200
 117506744.136 6                  22360791.078
        39.600
                  95347555.910 4  22900788.516                    22900789.707
                        24.300
 113596613.036 6  88516798.39943  21616716.281                    21616718.211
        41.100          23.000
 18  3 15 13 41 49.0000000  0 12R02G12R10R11R18G17G01G10R19G24G32G19
                  84766717.590 6  20423889.492                    20423892.156
                        36.600
 116524378.944 7  90798112.43544  22173822.813                    22173826.402
        42.800          25.700
                  81415033.988 6  19637040.617                    19637044.543
                        39.800
                  84960693.146 6  20441873.406                    20441875.922
                        40.900
                                  22542923.828

 114749554.801 7  89415255.74044  21836124.930                    21836128.367
        46.700          29.100
 119001046.171 6  92728108.42842  22645146.508                    22645153.707
        39.700          15.600
 126753276.473 5                  24120353.883
        33.800
                  83974066.108 6  20183229.828                    20183229.500
                        37.500
 111277410.961 8  86709690.42545  21175387.258                    21175393.609
        49.600          34.300
 117505592.739 7                  22360571.531
        43.100
 113595367.118 6  88515827.55243  21616479.023                    21616480.984
        40.600          22.900
 18  3 15 13 41 50.0000000  0 11R02G12R10R11G17G01G10R19G24G32G19
                  84766608.857 5  20423862.859                    20423866.094
                        35.400
 116521594.988 7  90795943.10244  22173292.773                    22173296.773
        43.800          25.300
                  81416630.271 6  19637425.938                    19637429.566
                        39.700
                  84958796.229 6  20441417.773                    20441419.559
                        41.400
 114749934.716 7  89415551.76244  21836196.813                    21836200.605
        45.900          27.700
 119002861.350 6  92729522.88342  22645492.055                    22645499.195
        40.300          17.400
 126756878.755 5                  24121038.516
        34.900
                  83974628.972 6  20183366.664                    20183365.016
                        36.000
 111279093.567 8  86711001.53945  21175707.891                    21175713.375
        49.800          34.000
 117504442.325 6                  22360352.930
        40.800
 113594121.883 6  88514857.24843  21616242.102                    21616243.598
        41.300          22.600
 18  3 15 13 41 51.0000000  0 10R02G12R10R11G17G01R19G24G32G19
                  84766500.519 6  20423837.156                    20423839.484
                        41.100
 116518811.50116                  22172763.789
        40.300
                  81418227.187 6  19637810.570                    19637814.246
                        40.200
                  84956899.979 5  20440961.313                    20440962.840
                        31.600
 114750315.302 7  89415848.30744  21836269.688                    21836272.754
        46.000          26.500
 119004676.996 6  92730937.70942  22645837.711                    22645844.715
        38.700          17.400
                  83975192.550 6  20183500.609                    20183500.754
                        36.900
 111280776.771 8  86712313.12945  21176027.813                    21176033.527
        50.700          35.700
 117503292.294 6                  22360133.844
        41.800
 113592877.428 6  88513887.55843  21616006.695                    21616006.945
        40.500          21.800
 18  3 15 13 41 52.0000000  0 11R02G12R10R11G17G01G10R19G24G32G19
                  84766393.253 6  20423811.055                    20423813.645
                        41.300
 116516028.15216                  22172234.156
        38.100
                  81419824.764 6  19638196.602                    19638199.777
                        38.700
                  84955003.906 6  20440505.141                    20440507.121
                        39.200
 114750696.550 7  89416145.38644  21836341.898                    21836345.441
        46.900          29.100
 119006493.428 6  92732353.13742  22646183.477                    22646190.305
        36.900          15.600
 126764084.68215                  24122411.016
        33.100
                  83975756.992 6  20183636.414                    20183636.020
                        38.100
 111282460.823 7  86713625.35443  21176348.914                    21176353.852
        46.000          23.500
 117502143.004 7                  22359915.844
        45.800
 113591633.619 7  88512918.34744  21615769.367                    21615770.441
        43.000          24.300
 18  3 15 13 41 53.0000000  0 11R02G12R10R11G17G01G10R19G24G32G19
                  84766286.643 7  20423785.156                    20423787.922
                        42.000
 116513244.838 7  90789436.26553  22171704.625                    22171707.422
        43.300          20.900
                  81421422.915 6  19638581.820                    19638585.375
                        39.400
                  84953108.486 6  20440049.461                    20440050.918
                        40.900
 114751078.403 7  89416442.95944  21836414.680                    21836418.191
        47.000          29.800
 119008310.575 6  92733768.93442  22646528.469                    22646536.270
        36.300          15.600
 126767687.318 5                  24123095.984
        34.300
                  83976322.112 6  20183772.625                    20183772.051
                        38.600
 111284145.336 8  86714937.97245  21176669.234                    21176674.758
        50.300          34.700
 117500994.344 7                  22359696.734
        46.000
 113590390.566 6  88511949.71643  21615532.008                    21615533.934
        41.200          22.800
 18  3 15 13 41 54.0000000  0 11R02G12R10R11G17G01G10R19G24G32G19
                  84766180.741 6  20423760.031                    20423762.059
                        41.800
 116510462.990 6  90787268.53743  22171175.219                    22171178.590
        40.400          20.600
                  81423021.642 6  19638966.953                    19638970.758
                        39.300
                  84951213.498 6  20439593.117                    20439594.516
                        41.400
 114751460.891 7  89416741.01745  21836487.633                    21836491.262
        47.500          30.200
 119010128.336 5                  22646874.750
        35.800
 126771290.816 5                  24123781.797
        35.100
                  83976887.963 6  20183908.797                    20183907.816
                        39.100
 111285830.498 7  86716251.10444  21176989.945                    21176995.660
        47.300          29.000
 117499846.316 7                  22359478.719
        45.800
 113589148.095 6  88510981.56144  21615296.219                    21615297.270
        41.600          24.200
 18  3 15 13 41 55.0000000  0 13R02G12R10R11G14R18G17G01G10R19G24G32
                                G19
                  84766075.569 6  20423734.414                    20423736.957
                        41.600
 116507681.61314                  22170644.906
        29.600
                  81424620.998 6  19639353.219                    19639356.492
                        39.600
                  84949318.957 6  20439137.391                    20439139.191
                        39.900
 125176651.11415                  23820353.930
        32.400
                                  22547850.969

 114751843.993 7  89417039.55044  21836560.125                    21836563.828
        47.400          29.900
 119011946.723 6                  22647220.898
        37.400
 126774894.696 5                  24124467.313
        35.400
                  83977454.595 6  20184045.281                    20184044.059
                        37.800
 111287516.264 8  86717564.67745  21177310.023                    21177315.918
        51.000          35.700
 117498698.868 7                  22359260.430
        45.700
 113587906.406 6  88510014.02543  21615059.375                    21615061.270
        41.100          23.200
 18  3 15 13 41 56.0000000  0 12R02R10R11G14R18G17G01G10R19G24G32G19
                  84765971.105 6  20423709.273                    20423711.684
                        41.200
                  81426220.947 6  19639738.875                    19639742.375
                        40.200
                  84947424.938 6  20438681.750                    20438683.215
                        40.500
 125174084.183 4                  23819865.047
        26.800
                                  22548674.031

 114752227.747 7  89417338.56344  21836633.555                    21836636.895
        47.300          29.200
 119013765.915 6                  22647567.172
        36.700
 126778498.929 5                  24125152.703
        33.300
                  83978021.944 6  20184181.234                    20184180.223
                        38.700
 111289202.692 8  86718878.77145  21177632.234                    21177637.047
        50.600          34.600
 117497552.048 7  91556499.83154  22359041.539                    22359037.066
        44.600          29.900
 113586665.434 6  88509047.04843  21614823.773                    21614825.102
        41.800          22.200
 18  3 15 13 41 57.0000000  0 13R02G12R10R11G14R18G17G01G10R19G24G32
                                G19
                  84765867.364 6  20423684.266                    20423686.570
                        41.100
 116502119.69314                  22169585.992
        29.400
                  81427821.497 6  19640124.844                    19640128.582
                        39.100
                  84945531.396 5  20438225.930                    20438227.906
                        35.800
 125171518.44315                  23819378.102
        30.700
                                  22549494.953

 114752612.186 7  89417638.12344  21836706.078                    21836709.984
        46.600          29.600
 119015585.665 5                  22647912.508
        34.000
 126782103.371 6                  24125839.477
        36.500
                  83978590.028 6  20184317.531                    20184316.945
                        39.700
 111290889.792 8  86720193.39445  21177952.484                    21177958.449
        49.900          34.900
 117496405.851 7  91555606.67144  22358823.805                    22358824.805
        44.900          29.100
 113585425.134 6  88508080.59544  21614586.945                    21614589.113
        39.700          25.000
 18  3 15 13 41 58.0000000  0 13R02G12R10R11G14R18G17G01G10R19G24G32
                                G19
                  84765764.338 6  20423659.859                    20423662.000
                        41.200
 116499339.65315                  22169058.523
        31.300
                  81429422.658 6  19640511.273                    19640515.109
                        39.100
                  84943638.353 6  20437770.289                    20437772.496
                        41.800
 125168952.35414                  23818888.883
        26.800
                                  22550315.945

 114752997.204 7  89417938.13245  21836779.320                    21836783.180
        47.800          30.200
 119017406.047 6                  22648259.055
        37.900
 126785708.284 5                  24126526.555
        34.500
                  83979158.824 6  20184454.500                    20184453.480
                        39.300
 111292577.486 6  86721508.45543  21178273.547                    21178279.492
        40.900          21.300
 117495260.290 7  91554714.02145  22358605.531                    22358609.746
        45.400          30.700
 113584185.397 6  88507114.56443  21614350.367                    21614352.992
        39.700          23.900
 18  3 15 13 41 59.0000000  0 13R02G12R10R11G14R18G17G01G10R19G24G32
                                G19
                  84765662.050 6  20423635.508                    20423637.797
                        38.900
 116496559.187 5                  22168528.797
        31.500
                  81431024.438 6  19640897.539                    19640900.816
                        37.400
                  84941745.765 6  20437315.578                    20437316.938
                        38.300
 125166386.66915                  23818400.313
        32.000
                                  22551139.945

 114753382.834 7  89418238.62544  21836853.438                    21836856.766
        46.800          27.600
 119019227.218 6                  22648606.086
        37.600
 126789313.374 5                  24127211.016
        34.600
                  83979728.391 5  20184590.867                    20184590.176
                        34.900
 111294265.763 7                  21178594.539
        43.600
 117494115.338 7  91553821.86944  22358388.023                    22358392.328
        45.200          26.100
 113582946.523 7  88506149.23243  21614116.586                    21614116.984
        42.900          22.600
 18  3 15 13 42  0.0000000  0 12R02G12R10R11G14G17G01G10R19G24G32G19
                  84765560.559 6  20423610.805                    20423612.684
                        41.300
 116493779.69015                  22167999.461
        30.500
                  81432626.853 6  19641283.984                    19641287.617
                        39.700
                  84939853.675 6  20436859.594                    20436861.563
                        38.900
 125163821.48815                  23817911.500
        33.500
 114753769.230 7  89418539.72045  21836926.852                    21836930.664
        47.700          30.100
 119021049.066 6                  22648953.461
        37.800
 126792918.944 5                  24127897.023
        35.500
                  83980298.694 6  20184728.008                    20184728.035
                        39.000
 111295954.747 8  86724133.08556  21178916.680                    21178920.383
        50.900          40.400
 117492971.044 7  91552930.21644  22358170.188                    22358175.645
        46.000          29.300
 113581708.391 7  88505184.44643  21613880.805                    21613881.402
        42.300          22.800
 18  3 15 13 42  1.0000000  0 12R02G12R10R11G14G17G01G10R19G24G32G19
                  84765459.798 6  20423586.297                    20423588.602
                        41.200
 116491000.138 5                  22167470.883
        32.800
                  81434229.885 6  19641670.906                    19641674.418
                        39.700
                  84937962.145 6  20436405.484                    20436406.789
                        37.400
 125161255.975 4                  23817423.992
        28.300
 114754156.232 7  89418841.27945  21837000.297                    21837003.910
        46.300          30.600
 119022871.541 6                  22649299.625
        37.300
 126796524.745 5                  24128584.117
        32.400
                  83980869.757 6  20184865.047                    20184864.883
                        38.500
 111297644.402 8  86725449.75046  21179238.266                    21179243.152
        51.800          40.000
 117491827.371 7  91552039.03744  22357953.016                    22357957.664
        45.600          28.800
 113580470.929 6  88504220.17543  21613644.719                    21613646.238
        40.400          21.800
 18  3 15 13 42  2.0000000  0 11R02G12R10R11G14G17G01R19G24G32G19
                  84765359.723 6  20423563.125                    20423564.465
                        38.200
 116488221.91717                  22166941.992
        45.300
                  81435833.525 6  19642057.383                    19642061.027
                        39.200
                  84936071.158 6  20435950.719                    20435950.410
                        36.600
 125158692.14515                  23816937.852
        30.100
 114754543.818 7  89419143.29044  21837074.148                    21837077.750
        46.400          29.100
 119024694.801 5                  22649646.977
        35.400
                  83981441.612 6  20185003.125                    20185003.125
                        39.300
 111299334.683 8  86726766.85445  21179559.586                    21179565.160
        49.000          35.000
 117490684.293 6  91551148.36643  22357734.758                    22357740.301
        40.500          21.100
 113579234.056 6  88503256.39143  21613408.594                    21613410.852
        40.900          22.300
 18  3 15 13 42  3.0000000  0 11R02G12R10R11G17G01G10R19G24G32G19
                  84765260.548 6  20423539.398                    20423540.266
                        38.200
 116485443.54817                  22166413.773
        43.500
                  81437437.795 6  19642443.797                    19642447.492
                        39.700
                  84934180.528 6  20435495.031                    20435496.496
                        41.700
 114754932.165 7  89419445.89844  21837147.781                    21837151.324
        46.900          28.900
 119026518.744 6                  22649994.328
        38.300
 126803738.73415                  24129956.766
        34.900
                  83982014.227 6  20185140.688                    20185140.004
                        37.100
 111301025.610 8  86728084.44045  21179881.055                    21179886.707
        49.500          35.900
 117489541.74815                  22357518.188
        34.100
 113577998.058 6  88502293.27743  21613174.500                    21613175.480
        41.700          23.400
 18  3 15 13 42  4.0000000  0 11R02G12R10R11G17G01G10R19G24G32G19
                  84765161.784 6  20423514.430                    20423516.828
                        40.700
 116482665.65817                  22165884.352
        43.200
                  81439042.653 6  19642831.695                    19642835.277
                        40.000
                  84932290.398 6  20435040.211                    20435041.957
                        41.600
 114755321.082 7  89419748.94644  21837222.039                    21837225.734
        46.700          29.700
 119028343.193 6                  22650340.695
        39.000
 126807345.50515                  24130643.078
        32.400
                  83982587.521 6  20185277.867                    20185277.652
                        38.700
 111302717.092 8  86729402.48545  21180203.516                    21180209.012
        49.900          35.300
 117488400.19317                  22357300.227
        43.200
 113576762.703 6  88501330.64543  21612939.219                    21612940.020
        41.400          22.900
 18  3 15 13 42  5.0000000  0 12R01R02G12R10R11G17G01G10R19G24G32G19
                                  22192526.500

                  84765063.899 6  20423490.938                    20423492.867
                        40.700
 116479888.22417                  22165356.320
        43.700
                  81440648.158 6  19643218.703                    19643222.484
                        37.900
                  84930400.738 6  20434585.508                    20434586.988
                        40.000
 114755710.682 7  89420052.53144  21837296.109                    21837300.055
        47.100          27.100
 119030168.442 6                  22650688.203
        38.700
 126810952.84915                  24131330.008
        32.000
                  83983161.582 6  20185414.969                    20185415.438
                        37.700
 111304409.293 8  86730721.07845  21180525.539                    21180531.016
        50.000          34.800
 117487259.02117                  22357083.227
        45.800
 113575528.022 6  88500368.56443  21612703.547                    21612705.398
        41.200          22.600
 18  3 15 13 42  6.0000000  0 12R01R02G12R10R11G17G01G10R19G24G32G19
                                  22193326.609

                  84764966.736 6  20423468.086                    20423470.063
                        41.700
 116477111.25117                  22164827.484
        43.900
                  81442254.253 6  19643606.102                    19643609.602
                        39.600
                  84928511.629 6  20434131.063                    20434132.824
                        41.100
 114756100.927 7  89420356.62344  21837370.430                    21837373.980
        47.300          28.500
 119031994.424 6                  22651035.305
        36.900
 126814560.42015                  24132015.727
        32.200
                  83983736.380 6  20185553.742                    20185553.656
                        38.200
 111306102.116 8  86732040.16445  21180847.125                    21180853.016
        49.500          35.300
 117486118.49817                  22356865.867
        44.900
 113574294.117 6  88499407.06243  21612469.258                    21612470.375
        40.700          22.000
 18  3 15 13 42  7.0000000  0 12R01R02G12R10R11G17G01G10R19G24G32G19
                                  22194127.805

                  84764870.334 6  20423444.234                    20423447.199
                        41.900
 116474334.186 7                  22164299.344
        43.900
                  81443860.979 6  19643993.797                    19643997.434
                        39.400
                  84926623.012 6  20433677.141                    20433678.402
                        41.300
 114756491.816 7  89420661.20844  21837444.805                    21837448.504
        47.200          28.200
 119033821.091 6                  22651382.852
        37.700
 126818168.418 5                  24132701.516
        31.000
                  83984311.909 6  20185691.422                    20185692.082
                        38.200
 111307795.606 8  86733359.77145  21181169.781                    21181175.293
        49.900          35.400
 117484978.622 7  91546702.36754  22356649.398                    22356654.656
        45.500          29.200
 113573060.863 6  88498446.09143  21612235.023                    21612235.613
        41.600          22.900
 18  3 15 13 42  8.0000000  0 12R01R02G12R10R11G17G01G10R19G24G32G19
                                  22194927.313

                  84764774.654 6  20423420.789                    20423423.668
                        41.400
 116471558.073 7  90756946.30054  22163771.219                    22163773.938
        44.100          25.600
                  81445468.325 6  19644381.156                    19644384.906
                        39.600
                  84924734.833 6  20433222.867                    20433223.828
                        41.200
 114756883.333 7  89420966.28344  21837518.852                    21837522.625
        47.400          27.800
 119035648.394 6  92755070.26852  22651731.125                    22651736.402
        36.800          17.400
 126821776.635 5                  24133388.344
        32.300
                  83984888.182 6  20185830.820                    20185830.063
                        38.300
 111309489.702 8  86734679.84845  21181491.758                    21181497.824
        49.300          34.900
 117483839.386 7  91545814.63544  22356432.344                    22356437.680
        45.000          28.400
 113571828.294 6  88497485.63243  21612000.109                    21612001.043
        40.800          22.800
 18  3 15 13 42  9.0000000  0 13R01R02G12R10R11R18G17G01G10R19G24G32
                                G19
                                  22195729.289

                  84764679.765 6  20423398.453                    20423400.824
                        40.400
 116468782.396 7  90754783.41944  22163243.070                    22163245.742
        44.500          25.600
                  81447076.305 6  19644768.938                    19644773.281
                        39.600
                  84922847.147 6  20432768.320                    20432769.738
                        40.900
                                  22559362.859

 114757275.504 7  89421271.87244  21837594.000                    21837597.391
        47.300          28.600
 119037476.392 6  92756494.67642  22652079.477                    22652084.539
        36.100          15.600
 126825385.228 5                  24134075.602
        32.800
                  83985465.232 6  20185970.016                    20185969.301
                        38.200
 111311184.483 8  86736000.45445  21181814.297                    21181820.098
        49.600          35.400
 117482700.816 7  91544927.44944  22356215.969                    22356221.293
        43.400          26.800
 113570596.493 6  88496525.79343  21611765.070                    21611766.793
        40.400          22.300
 18  3 15 13 42 10.0000000  0 13R01R02G12R10R11R18G17G01G10R19G24G32
                                G19
                                  22196530.844

                  84764585.590 6  20423375.766                    20423378.199
                        41.000
 116466007.130 7  90752620.89144  22162714.664                    22162717.848
        44.200          24.500
                  81448684.880 6  19645156.828                    19645160.691
                        39.700
                  84920959.960 6  20432314.211                    20432315.719
                        41.200
                                  22560185.703

 114757668.303 7  89421577.95244  21837668.430                    21837672.418
        47.200          28.400
 119039305.028 5  92757919.56142  22652427.063                    22652432.449
        35.900          15.600
 126828994.207 5                  24134761.781
        32.900
                  83986042.988 6  20186108.086                    20186108.305
                        38.300
 111312879.845 8  86737321.52145  21182137.008                    21182143.227
        49.300          35.300
 117481562.804 7  91544040.68744  22355999.305                    22356004.539
        45.400          29.600
 113569365.349 6  88495566.46144  21611530.852                    21611532.813
        41.700          25.000
 18  3 15 13 42 11.0000000  0 13R01R02G12R10R11R18G17G01G10R19G24G32
                                G19
                                  22197331.977

                  84764492.123 6  20423353.328                    20423355.691
                        40.900
 116463232.327 7  90750458.72744  22162186.500                    22162189.957
        44.200          24.800
                  81450294.080 6  19645545.148                    19645548.598
                        39.200
                  84919073.287 6  20431860.289                    20431861.590
                        41.200
                                  22561008.391

 114758061.792 7  89421884.57144  21837743.102                    21837746.742
        47.300          28.100
 119041134.348 6  92759345.00142  22652774.070                    22652780.613
        37.100          14.800
 126832603.522 5                  24135448.414
        32.900
                  83986621.513 6  20186247.109                    20186247.430
                        38.900
 111314575.854 8  86738643.08045  21182459.695                    21182465.695
        49.300          35.200
 117480425.452 7  91543154.44945  22355782.500                    22355788.063
        46.000          30.400
 113568134.924 7  88494607.70844  21611297.219                    21611298.309
        42.500          24.600
 18  3 15 13 42 12.0000000  0 13R01R02G12R10R11R18G17G01G10R19G24G32
                                G19
                                  22198133.453

                  84764399.379 6  20423331.250                    20423333.367
                        41.000
 116460457.912 7  90748296.86343  22161658.977                    22161661.711
        43.900          23.300
                  81451903.893 6  19645933.234                    19645936.762
                        39.300
                  84917187.068 6  20431406.484                    20431407.906
                        41.100
                                  22561831.328

 114758455.866 7  89422191.63644  21837818.680                    21837821.883
        47.400          28.300
 119042964.390 6  92760771.06642  22653122.805                    22653128.566
        36.400          14.800
 126836213.160 5                  24136135.633
        31.300
                  83987200.766 6  20186386.516                    20186386.238
                        38.600
 111316272.498 8  86739965.13245  21182783.008                    21182788.598
        49.500          34.900
 117479288.668 7  91542268.61844  22355566.570                    22355572.020
        45.900          26.500
 113566905.232 7  88493649.51644  21611064.008                    21611064.594
        42.600          24.800
 18  3 15 13 42 13.0000000  0 13R01R02G12R10R11R18G17G01G10R19G24G32
                                G19
                                  22198934.758

                  84764307.320 6  20423308.781                    20423311.273
                        41.100
 116457683.996 7  90746135.37944  22161131.438                    22161134.309
        43.800          24.400
                  81453514.314 6  19646321.945                    19646325.480
                        39.500
                  84915301.313 6  20430952.531                    20430954.055
                        41.200
                                  22562655.664

 114758850.637 7  89422499.24444  21837893.570                    21837897.285
        47.200          29.000
 119044795.083 6  92762197.55842  22653471.727                    22653477.359
        36.800          14.800
 126839823.200 4                  24136822.477
        29.600
                  83987780.795 6  20186525.977                    20186525.980
                        38.700
 111317969.790 8  86741287.68945  21183106.188                    21183111.910
        49.500          35.400
 117478152.655 7  91541383.42244  22355350.063                    22355355.570
        43.800          26.100
 113565676.203 7  88492691.82944  21610828.945                    21610830.664
        42.300          25.000
 18  3 15 13 42 14.0000000  0 13R01R02G12R10R11R18G17G01G10R19G24G32
                                G19
                                  22199736.898

                  84764216.029 6  20423286.195                    20423289.047
                        41.300
 116454910.450 7  90743974.17344  22160603.609                    22160606.137
        44.700          24.000
                  81455125.325 6  19646710.961                    19646714.059
                        39.600
                  84913416.077 6  20430499.047                    20430500.898
                        41.400
                                  22563478.875

 114759246.028 7  89422807.33944  21837969.234                    21837972.332
        46.700          28.400
 119046626.451 6  92763624.59142  22653820.555                    22653825.469
        37.100          15.600
 126843433.39715                  24137510.297
        31.000
                  83988361.562 6  20186665.523                    20186665.348
                        38.900
 111319667.715 8  86742610.75345  21183428.523                    21183434.531
        49.500          35.500
 117477017.071 7  91540498.56544  22355134.203                    22355139.684
        43.400          25.100
 113564447.918 7  88491734.72644  21610595.469                    21610597.320
        43.700          27.300
 18  3 15 13 42 15.0000000  0 13R01R02G12R10R11R18G17G01G10R19G24G32
                                G19
                                  22200537.461

                  84764125.460 6  20423264.461                    20423267.207
                        41.800
 116452137.368 7  90741813.32244  22160076.391                    22160078.797
        44.900          25.400
                  81456736.927 6  19647099.359                    19647102.699
                        39.700
                  84911531.342 6  20430045.688                    20430047.070
                        41.200
                                  22564301.000

 114759642.050 7  89423115.93744  21838043.664                    21838047.875
        46.300          28.900
 119048458.524 6  92765052.14642  22654169.117                    22654174.004
        36.900          14.800
 126847043.991 5                  24138196.805
        31.600
                  83988943.110 6  20186804.344                    20186805.266
                        39.100
 111321366.265 8  86743934.29545  21183752.477                    21183757.605
        49.700          35.400
 117475882.262 7  91539614.29044  22354918.102                    22354923.414
        46.000          28.800
 113563220.319 7  88490778.15044  21610362.352                    21610363.438
        43.500          27.700
 18  3 15 13 42 16.0000000  0 13R01R02G12R10R11R18G17G01G10R19G24G32
                                G19
                  92305809.50814  22201337.727                    22201342.191
                        27.700
                  84764035.629 6  20423243.227                    20423245.809
                        41.100
 116449364.743 7  90739652.82244  22159547.563                    22159551.043
        43.800          24.800
                  81458349.174 6  19647488.898                    19647491.652
                        39.800
                  84909647.113 6  20429592.406                    20429593.352
                        41.300
                                  22565124.000

 114760038.755 7  89423425.06044  21838119.609                    21838123.324
        45.900          28.300
 119050291.264 6  92766480.24642  22654517.633                    22654523.094
        37.000          15.600
 126850655.233 5                  24138883.734
        32.800
                  83989525.390 6  20186945.539                    20186944.918
                        39.300
 111323065.457 8  86745258.34345  21184075.516                    21184081.629
        49.800          35.700
 117474748.045 7  91538730.45944  22354702.563                    22354708.094
        45.400          27.900
 113561993.466 7  88489822.16344  21610128.977                    21610129.922
        43.600          27.300
 18  3 15 13 42 17.0000000  0 13R01R02G12R10R11R18G17G01G10R19G24G32
                                G19
                  92309142.59014  22202140.992                    22202144.781
                        26.600
                  84763946.581 6  20423222.273                    20423224.715
                        41.600
 116446592.579 7  90737492.69444  22159020.125                    22159023.566
        44.200          25.800
                  81459962.041 6  19647876.656                    19647880.895
                        40.200
                  84907763.354 6  20429138.539                    20429140.719
                        41.100
                                  22565948.234

 114760436.104 7  89423734.69344  21838195.117                    21838198.512
        46.000          28.000
 119052124.716 6  92767908.89442  22654865.922                    22654871.938
        36.300          14.800
 126854266.42714                  24139570.828
        28.900
                  83990108.421 6  20187084.695                    20187085.238
                        39.700
 111324765.304 8  86746582.90445  21184398.891                    21184404.738
        49.500          35.300
 117473614.478 7  91537847.13544  22354486.953                    22354492.496
        44.500          24.800
 113560767.297 7  88488866.71244  21609894.680                    21609896.688
        43.400          27.500
 18  3 15 13 42 18.0000000  0 13R01R02G12R10R11R18G17G01G10R19G24G32
                                G19
                  92312476.581 4  22202941.586                    22202946.691
                        25.700
                  84763858.292 6  20423200.141                    20423203.250
                        41.100
 116443820.855 7  90735332.91144  22158493.180                    22158496.270
        44.200          26.400
                  81461575.519 6  19648266.086                    19648269.645
                        40.200
                  84905880.101 6  20428685.992                    20428687.602
                        41.300
                                  22566773.422

 114760834.132 7  89424044.83644  21838271.094                    21838274.324
        46.400          29.100
 119053958.826 6  92769338.10742  22655214.156                    22655220.988
        36.300          13.900
 126857878.21815                  24140258.867
        30.700
                  83990692.197 6  20187225.180                    20187226.078
                        39.600
 111326465.800 8  86747907.95945  21184722.672                    21184728.602
        49.600          35.000
 117472481.570 7  91536964.33944  22354270.992                    22354276.809
        44.700          26.200
 113559541.866 7  88487911.84244  21609661.758                    21609663.207
        43.100          27.300
 18  3 15 13 42 19.0000000  0 13R01R02G12R10R11R18G17G01G10R19G24G32
                                G19
                  92315810.884 4  22203743.313                    22203748.406
                        25.100
                  84763770.748 6  20423179.000                    20423181.871
                        41.800
 116441049.565 7  90733173.46944  22157965.758                    22157968.910
        43.900          24.600
                  81463189.621 6  19648655.570                    19648659.617
                        39.900
                  84903997.323 6  20428232.727                    20428234.359
                        41.400
                                  22567597.031

 114761232.787 7  89424355.47844  21838346.453                    21838350.016
        46.400          28.600
 119055793.669 6  92770767.89742  22655563.734                    22655570.359
        36.800          14.800
 126861490.049 4                  24140945.781
        29.600
                  83991276.696 6  20187366.086                    20187366.086
                        39.800
 111328166.943 8  86749233.52645  21185046.570                    21185052.230
        49.500          35.200
 117471349.314 7  91536082.06444  22354055.242                    22354060.918
        45.400          29.300
 113558317.121 7  88486957.49444  21609428.570                    21609430.492
        42.400          27.700
 18  3 15 13 42 20.0000000  0 13R01R02G12R10R11R18G17G01G10R19G24G32
                                G19
                  92319145.530 4  22204546.109                    22204550.727
                        24.900
                  84763683.890 6  20423158.563                    20423160.949
                        41.500
 116438278.716 7  90731014.37344  22157438.484                    22157441.500
        43.700          25.200
                  81464804.329 6  19649045.164                    19649048.754
                        39.700
                  84902115.047 6  20427779.781                    20427781.688
                        41.400
                                  22568420.406

 114761632.081 7  89424666.60944  21838422.906                    21838426.695
        46.500          28.300
 119057629.247 6  92772198.19342  22655913.844                    22655919.406
        36.100          14.800
 126865102.49514                  24141633.977
        28.900
                  83991861.971 6  20187506.695                    20187506.414
                        39.700
 111329868.713 8  86750559.57845  21185369.930                    21185375.996
        49.000          35.100
 117470217.675 7  91535200.26645  22353840.367                    22353845.852
        45.400          30.200
 113557093.055 7  88486003.67644  21609196.180                    21609197.410
        42.700          26.600
 18  3 15 13 42 21.0000000  0 14R01R02G12R10R11G14R18G17G01G10R19G24
                                G32G19
                  92322480.582 3  22205349.953                    22205352.754
                        22.300
                  84763597.799 6  20423138.109                    20423140.406
                        41.600
 116435508.268 7  90728855.59644  22156911.086                    22156914.492
        43.800          26.100
                  81466419.660 6  19649434.406                    19649438.727
                        39.900
                  84900233.300 6  20427327.195                    20427328.867
                        41.000
 125110147.31515                  23807677.984
        31.900
                                  22569244.320

 114762032.022 7  89424978.24244  21838499.031                    21838502.422
        46.800          29.000
 119059465.419 6  92773628.95742  22656262.805                    22656268.918
        36.800          14.800
 126868715.196 5                  24142320.266
        32.800
                  83992447.961 6  20187648.203                    20187647.199
                        38.700
 111331571.130 8  86751886.13745  21185694.266                    21185700.246
        49.400          35.300
 117469086.688 7  91534318.98744  22353625.438                    22353630.684
        45.500          28.700
 113555869.747 6  88485050.45244  21608963.625                    21608964.980
        41.700          24.400
 18  3 15 13 42 22.0000000  0 14R01R02G12R10R11G14R18G17G01G10R19G24
                                G32G19
                  92325816.017 3  22206151.313                    22206154.680
                        22.500
                  84763512.416 6  20423117.391                    20423120.219
                        41.100
 116432738.296 7  90726697.18544  22156384.016                    22156387.625
        43.500          25.800
                  81468035.598 6  19649823.992                    19649827.785
                        39.700
                  84898351.983 6  20426874.539                    20426876.355
                        40.700
 125107590.03215                  23807192.039
        31.300
                                  22570067.461

 114762432.605 7  89425290.38044  21838575.109                    21838578.496
        47.100          28.500
 119061302.238 6  92775060.20742  22656614.461                    22656618.449
        36.700          14.800
 126872328.137 4                  24143008.250
        26.800
                  83993034.701 6  20187789.211                    20187788.766
                        38.500
 111333274.144 8  86753213.15745  21186017.859                    21186024.035
        49.600          35.400
 117467956.242 7  91533438.13744  22353409.898                    22353415.746
        44.600          27.400
 113554647.110 6  88484097.73543  21608730.320                    21608732.094
        41.100          23.800
 18  3 15 13 42 23.0000000  0 14R01R02G12R10R11G14R18G17G01G10R19G24
                                G32G19
                  92329151.765 4  22206952.969                    22206957.605
                        26.600
                  84763427.733 6  20423096.547                    20423099.418
                        41.100
 116429968.729 7  90724539.07244  22155857.000                    22155860.574
        44.100          25.800
                  81469652.122 6  19650214.383                    19650218.031
                        39.600
                  84896471.137 6  20426421.688                    20426423.332
                        40.600
 125105033.04615                  23806705.656
        30.100
                                  22570892.094

 114762833.788 7  89425602.98844  21838651.625                    21838655.094
        46.600          28.900
 119063139.729 6  92776491.94642  22656963.688                    22656968.105
        37.100          14.800
 126875941.47913                  24143695.797
        23.800
                  83993622.159 6  20187930.539                    20187929.762
                        38.900
 111334977.783 8  86754540.67045  21186342.805                    21186348.363
        49.700          35.400
 117466826.461 7  91532557.81144  22353195.000                    22353200.742
        45.200          28.100
 113553425.144 7  88483145.55643  21608497.914                    21608499.484
        42.100          23.900
 18  3 15 13 42 24.0000000  0 13R02G12R10R11G14R18G17G01G10R19G24G32
                                G19
                  84763343.766 6  20423076.867                    20423079.168
                        41.700
 116427199.570 7  90722381.27144  22155330.344                    22155333.465
        44.100          26.400
                  81471269.242 6  19650604.539                    19650607.508
                        39.700
                  84894590.774 6  20425969.469                    20425970.684
                        41.300
 125102476.58615                  23806218.977
        30.800
                                  22571715.383

 114763235.638 7  89425916.11844  21838727.898                    21838731.566
        47.300          28.500
 119064977.959 5  92777924.44142  22657312.125                    22657318.516
        35.800          14.800
 126879555.23514                  24144383.586
        24.600
                  83994210.383 6  20188071.609                    20188071.180
                        40.000
 111336682.048 8  86755868.66645  21186666.922                    21186672.508
        49.700          35.000
 117465697.273 7  91531677.92744  22352980.148                    22352985.832
        44.400          27.200
 113552203.906 7  88482193.94944  21608265.969                    21608267.059
        42.700          26.500
 18  3 15 13 42 25.0000000  0 12R02G12R10R11G14R18G17G01R19G24G32G19
                  84763260.559 6  20423057.039                    20423059.305
                        41.600
 116424430.864 7  90720223.82544  22154803.359                    22154806.270
        43.700          24.700
                  81472887.005 6  19650994.680                    19650998.270
                        39.900
                  84892710.911 6  20425516.734                    20425518.559
                        41.400
 125099919.850 5                  23805731.063
        31.000
                                  22572541.148

 114763638.135 7  89426229.74644  21838803.820                    21838807.789
        47.000          28.900
 119066816.795 5  92779357.26942  22657661.992                    22657667.602
        35.900          15.600
                  83994799.339 6  20188213.367                    20188213.043
                        39.300
 111338386.961 8  86757197.16245  21186991.047                    21186996.656
        49.500          34.800
 117464568.761 7  91530798.57044  22352765.469                    22352770.754
        44.600          27.000
 113550983.379 7  88481242.89544  21608033.305                    21608034.965
        42.100          26.100
 18  3 15 13 42 26.0000000  0 12R02G12R10R11G14R18G17G01R19G24G32G19
                  84763178.073 6  20423036.680                    20423038.895
                        41.800
 116421662.603 7  90718066.73744  22154276.523                    22154279.699
        44.400          26.200
                  81474505.361 6  19651385.164                    19651388.469
                        39.700
                  84890831.533 6  20425064.945                    20425066.906
                        40.400
 125097364.082 5                  23805245.086
        31.000
                                  22573363.344

 114764041.282 7  89426543.89644  21838881.031                    21838884.918
        47.100          29.400
 119068656.372 6  92780790.75442  22658012.727                    22658018.430
        36.000          14.800
                  83995389.047 6  20188355.234                    20188354.496
                        39.100
 111340092.530 8  86758526.17945  21187315.547                    21187321.367
        49.600          34.200
 117463440.858 7  91529919.66844  22352550.672                    22352556.250
        44.300          27.000
 113549763.544 7  88480292.38344  21607800.633                    21607802.953
        42.100          26.300
 18  3 15 13 42 27.0000000  0 13R01R02G12R10R11G14R18G17G01R19G24G32
                                G19
                  92342498.44714  22210162.820                    22210167.664
                        29.300
                  84763096.334 6  20423017.344                    20423019.398
                        41.800
 116418894.798 7  90715910.02744  22153750.133                    22153753.230
        44.100          26.700
                  81476124.360 6  19651775.914                    19651779.051
                        39.300
                  84888952.697 6  20424612.656                    20424614.762
                        40.800
 125094808.637 5                  23804759.977
        30.300
                                  22574187.609

 114764445.084 7  89426858.53944  21838958.297                    21838961.742
        46.600          29.300
 119070496.589 5  92782224.69542  22658361.430                    22658368.609
        35.200          14.800
                  83995979.543 6  20188496.797                    20188496.434
                        39.200
 111341798.763 8  86759855.71145  21187640.734                    21187646.234
        49.700          35.300
 117462313.617 7  91529041.27644  22352336.461                    22352341.617
        44.400          28.600
 113548544.423 7  88479342.41544  21607569.531                    21607571.012
        42.500          25.300
 18  3 15 13 42 28.0000000  0 13R01R02G12R10R11G14R18G17G01R19G24G32
                                G19
                  92345835.971 4  22210966.266                    22210970.566
                        25.100
                  84763015.302 6  20422998.016                    20422999.359
                        41.900
 116416127.425 7  90713753.64244  22153223.250                    22153226.563
        43.900          25.300
                  81477743.970 6  19652166.320                    19652169.801
                        39.300
                  84887074.325 6  20424160.617                    20424162.664
                        40.400
 125092253.550 5                  23804272.625
        31.300
                                  22575013.852

 114764849.549 7  89427173.71044  21839035.234                    21839038.566
        46.800          28.600
 119072337.541 5  92783659.24442  22658710.969                    22658718.563
        35.200          13.900
                  83996570.733 6  20188638.766                    20188638.727
                        39.000
 111343505.644 8  86761185.74945  21187964.719                    21187971.020
        49.500          35.600
 117461187.023 7  91528163.41344  22352121.664                    22352127.293
        44.600          27.800
 113547326.034 6  88478393.01644  21607337.906                    21607339.070
        41.200          24.900
 18  3 15 13 42 29.0000000  0 13R01R02G12R10R11G14R18G17G01R19G24G32
                                G19
                  92349173.971 3  22211767.945                    22211773.746
                        21.600
                  84762934.992 6  20422978.141                    20422980.754
                        41.600
 116413360.484 7  90711597.59044  22152696.477                    22152700.020
        43.300          24.100
                  81479364.168 6  19652556.805                    19652560.316
                        39.800
                  84885196.414 6  20423708.836                    20423711.145
                        41.100
 125089698.819 5                  23803786.242
        31.600
                                  22575837.641

 114765254.626 7  89427489.35244  21839112.156                    21839115.246
        46.700          28.700
 119074179.102 5  92785094.22242  22659062.438                    22659069.273
        35.000          15.600
                  83997162.712 6  20188780.539                    20188780.344
                        39.200
 111345213.120 8  86762516.24845  21188290.578                    21188295.984
        49.400          35.500
 117460060.991 7  91527285.99444  22351907.594                    22351913.113
        44.900          27.900
 113546108.308 6  88477444.14444  21607105.406                    21607107.402
        41.300          26.400
 18  3 15 13 42 30.0000000  0 13R01R02G12R10R11G14R18G17G01R19G24G32
                                G19
                                  22212571.133

                  84762855.414 6  20422959.289                    20422961.672
                        41.700
 116410593.942 7  90709441.83343  22152170.078                    22152173.840
        43.000          23.600
                  81480984.969 6  19652947.914                    19652951.387
                        39.600
                  84883318.965 6  20423257.211                    20423258.879
                        40.400
 125087144.449 5                  23803301.289
        31.300
                                  22576662.875

 114765660.319 7  89427805.47544  21839189.492                    21839192.973
        47.000          28.900
 119076021.343 5  92786529.67742  22659413.500                    22659419.953
        34.800          14.800
                  83997755.386 6  20188923.008                    20188923.016
                        39.300
 111346921.200 8  86763847.21845  21188614.852                    21188621.039
        49.500          35.500
 117458935.603 7  91526409.09144  22351693.359                    22351698.867
        44.300          26.500
 113544891.266 6  88476495.79444  21606873.969                    21606875.195
        41.700          26.300
 18  3 15 13 42 31.0000000  0 13R01R02G12R10R11G14R18G17G01R19G24G32
                                G19
                                  22213374.813

                  84762776.595 6  20422940.313                    20422942.465
                        41.800
 116407827.871 7  90707286.44944  22151643.500                    22151647.055
        43.300          25.100
                  81482606.374 6  19653339.102                    19653342.926
                        39.500
                  84881442.060 6  20422805.773                    20422807.188
                        41.600
 125084590.459 4                  23802813.773
        29.900
                                  22577486.336

 114766066.672 7  89428122.11344  21839266.820                    21839269.879
        47.100          28.100
 119077864.245 5  92787965.68842  22659764.852                    22659770.508
        35.200          14.800
                  83998348.825 6  20189065.672                    20189065.785
                        39.300
 111348629.943 8  86765178.70945  21188940.305                    21188946.059
        49.500          35.700
 117457810.874 7  91525532.68544  22351479.563                    22351484.734
        44.500          27.000
 113543674.983 6  88475548.03944  21606642.961                    21606644.266
        41.900          26.700
 18  3 15 13 42 32.0000000  0 12R02G12R10R11G14R18G17G01R19G24G32G19
                  84762698.514 6  20422921.000                    20422923.719
                        41.500
 116405062.215 7  90705131.39343  22151117.609                    22151120.816
        43.100          23.200
                  81484228.391 6  19653730.578                    19653733.207
                        39.300
                  84879565.587 6  20422354.656                    20422356.082
                        40.400
 125082036.771 4                  23802328.617
        29.900
                                  22578310.266

 114766473.669 7  89428439.24444  21839343.859                    21839347.621
        47.000          28.000
 119079707.825 5  92789402.24542  22660115.469                    22660121.871
        34.500          14.800
                  83998943.017 6  20189209.359                    20189208.930
                        39.500
 111350339.305 8  86766510.67745  21189265.563                    21189271.547
        49.600          35.300
 117456686.729 7  91524656.72044  22351265.555                    22351271.039
        44.200          26.500
 113542459.396 6  88474600.82944  21606411.383                    21606412.535
        41.800          27.900
 18  3 15 13 42 33.0000000  0 12R02G12R10R11G14R18G17G01R19G24G32G19
                  84762621.192 6  20422902.719                    20422904.820
                        41.600
 116402296.989 7  90702976.67544  22150591.516                    22150594.699
        44.300          24.400
                  81485851.002 6  19654121.578                    19654124.934
                        39.300
                  84877689.591 6  20421902.680                    20421904.465
                        41.000
 125079483.387 4                  23801841.641
        29.400
                                  22579136.273

 114766881.295 7  89428756.87544  21839422.133                    21839425.281
        47.200          29.500
 119081552.170 5  92790839.39642  22660466.344                    22660472.703
        34.600          14.800
                  83999537.911 6  20189351.398                    20189351.234
                        39.400
 111352049.300 8  86767843.13745  21189590.914                    21189596.801
        49.800          34.900
 117455563.263 7  91523781.28244  22351052.000                    22351057.301
        43.700          27.200
 113541244.463 6  88473654.12544  21606180.281                    21606181.621
        41.800          27.000
 18  3 15 13 42 34.0000000  0 12R02G12R10R11G14R18G17G01R19G24G32G19
                  84762544.601 6  20422884.227                    20422886.617
                        41.400
 116399532.209 7  90700822.29944  22150065.391                    22150068.508
        44.600          26.400
                  81487474.218 6  19654513.008                    19654516.617
                        38.900
                  84875814.108 6  20421451.844                    20421453.750
                        41.300
 125076931.03314                  23801356.391
        29.400
                                  22579959.984

 114767289.574 7  89429075.01144  21839499.633                    21839503.031
        47.300          29.500
 119083397.101 5  92792276.95742  22660817.219                    22660823.152
        35.000          13.900
                  84000133.578 6  20189494.563                    20189494.789
                        39.300
 111353759.950 8  86769176.11745  21189916.211                    21189922.004
        49.900          35.100
 117454440.380 7  91522906.30544  22350837.961                    22350843.664
        44.100          27.800
 113540030.274 6  88472708.00344  21605948.844                    21605950.977
        40.800          24.900
 18  3 15 13 42 35.0000000  0 12R02G12R10R11G14R18G17G01R19G24G32G19
                  84762468.739 6  20422866.094                    20422867.777
                        41.400
 116396767.878 7  90698668.28144  22149538.836                    22149542.453
        44.900          25.600
                  81489098.066 6  19654904.977                    19654908.363
                        39.700
                  84873939.141 6  20421000.391                    20421002.063
                        41.400
 125074378.47015                  23800871.336
        30.800
                                  22580785.047

 114767698.511 7  89429393.65344  21839577.125                    21839580.445
        47.300          28.700
 119085242.739 5  92793715.10442  22661168.609                    22661175.105
        34.200          16.300
                  84000729.961 6  20189638.813                    20189638.152
                        39.400
 111355471.227 8  86770509.57545  21190242.438                    21190247.918
        50.300          35.100
 117453318.154 7  91522031.85044  22350624.531                    22350630.102
        43.900          28.000
 113538816.766 6  88471762.42544  21605717.430                    21605719.711
        40.200          25.500
 18  3 15 13 42 36.0000000  0 12R02G12R10R11G14R18G17G01R19G24G32G19
                  84762393.586 6  20422847.742                    20422849.910
                        41.600
 116394004.004 7  90696514.61844  22149012.984                    22149016.629
        44.500          24.100
                  81490722.556 6  19655297.070                    19655299.844
                        39.700
                  84872064.680 6  20420549.781                    20420551.102
                        40.900
 125071826.24215                  23800385.852
        31.000
                                  22581610.594

 114768108.117 7  89429712.81844  21839655.398                    21839658.941
        47.500          29.400
 119087089.104 5  92795153.88442  22661519.641                    22661526.398
        35.100          14.800
                  84001327.134 6  20189782.234                    20189781.750
                        39.400
 111357183.150 8  86771843.54045  21190567.336                    21190573.734
        49.500          34.700
 117452196.612 7  91521157.92844  22350410.953                    22350416.316
        43.600          27.200
 113537604.022 6  88470817.44044  21605487.688                    21605488.398
        40.900          26.200
 18  3 15 13 42 37.0000000  0 12R02G12R10R11G14R18G17G01R19G24G32G19
                  84762319.163 6  20422829.672                    20422832.371
                        41.800
 116391240.604 7  90694361.34743  22148487.156                    22148490.496
        43.700          22.600
                  81492347.634 6  19655689.008                    19655692.465
                        39.600
                  84870190.688 6  20420098.930                    20420100.129
                        40.900
 125069274.021 5                  23799900.531
        31.900
                                  22582435.445

 114768518.362 7  89430032.48744  21839733.570                    21839736.820
        47.500          29.600
 119088936.138 5  92796593.12842  22661870.711                    22661877.902
        35.400          14.800
                  84001925.080 6  20189925.531                    20189925.191
                        39.200
 111358895.693 8  86773177.98845  21190894.281                    21190899.641
        49.500          35.200
 117451075.684 7  91520284.47944  22350197.828                    22350203.535
        43.800          28.000
 113536391.965 6  88469872.97244  21605257.648                    21605258.047
        40.800          24.000
 18  3 15 13 42 38.0000000  0 12R02G12R10R11G14R18G17G01R19G24G32G19
                  84762245.447 6  20422812.563                    20422814.313
                        41.700
 116388477.595 7  90692208.35044  22147961.383                    22147964.738
        44.900          25.100
                  81493973.315 6  19656080.695                    19656083.828
                        39.400
                  84868317.165 6  20419648.133                    20419650.121
                        41.200
 125066722.570 5                  23799414.383
        31.600
                                  22583260.164

 114768929.236 7  89430352.64644  21839811.789                    21839814.656
        47.300          28.700
 119090783.806 5  92798032.93042  22662222.977                    22662229.332
        35.200          13.900
                  84002523.707 6  20190069.953                    20190069.145
                        39.300
 111360608.869 8  86774512.93045  21191219.898                    21191225.852
        49.800          35.400
 117449955.349 7  91519411.51244  22349984.492                    22349990.082
        43.700          28.100
 113535180.594 6  88468929.04044  21605025.086                    21605027.527
        40.500          26.200
 18  3 15 13 42 39.0000000  0 12R02G12R10R11G14R18G17G01R19G24G32G19
                  84762172.470 6  20422794.000                    20422796.844
                        41.500
 116385715.037 7  90690055.69644  22147436.063                    22147438.996
        44.300          25.700
                  81495599.622 6  19656473.133                    19656476.254
                        39.500
                  84866444.164 6  20419196.867                    20419198.770
                        41.200
 125064171.468 5                  23798928.469
        32.300
                                  22584085.188

 114769340.771 7  89430673.32744  21839889.969                    21839893.297
        47.300          29.400
 119092632.131 5  92799473.22542  22662574.945                    22662581.445
        35.200          14.800
                  84003123.114 6  20190213.852                    20190213.551
                        39.100
 111362322.693 8  86775848.38445  21191545.563                    21191551.844
        49.400          35.100
 117448835.668 7  91518539.05144  22349771.523                    22349776.945
        43.400          26.800
 113533969.967 6  88467985.69544  21604795.781                    21604796.969
        41.500          28.300
 18  3 15 13 42 40.0000000  0 12R02G12R10R11G14R18G17G01R19G24G32G19
                  84762100.229 6  20422777.164                    20422779.621
                        41.600
 116382952.923 7  90687903.39044  22146910.398                    22146913.367
        45.100          25.200
                  81497226.533 6  19656865.273                    19656868.813
                        39.400
                  84864571.662 6  20418746.727                    20418748.184
                        41.200
 125061620.723 5                  23798442.852
        31.900
                                  22584909.672

 114769752.920 7  89430994.48344  21839968.422                    21839971.449
        47.200          28.500
 119094481.180 5  92800913.99942  22662926.438                    22662932.977
        35.800          15.600
                  84003723.223 6  20190358.578                    20190357.332
                        38.900
 111364037.146 8  86777184.31645  21191872.234                    21191877.988
        49.500          35.100
 117447716.616 7  91517667.07644  22349558.508                    22349564.207
        43.900          27.400
 113532760.042 7  88467042.89744  21604566.188                    21604567.117
        42.000          28.100
 18  3 15 13 42 41.0000000  0 12R02G12R10R11G14R18G17G01R19G24G32G19
                  84762028.741 6  20422760.117                    20422762.152
                        41.600
 116380191.199 7  90685751.39344  22146384.961                    22146387.582
        44.700          24.900
                  81498854.055 6  19657257.781                    19657261.621
                        39.500
                  84862699.630 6  20418296.070                    20418297.430
                        41.600
 125059070.398 5                  23797958.570
        31.800
                                  22585734.953

 114770165.715 7  89431316.14444  21840046.758                    21840050.109
        46.900          29.500
 119096330.887 5  92802355.28242  22663278.703                    22663285.066
        35.500          15.600
                  84004324.083 6  20190502.266                    20190502.180
                        38.500
 111365752.228 8  86778520.73845  21192198.953                    21192204.336
        49.700          35.000
 117446598.188 7  91516795.57644  22349345.828                    22349351.168
        43.800          28.000
 113531550.779 6  88466100.61144  21604335.281                    21604336.914
        41.700          26.700
 18  3 15 13 42 42.0000000  0 12R02G12R10R11G14R18G17G01R19G24G32G19
                  84761957.962 6  20422742.672                    20422745.332
                        41.600
 116377429.941 7  90683599.75744  22145859.273                    22145862.465
        44.700          26.400
                  81500482.181 6  19657650.711                    19657653.660
                        39.700
                  84860828.044 6  20417845.930                    20417848.246
                        41.800
 125056520.334 5                  23797472.656
        32.400
                                  22586561.031

 114770579.165 7  89431638.31744  21840125.742                    21840129.086
        47.000          28.800
 119098181.259 5  92803797.11742  22663631.094                    22663637.266
        35.600          15.600
                  84004925.690 6  20190647.195                    20190646.348
                        39.200
 111367467.945 8  86779857.66945  21192524.719                    21192530.898
        49.500          34.900
 117445480.388 7  91515924.55544  22349133.070                    22349138.840
        44.000          28.100
 113530342.224 6  88465158.87744  21604105.219                    21604106.863
        41.700          26.500
 18  3 15 13 42 43.0000000  0 12R02G12R10R11G14R18G17G01R19G24G32G19
                  84761887.935 6  20422725.922                    20422728.523
                        41.400
 116374669.081 7  90681448.44244  22145333.688                    22145336.730
        44.600          24.400
                  81502110.916 6  19658044.242                    19658047.574
                        39.600
                  84858956.943 6  20417395.852                    20417397.809
                        41.400
 125053970.710 5                  23796988.008
        31.300
                                  22587385.711

 114770993.241 7  89431960.96244  21840204.430                    21840207.793
        46.800          29.300
 119100032.329 5  92805239.40642  22663982.836                    22663989.594
        35.300          12.600
                  84005528.048 6  20190791.953                    20190791.375
                        39.100
 111369184.310 8  86781195.09745  21192851.883                    21192857.539
        49.400          35.400
 117444363.212 7  91515054.03044  22348920.672                    22348926.508
        43.800          27.300
 113529134.370 7  88464217.70244  21603875.508                    21603877.023
        42.100          26.700
 18  3 15 13 42 44.0000000  0 12R02G12R10R11G14R18G17G01R19G24G32G19
                  84761818.638 6  20422709.016                    20422712.063
                        41.900
 116371908.738 7  90679297.52444  22144808.680                    22144811.383
        43.800          24.900
                  81503740.309 6  19658435.641                    19658439.133
                        39.500
                  84857086.400 6  20416946.055                    20416947.449
                        41.300
 125051421.559 5                  23796502.586
        31.800
                                  22588212.508

 114771408.026 7  89432284.17344  21840283.250                    21840286.742
        47.200          28.200
 119101884.104 5  92806682.28742  22664334.617                    22664342.086
        34.500          12.600
                  84006131.188 6  20190935.977                    20190936.352
                        38.700
 111370901.353 8  86782533.04845  21193178.469                    21193184.363
        49.400          35.000
 117443246.724 7  91514184.03244  22348708.070                    22348713.602
        44.300          28.300
 113527927.310 7  88463277.12944  21603646.008                    21603647.480
        42.200          25.900
 18  3 15 13 42 45.0000000  0 12R02G12R10R11G14R18G17G01R19G24G32G19
                  84761750.048 6  20422692.195                    20422695.094
                        41.700
 116369148.825 7  90677146.95544  22144283.695                    22144286.359
        44.300          25.100
                  81505370.280 6  19658829.711                    19658833.559
                        39.600
                  84855216.327 6  20416495.602                    20416497.043
                        41.200
 125048872.632 5                  23796017.680
        31.900
                                  22589037.813

 114771823.408 7  89432607.83844  21840362.609                    21840365.691
        47.300          29.700
 119103736.501 5  92808125.69142  22664686.813                    22664694.648
        34.700          12.600
                  84006735.066 6  20191081.570                    20191081.383
                        39.000
 111372619.007 8  86783871.48345  21193505.383                    21193511.121
        49.900          35.400
 117442130.839 7  91513314.52144  22348495.531                    22348501.348
        44.200          28.300
 113526720.894 6  88462337.06444  21603416.281                    21603417.984
        40.900          26.400
 18  3 15 13 42 46.0000000  0 12R02G12R10R11G14R18G17G01R19G24G32G19
                  84761682.203 6  20422676.484                    20422678.293
                        41.600
 116366389.335 7  90674996.70143  22143757.984                    22143761.273
        44.100          23.600
                  81507000.895 6  19659222.758                    19659225.996
                        39.700
                  84853346.769 6  20416045.867                    20416047.930
                        41.000
 125046324.106 5                  23795532.602
        30.800
                                  22589862.797

 114772239.485 7  89432932.05244  21840441.672                    21840444.813
        47.000          29.500
 119105589.677 5  92809569.72042  22665039.711                    22665047.105
        34.800          12.600
                  84007339.690 6  20191227.742                    20191226.734
                        38.900
 111374337.331 8  86785210.43245  21193832.211                    21193837.820
        49.800          35.300
 117441015.593 7  91512445.52044  22348283.328                    22348288.875
        44.600          29.000
 113525515.216 6  88461397.58844  21603186.414                    21603188.566
        41.800          26.700
 18  3 15 13 42 47.0000000  0 12R02G12R10R11G14R18G17G01R19G24G32G19
                  84761615.111 6  20422660.734                    20422663.098
                        41.600
 116363630.359 7  90672846.84143  22143232.781                    22143236.441
        44.600          22.500
                  81508632.112 6  19659616.461                    19659619.617
                        39.800
                  84851477.679 6  20415596.328                    20415597.961
                        41.400
 125043776.035 5                  23795047.172
        31.300
                                  22590688.289

 114772656.201 7  89433256.76844  21840520.594                    21840524.074
        46.300          28.600
 119107443.514 5  92811014.26952  22665393.344                    22665399.691
        34.800          14.800
                  84007945.059 6  20191372.406                    20191372.035
                        39.200
 111376056.305 8  86786549.89645  21194159.430                    21194165.266
        49.600          35.400
 117439901.022 7  91511577.03744  22348071.328                    22348076.879
        44.400          26.700
 113524310.252 7  88460458.66344  21602958.188                    21602959.000
        42.100          24.800
 18  3 15 13 42 48.0000000  0 12R02G12R10R11G14R18G17G01R19G24G32G19
                  84761548.772 6  20422644.445                    20422646.402
                        41.700
 116360871.758 7  90670697.27143  22142708.781                    22142711.270
        43.800          22.900
                  81510263.955 6  19660010.055                    19660013.543
                        39.800
                  84849609.082 6  20415146.516                    20415148.555
                        41.400
 125041228.259 5                  23794563.438
        30.700
                                  22591513.508

 114773073.563 7  89433581.98844  21840600.664                    21840603.852
        46.500          29.100
 119109298.014 5  92812459.40242  22665746.398                    22665753.121
        35.500          14.800
                  84008551.187 6  20191518.586                    20191517.758
                        39.400
 111377775.939 8  86787889.87245  21194486.391                    21194492.305
        49.400          35.600
 117438787.088 7  91510709.03344  22347859.359                    22347864.813
        44.900          27.300
 113523106.048 6  88459520.31844  21602728.250                    21602730.188
        41.400          27.000
 18  3 15 13 42 49.0000000  0 12R02G12R10R11G14R18G17G01R19G24G32G19
                  84761483.178 6  20422628.047                    20422630.918
                        41.800
 116358113.618 7  90668548.07643  22142183.367                    22142186.609
        42.500          22.800
                  81511896.402 6  19660403.453                    19660407.059
                        40.100
                  84847741.005 6  20414696.875                    20414698.723
                        40.600
 125038680.840 5                  23794080.180
        30.700
                                  22592340.125

 114773491.552 7  89433907.68844  21840679.914                    21840683.227
        46.800          28.500
 119111153.130 5  92813904.96242  22666099.031                    22666106.129
        35.100          13.900
                  84009158.001 6  20191662.945                    20191663.863
                        39.100
 111379496.165 8  86789230.30445  21194814.375                    21194819.715
        49.700          34.200
 117437673.761 7  91509841.50744  22347647.445                    22347653.391
        44.900          28.400
 113521902.469 6  88458582.45944  21602499.188                    21602500.883
        41.700          26.500
 18  3 15 13 42 50.0000000  0 12R02G12R10R11G14R18G17G01R19G24G32G19
                  84761418.307 6  20422613.117                    20422615.563
                        41.700
 116355355.896 7  90666399.20244  22141658.375                    22141661.719
        45.000          25.000
                  81513529.446 6  19660797.977                    19660801.242
                        40.000
                  84845873.414 6  20414247.648                    20414249.699
                        41.500
 125036134.38815                  23793595.180
        30.700
                                  22593165.906

 114773910.211 7  89434233.91644  21840759.805                    21840762.695
        46.800          28.100
 119113008.993 5  92815351.13342  22666451.539                    22666459.527
        34.800          13.900
                  84009765.590 6  20191810.227                    20191809.477
                        38.900
 111381217.022 8  86790571.23445  21195141.227                    21195146.969
        49.900          34.900
 117436561.045 7  91508974.47044  22347435.469                    22347441.531
        44.900          28.900
 113520699.628 7  88457645.18044  21602270.742                    21602272.184
        42.500          25.600
 18  3 15 13 42 51.0000000  0 12R02G12R10R11G14R18G17G01R19G24G32G19
                  84761354.165 6  20422597.289                    20422599.727
                        41.200
 116352598.618 7  90664250.68344  22141133.578                    22141136.750
        45.500          25.600
                  81515163.122 6  19661191.141                    19661194.840
                        39.600
                  84844006.284 6  20413798.094                    20413800.230
                        41.500
 125033587.71815                  23793110.703
        31.200
                                  22593994.211

 114774329.511 7  89434560.63644  21840839.563                    21840842.656
        47.000          28.900
 119114865.562 5  92816797.75442  22666805.289                    22666812.602
        35.300          12.600
                  84010373.952 6  20191956.594                    20191955.914
                        39.100
 111382938.528 8  86791912.67245  21195468.734                    21195474.723
        49.600          35.100
 117435448.984 7  91508107.93644  22347223.867                    22347229.859
        44.600          27.700
 113519497.497 7  88456708.45444  21602041.859                    21602042.977
        42.000          26.400
 18  3 15 13 42 52.0000000  0 12R02G12R10R11G14R18G17G01R19G24G32G19
                  84761290.746 6  20422581.555                    20422584.648
                        41.900
 116349841.719 7  90662102.44643  22140609.266                    22140612.160
        45.300          22.000
                  81516797.393 6  19661585.734                    19661589.023
                        39.800
                  84842139.675 7  20413349.352                    20413351.566
                        42.300
 125031041.36415                  23792625.289
        31.600
                                  22594820.781

 114774749.451 7  89434887.85444  21840919.305                    21840922.348
        47.000          29.100
 119116722.781 5  92818244.94642  22667158.695                    22667165.902
        35.800          14.800
                  84010983.031 6  20192101.563                    20192102.137
                        39.100
 111384660.659 8  86793254.59445  21195797.039                    21195802.570
        50.000          35.100
 117434337.479 7  91507241.82444  22347013.039                    22347018.648
        45.100          29.500
 113518296.099 7  88455772.30644  21601813.352                    21601814.863
        42.200          27.100
 18  3 15 13 42 53.0000000  0 12R02G12R10R11G14R18G17G01R19G24G32G19
                  84761228.065 7  20422566.664                    20422569.309
                        42.000
 116347085.517 6  90659954.76943  22140083.727                    22140087.621
        38.300          20.400
                  81518432.271 6  19661979.883                    19661983.496
                        39.900
                  84840273.544 7  20412900.664                    20412901.840
                        42.200
 125028495.54715                  23792141.125
        30.500
                                  22595644.711

 114775170.047 7  89435215.58044  21840999.289                    21841002.344
        46.900          29.300
 119118580.659 5  92819692.59542  22667512.133                    22667519.852
        35.000          13.900
                  84011592.879 6  20192248.648                    20192249.250
                        39.000
 111386383.396 8  86794596.99245  21196124.531                    21196130.242
        50.200          35.200
 117433226.649 7  91506376.23044  22346801.219                    22346806.859
        44.700          29.400
 113517095.383 7  88454836.68844  21601584.508                    21601586.363
        42.400          25.600
 18  3 15 13 42 54.0000000  0 12R02G12R10R11G14R18G17G01R19G24G32G19
                  84761166.114 6  20422552.188                    20422554.504
                        41.600
 116344329.602 7  90657807.30743  22139559.641                    22139563.039
        42.200          21.500
                  81520067.778 6  19662374.742                    19662378.121
                        40.200
                  84838407.904 6  20412451.375                    20412453.203
                        41.400
 125025949.87215                  23791656.906
        31.300
                                  22596470.766

 114775591.305 7  89435543.83444  21841079.477                    21841082.414
        47.300          28.800
 119120439.246 5  92821140.81442  22667865.953                    22667873.340
        35.400          15.600
                  84012203.483 6  20192396.984                    20192395.887
                        39.300
 111388106.846 8  86795939.94245  21196451.977                    21196458.504
        49.400          34.700
 117432116.464 7  91505511.14144  22346590.055                    22346595.699
        45.200          28.200
 113515895.388 6  88453901.62344  21601355.961                    21601357.930
        41.400          25.300
 18  3 15 13 42 55.0000000  0 12R02G12R10R11G14R18G17G01R19G24G32G19
                  84761104.916 6  20422537.320                    20422539.891
                        41.700
 116341573.996 6  90655660.08743  22139036.211                    22139038.781
        37.700          20.100
                  81521703.867 6  19662769.305                    19662772.758
                        39.400
                  84836542.764 6  20412002.891                    20412004.336
                        41.800
 125023404.255 5                  23791172.555
        31.800
                                  22597299.164

 114776013.189 7  89435872.57344  21841159.977                    21841163.199
        47.100          28.600
 119122298.475 5  92822589.60442  22668220.367                    22668227.277
        35.200          14.800
                  84012814.842 6  20192543.000                    20192542.578
                        39.100
 111389830.899 8  86797283.35445  21196780.836                    21196786.172
        50.500          35.700
 117431006.902 7  91504646.52644  22346378.805                    22346384.758
        45.300          29.300
 113514696.102 7  88452967.12244  21601127.797                    21601129.715
        42.200          25.200
 18  3 15 13 42 56.0000000  0 13R01R02G12R10R11G14R18G17G01R19G24G32
                                G19
                                  22233424.703

                  84761044.448 6  20422523.125                    20422525.484
                        41.700
 116338818.980 6  90653513.34443  22138511.516                    22138514.930
        39.900          19.600
                  81523340.576 6  19663163.930                    19663167.570
                        39.300
                  84834678.106 6  20411553.148                    20411555.145
                        41.600
 125020859.437 5                  23790688.531
        32.200
                                  22598123.523

 114776435.707 7  89436201.81744  21841240.375                    21841243.348
        47.400          29.500
 119124158.414 5  92824038.92142  22668574.031                    22668581.258
        35.100          15.600
                  84013426.924 6  20192689.930                    20192689.445
                        38.500
 111391555.580 8  86798627.25845  21197108.477                    21197114.434
        49.800          35.400
 117429897.989 7  91503782.43344  22346167.898                    22346173.574
        45.100          28.800
 113513497.500 7  88452033.13844  21600900.766                    21600901.934
        42.500          25.400
 18  3 15 13 42 57.0000000  0 13R01R02G12R10R11G14R18G17G01R19G24G32
                                G19
                                  22234236.094

                  84760984.702 6  20422508.523                    20422510.664
                        41.900
 116336064.431 6  90651366.93343  22137987.461                    22137990.410
        39.100          18.300
                  81524977.903 6  19663558.953                    19663562.641
                        39.400
                  84832813.942 6  20411105.594                    20411106.820
                        41.100
 125018314.965 5                  23790204.000
        32.500
                                  22598950.695

 114776858.891 7  89436531.56344  21841320.539                    21841323.965
        47.500          29.100
 119126019.006 6  92825488.71142  22668927.289                    22668934.945
        36.000          15.600
                  84014039.742 6  20192837.789                    20192836.660
                        38.300
 111393280.907 8  86799971.66845  21197437.406                    21197443.059
        49.300          35.400
 117428789.720 7  91502918.84244  22345957.328                    22345963.199
        45.500          29.200
 113512299.666 6  88451099.76444  21600671.875                    21600673.891
        41.300          26.000
 18  3 15 13 42 58.0000000  0 13R01R02G12R10R11G14R18G17G01R19G24G32
                                G19
                                  22235048.180

                  84760925.679 6  20422494.125                    20422496.559
                        41.700
 116333310.109 6  90649220.71343  22137463.859                    22137466.340
        40.400          18.300
                  81526615.847 6  19663953.992                    19663957.695
                        39.100
                  84830950.232 6  20410657.117                    20410658.074
                        41.400
 125015770.937 5                  23789719.031
        32.400
                                  22599778.313

 114777282.698 7  89436861.80644  21841400.914                    21841404.578
        47.000          28.900
 119127880.283 5  92826939.04742  22669282.391                    22669289.445
        35.900          14.800
                  84014653.290 6  20192983.961                    20192984.836
                        38.700
 111395006.824 8  86801316.53246  21197765.680                    21197771.340
        49.800          36.300
 117427682.070 7  91502055.74444  22345745.586                    22345751.926
        45.500          28.500
 113511102.443 6  88450166.85744  21600443.656                    21600445.883
        41.000          25.600
 18  3 15 13 42 59.0000000  0 13R01R02G12R10R11G14R18G17G01R19G24G32
                                G19
                                  22235858.383

                  84760867.379 6  20422480.477                    20422482.469
                        41.400
 116330556.386 6  90647074.94443  22136940.125                    22136942.207
        40.500          19.000
                  81528254.367 6  19664349.023                    19664352.594
                        39.600
                  84829087.036 6  20410208.602                    20410210.719
                        41.500
 125013227.202 5                  23789234.664
        32.200
                                  22600606.648

 114777707.137 7  89437192.52544  21841482.211                    21841485.316
        46.900          28.300
 119129742.219 5  92828389.98942  22669636.367                    22669643.492
        34.600          14.800
                  84015267.563 6  20193131.836                    20193131.957
                        38.600
 111396733.389 8  86802661.90345  21198094.055                    21198099.898
        49.800          35.700
 117426575.026 7  91501193.11444  22345535.383                    22345541.594
        45.500          28.200
 113509905.965 7  88449234.53244  21600216.992                    21600218.137
        42.200          26.400
 18  3 15 13 43  0.0000000  0 13R01R02G12R10R11G14R18G17G01R19G24G32
                                G19
                                  22236669.672

                  84760809.816 6  20422466.016                    20422468.516
                        41.500
 116327803.043 7  90644929.47243  22136415.680                    22136418.547
        44.100          20.100
                  81529893.520 6  19664744.148                    19664748.254
                        39.300
                  84827224.347 6  20409760.461                    20409762.723
                        41.300
 125010683.841 5                  23788750.750
        32.400
                                  22601432.203

 114778132.225 7  89437523.75944  21841563.234                    21841566.145
        46.400          27.900
 119131604.830 5  92829841.35542  22669990.383                    22669998.090
        34.800          13.900
                  84015882.588 6  20193280.852                    20193279.738
                        38.600
 111398460.616 8  86804007.79745  21198422.953                    21198428.426
        49.700          34.900
 117425468.622 7  91500330.98144  22345325.039                    22345331.207
        45.400          28.600
 113508710.226 6  88448302.79044  21599989.266                    21599990.805
        41.400          26.400
 18  3 15 13 43  1.0000000  0 13R01R02G12R10R11G14R18G17G01R19G24G32
                                G19
                                  22237484.719

                  84760753.015 6  20422452.148                    20422455.305
                        41.500
 116325050.196 7  90642784.40243  22135892.172                    22135894.520
        44.100          22.500
                  81531533.274 6  19665140.453                    19665143.688
                        39.300
                  84825362.172 6  20409312.852                    20409314.777
                        41.300
 125008140.836 5                  23788267.266
        33.000
                                  22602258.219

 114778557.964 7  89437855.50244  21841643.961                    21841646.918
        46.100          28.300
 119133468.166 5  92831293.29142  22670344.406                    22670352.863
        34.800          13.900
                  84016498.379 6  20193427.484                    20193427.883
                        38.400
 111400188.456 8  86805354.17445  21198751.609                    21198757.512
        49.500          35.300
 117424362.868 7  91499469.34444  22345114.219                    22345120.426
        45.500          28.000
 113507515.148 6  88447371.56844  21599761.000                    21599763.258
        41.800          26.000
 18  3 15 13 43  2.0000000  0 13R01R02G12R10R11G14R18G17G01R19G24G32
                                G19
                                  22238298.477

                  84760696.942 6  20422439.813                    20422441.539
                        41.800
 116322297.761 7  90640639.63643  22135367.586                    22135370.391
        44.200          21.700
                  81533173.649 6  19665534.938                    19665539.387
                        39.600
                  84823500.466 6  20408864.352                    20408866.543
                        41.500
 125005598.281 5                  23787782.727
        33.600
                                  22603087.313

 114778984.371 7  89438187.76444  21841725.047                    21841728.031
        45.500          28.100
 119135332.102 5  92832745.66342  22670700.219                    22670706.738
        34.800          14.800
                  84017114.895 6  20193577.375                    20193575.852
                        38.800
 111401916.972 8  86806701.07245  21199080.188                    21199086.031
        49.000          34.800
 117423257.763 7  91498608.21244  22344904.898                    22344910.250
        45.000          28.800
 113506320.808 6  88446440.91143  21599533.898                    21599536.152
        39.100          22.000
 18  3 15 13 43  3.0000000  0 13R01R02G12R10R11G14R18G17G01R19G24G32
                                G19
                                  22239110.961

                  84760641.607 6  20422425.375                    20422427.742
                        41.600
 116319545.792 7  90638495.23943  22134844.594                    22134846.891
        42.800          20.600
                  81534814.649 6  19665931.672                    19665934.262
                        39.600
                  84821639.266 6  20408416.844                    20408418.512
                        41.300
 125003056.015 5                  23787299.492
        32.600
                                  22603914.773

 114779411.381 7  89438520.48944  21841806.773                    21841809.242
        46.600          28.700
 119137196.821 5  92834198.67442  22671054.945                    22671062.168
        35.100          14.800
                  84017732.169 6  20193724.219                    20193725.051
                        38.700
 111403646.101 8  86808048.43945  21199410.125                    21199414.980
        50.100          35.400
 117422153.262 7  91497747.56244  22344693.617                    22344700.012
        45.200          28.500
 113505127.209 6  88445510.84043  21599307.227                    21599308.793
        40.900          21.800
 18  3 15 13 43  4.0000000  0 13R01R02G12R10R11G14R18G17G01R19G24G32
                                G19
                  92466230.16314  22239919.688                    22239927.078
                        26.600
                  84760586.987 6  20422412.539                    20422414.699
                        41.600
 116316794.252 7  90636351.19743  22134320.258                    22134323.121
        44.900          21.800
                  81536456.260 6  19666327.297                    19666331.066
                        39.400
                  84819778.528 6  20407968.477                    20407970.777
                        41.600
 125000514.147 5                  23786816.078
        33.100
                                  22604741.148

 114779839.069 7  89438853.74344  21841887.961                    21841891.133
        45.800          28.800
 119139062.139 5  92835652.19142  22671410.438                    22671417.184
        35.600          13.900
                  84018350.219 6  20193873.391                    20193873.477
                        38.700
 111405375.869 8  86809396.31545  21199738.617                    21199744.398
        49.900          35.300
 117421049.438 7  91496887.43844  22344483.555                    22344489.938
        45.200          28.200
 113503934.263 6  88444581.26643  21599080.430                    21599082.012
        41.100          22.300
 18  3 15 13 43  5.0000000  0 13R01R02G12R10R11G14R18G17G01R19G24G32
                                G19
                  92469581.40014  22240726.883                    22240733.305
                        25.200
                  84760533.135 6  20422399.852                    20422401.516
                        41.300
 116314043.192 7  90634207.53443  22133797.719                    22133799.730
        43.500          20.900
                  81538098.475 6  19666723.141                    19666727.348
                        39.900
                  84817918.276 6  20407521.781                    20407523.484
                        41.200
 124997972.674 5                  23786331.961
        32.300
                                  22605567.211

 114780267.363 7  89439187.47444  21841969.313                    21841972.621
        46.100          28.700
 119140928.160 5  92837106.17642  22671765.203                    22671771.797
        35.500          13.900
                  84018969.034 6  20194022.344                    20194022.152
                        38.500
 111407106.279 8  86810744.68345  21200067.914                    21200073.547
        49.800          35.700
 117419946.214 7  91496027.78244  22344273.742                    22344280.004
        44.900          27.600
 113502742.099 7  88443652.30944  21598853.133                    21598855.246
        42.400          26.300
 18  3 15 13 43  6.0000000  0 13R01R02G12R10R11G14R18G17G01R19G24G32
                                G19
                  92472932.966 4  22241533.992                    22241539.125
                        24.300
                  84760480.035 6  20422386.672                    20422389.406
                        41.500
 116311292.561 6  90632064.17043  22133273.195                    22133276.215
        41.400          20.400
                  81539741.313 6  19667119.953                    19667123.613
                        39.900
                  84816058.537 6  20407074.148                    20407076.164
                        41.800
 124995431.569 5                  23785848.656
        32.300
                                  22606395.813

 114780696.354 7  89439521.74744  21842050.844                    21842053.961
        46.600          29.800
 119142794.871 5  92838560.78142  22672119.555                    22672127.207
        35.300          13.900
                  84019588.597 6  20194170.656                    20194171.141
                        38.900
 111408837.321 8  86812093.54845  21200397.422                    21200403.102
        50.000          35.000
 117418843.645 7  91495168.62644  22344064.109                    22344069.953
        44.300          28.000
 113501550.604 6  88442723.87344  21598626.031                    21598628.184
        41.800          25.600
 18  3 15 13 43  7.0000000  0 13R01R02G12R10R11G14R18G17G01R19G24G32
                                G19
                  92476284.963 4  22242341.094                    22242345.672
                        24.000
                  84760427.666 6  20422374.383                    20422376.359
                        41.600
 116308542.341 6  90629921.15643  22132750.344                    22132752.949
        41.100          19.300
                  81541384.758 6  19667516.281                    19667520.141
                        39.700
                  84814199.305 6  20406626.664                    20406628.477
                        41.600
 124992890.841 5                  23785365.289
        33.300
                                  22607222.695

 114781125.996 7  89439856.53644  21842132.633                    21842135.824
        47.000          28.700
 119144662.263 5  92840015.89342  22672475.328                    22672482.648
        34.600          12.600
                  84020208.917 6  20194320.789                    20194319.973
                        39.200
 111410569.005 8  86813442.90545  21200727.141                    21200732.324
        50.000          35.700
 117417741.701 7  91494309.96044  22343854.664                    22343860.211
        44.300          27.700
 113500359.819 6  88441795.99044  21598400.211                    21598401.570
        41.700          26.100
 18  3 15 13 43  8.0000000  0 13R01R02G12R10R11G14R18G17G01R19G24G32
                                G19
                  92479637.234 4  22243146.891                    22243152.098
                        27.100
                  84760376.020 6  20422361.758                    20422364.262
                        41.600
 116305792.589 7  90627778.48643  22132227.352                    22132229.832
        44.500          21.300
                  81543028.804 6  19667912.273                    19667916.383
                        39.700
                  84812340.579 6  20406179.195                    20406181.586
                        41.200
 124990350.411 5                  23784881.289
        32.300
                                  22608050.203

 114781556.285 7  89440191.83244  21842214.688                    21842217.676
        47.200          28.800
 119146530.311 5  92841471.46742  22672831.273                    22672838.070
        35.400          12.600
                  84020829.946 6  20194469.484                    20194469.090
                        39.100
 111412301.308 8  86814792.76245  21201056.273                    21201062.215
        48.800          33.900
 117416640.429 7  91493451.81644  22343645.109                    22343650.852
        44.300          28.000
 113499169.777 6  88440868.68844  21598174.055                    21598175.117
        41.700          26.600
 18  3 15 13 43  9.0000000  0 13R01R02G12R10R11G14R18G17G01R19G24G32
                                G19
                  92482989.882 3  22243953.195                    22243958.715
                        23.000
                  84760325.072 6  20422349.414                    20422351.203
                        41.800
 116303043.297 7  90625636.16643  22131703.883                    22131706.855
        44.300          22.200
                  81544673.479 6  19668309.094                    19668312.945
                        39.600
                  84810482.322 6  20405732.188                    20405734.016
                        41.500
 124987810.484 5                  23784398.336
        32.500
                                  22608877.422

 114781987.223 7  89440527.61944  21842296.320                    21842299.617
        46.700          28.000
 119148399.071 5  92842927.68142  22673187.297                    22673193.375
        35.200          13.900
                  84021451.707 6  20194618.742                    20194618.320
                        39.300
 111414034.301 8  86816143.14745  21201386.383                    21201392.203
        49.600          35.100
 117415539.766 7  91492594.16144  22343435.586                    22343441.488
        44.500          27.600
 113497980.452 6  88439941.92944  21597947.055                    21597949.102
        40.600          26.200
 18  3 15 13 43 10.0000000  0 13R01R02G12R10R11G14R18G17G01R19G24G32
                                G19
                  92486342.969 4  22244761.031                    22244764.910
                        24.400
                  84760274.856 6  20422337.875                    20422339.992
                        41.700
 116300294.508 7  90623494.21043  22131180.727                    22131183.547
        43.400          21.300
                  81546318.762 6  19668706.219                    19668709.730
                        39.400
                  84808624.580 6  20405285.219                    20405287.621
                        41.600
 124985270.903 5                  23783915.086
        32.800
                                  22609705.227

 114782418.837 7  89440863.94044  21842378.633                    21842381.762
        46.800          29.500
 119150268.542 5  92844384.35042  22673543.289                    22673549.746
        35.800          13.900
                  84022074.226 6  20194769.898                    20194768.000
                        38.500
 111415767.938 8  86817494.03245  21201716.094                    21201722.086
        49.600          34.700
 117414439.753 7  91491737.00844  22343226.156                    22343232.168
        44.500          28.900
 113496791.805 6  88439015.71444  21597720.539                    21597722.297
        41.600          27.600
 18  3 15 13 43 11.0000000  0 13R01R02G12R10R11G14R18G17G01R19G24G32
                                G19
                  92489696.345 4  22245567.688                    22245571.758
                        25.600
                  84760225.378 6  20422325.008                    20422327.688
                        41.700
 116297546.099 7  90621352.55143  22130658.273                    22130660.715
        42.000          19.900
                  81547964.688 6  19669102.867                    19669106.617
                        39.900
                  84806767.367 6  20404838.555                    20404840.246
                        41.200
 124982731.629 5                  23783432.891
        32.500
                                  22610532.641

 114782851.063 7  89441200.74044  21842460.891                    21842464.078
        46.600          28.500
 119152138.626 6  92845841.51942  22673898.641                    22673905.496
        36.100          13.900
                  84022697.506 6  20194919.000                    20194917.453
                        39.000
 111417502.198 8  86818845.39446  21202046.445                    21202052.266
        50.000          36.000
 117413340.398 7  91490880.35944  22343016.977                    22343022.730
        44.500          28.400
 113495603.896 6  88438090.08044  21597495.406                    21597496.488
        41.000          25.600
 18  3 15 13 43 12.0000000  0 13R01R02G12R10R11G14R18G17G01R19G24G32
                                G19
                  92493050.086 4  22246373.625                    22246378.531
                        24.200
                  84760176.614 6  20422313.203                    20422315.793
                        41.900
 116294798.100 7  90619211.25243  22130135.203                    22130137.480
        42.100          18.300
                  81549611.185 6  19669500.555                    19669503.742
                        40.000
                  84804910.608 6  20404391.492                    20404393.340
                        41.500
 124980192.733 5                  23782949.438
        32.800
                                  22611360.609

 114783283.953 7  89441538.05644  21842543.375                    21842546.605
        46.400          29.700
 119154009.338 5  92847299.18842  22674253.758                    22674261.273
        35.700          13.900
                  84023321.522 6  20195069.469                    20195068.234
                        38.900
 111419237.063 8  86820197.23146  21202376.414                    21202382.305
        50.000          36.100
 117412241.631 7  91490024.17644  22342807.898                    22342813.574
        44.500          28.500
 113494416.657 6  88437164.94744  21597269.008                    21597270.152
        40.600          25.800
 18  3 15 13 43 13.0000000  0 13R01R02G12R10R11G14R18G17G01R19G24G32
                                G19
                  92496404.310 4  22247179.984                    22247185.320
                        26.300
                  84760128.671 6  20422301.859                    20422304.348
                        41.500
 116292050.623 7  90617070.35643  22129612.117                    22129614.895
        44.300          19.300
                  81551258.332 6  19669897.188                    19669901.273
                        39.400
                  84803054.349 6  20403945.461                    20403946.754
                        41.400
 124977654.248 5                  23782466.492
        33.000
                                  22612188.297

 114783717.513 7  89441875.88344  21842625.758                    21842628.953
        46.600          28.600
 119155880.820 5  92848757.53642  22674610.641                    22674617.906
        35.100          13.900
                  84023946.285 6  20195218.914                    20195218.008
                        39.300
 111420972.606 8  86821549.60145  21202706.406                    21202712.152
        49.100          34.200
 117411143.554 7  91489168.52444  22342599.094                    22342604.871
        44.800          29.100
 113493230.158 6  88436240.40944  21597043.188                    21597044.789
        40.000          27.000
 18  3 15 13 43 14.0000000  0 13R01R02G12R10R11G14R18G17G01R19G24G32
                                G19
                  92499758.799 4  22247987.234                    22247992.383
                        24.200
                  84760081.457 6  20422290.867                    20422292.938
                        41.800
 116289303.566 7  90614929.80143  22129088.969                    22129092.047
        44.600          21.300
                  81552906.067 6  19670294.797                    19670298.648
                        39.100
                  84801198.581 6  20403498.859                    20403500.176
                        41.200
 124975116.124 5                  23781984.070
        33.200
                                  22613015.430

 114784151.685 7  89442214.18944  21842708.469                    21842711.906
        46.500          29.100
 119157753.025 5  92850216.36352  22674966.711                    22674973.191
        34.800          14.800
                  84024571.813 6  20195368.289                    20195368.430
                        39.100
 111422708.752 8  86822902.45145  21203037.148                    21203042.641
        48.100          32.800
 117410046.092 7  91488313.35644  22342390.242                    22342395.723
        44.900          28.700
 113492044.399 6  88435316.42944  21596817.555                    21596819.098
        40.400          25.200
 18  3 15 13 43 15.0000000  0 13R01R02G12R10R11G14R18G17G01R19G24G32
                                G19
                  92503113.651 3  22248793.641                    22248799.207
                        23.800
                  84760034.929 6  20422279.711                    20422281.926
                        41.500
 116286556.958 7  90612789.59643  22128566.836                    22128569.613
        43.700          21.100
                  81554554.398 6  19670692.789                    19670695.973
                        39.700
                  84799343.319 6  20403051.734                    20403053.715
                        41.700
 124972578.305 5                  23781501.117
        33.800
                                  22613842.766

 114784586.525 7  89442553.01644  21842790.773                    21842794.246
        46.300          28.800
 119159625.804 5  92851675.71742  22675323.852                    22675329.961
        34.600          13.900
                  84025198.029 6  20195520.070                    20195519.027
                        39.000
 111424445.524 8  86824255.78845  21203367.648                    21203373.602
        48.300          32.500
 117408949.288 7  91487458.70644  22342181.781                    22342186.957
        45.100          29.900
 113490859.343 6  88434392.99344  21596591.969                    21596593.496
        40.600          26.400
 18  3 15 13 43 16.0000000  0 13R01R02G12R10R11G14R18G17G01R19G24G32
                                G19
                  92506468.939 3  22249600.336                    22249606.516
                        23.000
                  84759989.168 6  20422268.203                    20422271.070
                        41.500
 116283810.790 7  90610649.74143  22128044.203                    22128047.133
        43.200          20.900
                  81556203.355 6  19671089.766                    19671094.012
                        39.500
                  84797488.506 6  20402605.781                    20402607.348
                        41.500
 124970040.940 5                  23781017.820
        33.300
                                  22614672.680

 114785021.998 7  89442892.34645  21842873.828                    21842877.113
        46.600          30.200
 119161499.367 6  92853135.63442  22675680.125                    22675686.004
        36.000          14.800
                  84025825.042 6  20195670.227                    20195669.660
                        38.500
 111426182.959 8  86825609.64545  21203698.367                    21203704.309
        48.100          33.200
 117407853.123 7  91486604.56644  22341972.820                    22341978.516
        44.900          28.400
 113489674.987 6  88433470.10844  21596366.797                    21596368.215
        40.200          25.600
 18  3 15 13 43 17.0000000  0 13R01R02G12R10R11G14R18G17G01R19G24G32
                                G19
                  92509824.539 4  22250407.719                    22250413.109
                        27.200
                  84759944.063 6  20422257.219                    20422259.715
                        41.500
 116281065.008 7  90608510.17043  22127521.883                    22127524.586
        42.500          19.900
                  81557852.894 6  19671488.328                    19671491.789
                        39.400
                  84795634.190 6  20402159.680                    20402161.496
                        41.400
 124967503.938 5                  23780533.969
        32.400
                                  22615501.156

 114785458.094 7  89443232.15244  21842956.781                    21842960.059
        46.600          27.600
 119163373.489 5  92854595.95942  22676036.945                    22676043.309
        35.700          14.800
                  84026452.755 6  20195821.477                    20195820.336
                        38.700
 111427920.947 8  86826963.91345  21204028.727                    21204034.777
        48.700          33.000
 117406757.549 7  91485750.87744  22341764.430                    22341770.199
        44.700          29.700
 113488491.331 6  88432547.78244  21596142.227                    21596143.188
        41.100          25.500
 18  3 15 13 43 18.0000000  0 12R01R02G12R10R11G14G17G01R19G24G32G19
                  92513180.442 4  22251214.930                    22251220.711
                        27.700
                  84759899.702 6  20422246.281                    20422249.281
                        41.300
 116278319.756 7  90606371.00043  22126999.398                    22127002.035
        43.000          19.900
                  81559503.050 6  19671886.164                    19671889.777
                        39.400
                  84793780.427 6  20401713.078                    20401715.633
                        41.400
 124964967.214 5                  23780051.188
        33.000
 114785894.857 7  89443572.48244  21843040.195                    21843043.586
        46.200          28.500
 119165248.422 6  92856056.90242  22676393.469                    22676400.316
        36.300          14.800
                  84027081.271 6  20195971.734                    20195971.840
                        39.300
 111429659.610 8  86828318.71745  21204359.656                    21204365.148
        49.000          33.500
 117405662.618 7  91484897.69644  22341555.969                    22341561.762
        44.700          29.600
 113487308.414 6  88431626.03944  21595915.984                    21595918.125
        40.900          25.300
 18  3 15 13 43 19.0000000  0 12R01R02G12R10R11G14G17G01R19G24G32G19
                                  22252022.492

                  84759856.080 6  20422236.086                    20422238.957
                        41.400
 116275574.837 7  90604232.11243  22126477.313                    22126479.672
        42.600          19.600
                  81561153.817 6  19672284.531                    19672287.930
                        39.300
                  84791927.133 6  20401268.227                    20401269.234
                        41.500
 124962430.934 5                  23779569.391
        33.700
 114786332.269 7  89443913.32044  21843123.398                    21843126.699
        46.700          29.100
 119167123.979 6  92857518.33242  22676750.586                    22676756.750
        36.000          13.900
                  84027710.475 6  20196123.867                    20196122.984
                        39.600
 111431398.856 8  86829673.96745  21204690.727                    21204696.473
        48.400          32.400
 117404568.332 7  91484045.01144  22341347.695                    22341353.430
        45.200          29.900
 113486126.153 6  88430704.79544  21595690.789                    21595692.785
        41.900          27.700
 18  3 15 13 43 20.0000000  0 11R02G12R10R11G14G17G01R19G24G32G19
                  84759813.210 6  20422226.164                    20422228.125
                        41.300
 116272830.484 7  90602093.67442  22125954.961                    22125957.586
        42.000          17.800
                  81562805.205 6  19672682.938                    19672686.223
                        39.400
                  84790074.315 6  20400822.070                    20400824.441
                        41.500
 124959895.000 5                  23779087.328
        33.200
 114786770.306 7  89444254.64444  21843206.492                    21843210.055
        46.400          28.500
 119169000.234 5  92858980.39142  22677108.477                    22677113.977
        35.700          13.900
                  84028340.446 6  20196274.930                    20196274.293
                        39.200
 111433138.817 8  86831029.77046  21205021.664                    21205027.563
        50.200          37.200
 117403474.704 7  91483192.84545  22341139.820                    22341145.605
        45.400          30.400
 113484944.621 6  88429784.14644  21595466.859                    21595467.867
        41.900          26.800
 18  3 15 13 43 21.0000000  0 11R02G12R10R11G14G17G01R19G24G32G19
                  84759771.115 6  20422215.938                    20422218.352
                        41.400
 116270086.544 6  90599955.51842  22125432.773                    22125435.461
        40.900          16.300
                  81564457.230 6  19673081.258                    19673084.324
                        39.400
                  84788221.982 6  20400376.641                    20400378.188
                        40.900
 124957359.491 5                  23778604.477
        34.400
 114787209.044 7  89444596.52344  21843290.070                    21843293.609
        46.300          26.800
 119170877.079 6  92860442.85542  22677465.086                    22677471.223
        36.600          13.900
                  84028971.152 6  20196427.203                    20196426.180
                        39.400
 111434879.427 8  86832386.07046  21205352.867                    21205358.957
        49.600          36.100
 117402381.645 7  91482341.11544  22340931.664                    22340937.641
        45.300          28.700
 113483763.842 6  88428864.06344  21595242.219                    21595243.484
        39.700          24.200
 18  3 15 13 43 22.0000000  0 11R02G12R10R11G14G17G01R19G24G32G19
                  84759729.743 6  20422206.531                    20422208.547
                        41.300
 116267343.010 6  90597817.68642  22124911.047                    22124913.637
        39.600          14.800
                  81566109.846 6  19673479.648                    19673483.742
                        39.300
                  84786370.148 6  20399930.797                    20399932.371
                        40.900
 124954824.374 5                  23778122.414
        34.600
 114787648.364 7  89444938.83844  21843373.461                    21843377.391
        46.300          27.400
 119172754.656 5  92861905.91242  22677822.625                    22677827.992
        35.400          13.900
                  84029602.599 6  20196578.289                    20196577.652
                        38.400
 111436620.632 8  86833742.84946  21205684.648                    21205690.438
        50.300          36.200
 117401289.249 7  91481489.89144  22340723.625                    22340729.969
        45.200          29.300
 113482583.702 6  88427944.46343  21595016.172                    21595018.383
        38.600          22.200
 18  3 15 13 43 23.0000000  0 12R01R02G12R10R11G14G17G01R19G24G32G19
                  92529965.85013  22255253.922                    22255258.285
                        23.000
                  84759689.093 6  20422196.000                    20422198.363
                        41.800
 116264599.974 6  90595680.26642  22124388.219                    22124391.336
        38.900          14.800
                  81567763.064 6  19673878.984                    19673882.215
                        39.200
                  84784518.844 6  20399485.023                    20399487.266
                        41.300
 124952289.599 5                  23777639.242
        34.100
 114788088.360 7  89445281.68144  21843457.164                    21843460.734
        45.900          27.500
 119174632.933 6                  22678179.813
        36.200
                  84030234.796 6  20196729.688                    20196729.355
                        39.300
 111438362.492 8  86835100.15546  21206015.742                    21206022.008
        49.800          36.100
 117400197.502 7  91480639.16544  22340515.805                    22340521.898
        45.300          28.700
 113481404.286 6  88427025.44643  21594793.055                    21594794.102
        41.300          22.900
 18  3 15 13 43 24.0000000  0 12R01R02G12R10R11G14G17G01R19G24G32G19
                  92533323.975 3  22256060.703                    22256065.816
                        22.700
                  84759649.173 6  20422186.383                    20422188.801
                        41.600
 116261857.273 6  90593543.14142  22123865.898                    22123869.277
        39.900          13.900
                  81569416.879 6  19674277.070                    19674280.512
                        39.400
                  84782668.001 6  20399040.031                    20399041.625
                        41.200
 124949755.144 5                  23777156.930
        34.300
 114788528.969 7  89445625.00744  21843541.266                    21843544.672
        46.500          27.300
 119176511.839 5                  22678537.203
        35.200
                  84030867.701 6  20196882.289                    20196881.414
                        39.600
 111440104.920 8  86836457.89645  21206347.063                    21206353.191
        49.500          35.900
 117399106.331 7  91479788.88644  22340307.930                    22340314.313
        45.500          29.400
 113480225.606 6  88426107.00843  21594569.242                    21594569.766
        40.900          23.000
 18  3 15 13 43 25.0000000  0 12R01R02G12R10R11G14G17G01R19G24G32G19
                  92536682.489 3  22256867.797                    22256873.438
                        22.700
                  84759609.983 6  20422177.508                    20422180.023
                        41.800
 116259115.069 7  90591406.32442  22123344.430                    22123347.836
        42.500          14.800
                  81571071.313 6  19674676.414                    19674680.293
                        39.500
                  84780817.649 6  20398594.594                    20398596.320
                        40.900
 124947221.117 5                  23776675.109
        34.200
 114788970.247 7  89445968.86244  21843625.586                    21843628.160
        46.100          26.800
 119178391.420 5                  22678894.375
        35.600
                  84031501.390 6  20197034.328                    20197033.594
                        39.300
 111441848.048 7  86837816.18645  21206679.125                    21206684.773
        47.800          31.900
 117398015.836 7  91478939.14944  22340100.766                    22340106.305
        45.100          29.700
 113479047.638 6  88425189.09643  21594343.719                    21594345.930
        40.200          22.900
 18  3 15 13 43 26.0000000  0 12R01R02G12R10R11G14G17G01R19G24G32G19
                  92540041.299 3  22257674.039                    22257681.121
                        23.200
                  84759571.495 6  20422167.969                    20422170.633
                        41.800
 116256373.293 7  90589269.85143  22122823.039                    22122826.145
        42.500          18.600
                  81572726.335 6  19675075.125                    19675078.906
                        39.300
                  84778967.790 6  20398149.227                    20398151.875
                        41.300
 124944687.374 5                  23776191.945
        33.700
 114789412.078 7  89446313.13744  21843709.445                    21843712.680
        45.900          28.000
 119180271.679 5                  22679252.227
        35.800
                  84032135.793 6  20197186.914                    20197186.570
                        39.600
 111443591.741 8  86839174.90945  21207010.953                    21207016.625
        49.500          35.300
 117396925.976 7  91478089.89844  22339893.398                    22339899.438
        45.000          27.400
 113477870.323 6  88424271.71843  21594119.609                    21594122.047
        40.300          23.800
 18  3 15 13 43 27.0000000  0 12R01R02G12R10R11G14G17G01R19G24G32G19
                  92543400.423 3  22258484.781                    22258489.379
                        23.300
                  84759533.729 6  20422158.906                    20422161.270
                        41.600
 116253631.898 6  90587133.70442  22122301.063                    22122304.223
        41.700          17.400
                  81574381.938 6  19675474.609                    19675478.387
                        39.500
                  84777118.370 6  20397704.797                    20397706.906
                        41.500
 124942153.951 5                  23775709.906
        33.500
 114789854.593 7  89446657.96144  21843793.234                    21843797.199
        46.200          27.700
 119182152.581 6                  22679610.789
        36.900
                  84032770.903 6  20197339.539                    20197339.070
                        39.400
 111445336.054 8  86840534.10845  21207342.820                    21207348.504
        50.400          35.800
 117395836.698 7  91477241.11144  22339686.273                    22339692.391
        45.100          29.000
 113476693.745 6  88423354.91243  21593896.734                    21593897.973
        40.000          22.800
 18  3 15 13 43 28.0000000  0 12R01R02G12R10R11G14G17G01R19G24G32G19
                  92546759.914 4  22259291.586                    22259297.430
                        26.800
                  84759496.707 6  20422149.711                    20422152.184
                        41.900
 116250891.019 6  90584997.97842  22121779.477                    22121782.734
        41.300          16.300
                  81576038.166 6  19675874.289                    19675877.563
                        39.800
                  84775269.457 6  20397259.789                    20397261.953
                        41.700
 124939620.916 5                  23775227.672
        33.700
 114790297.771 7  89447003.29944  21843877.672                    21843881.230
        46.000          27.700
 119184034.196 6                  22679968.719
        37.200
                  84033406.752 6  20197492.969                    20197492.348
                        39.600
 111447081.006 8  86841893.81445  21207675.125                    21207680.621
        50.600          35.400
 117394748.063 7  91476392.81844  22339479.406                    22339485.258
        44.600          28.100
 113475517.877 6  88422438.64543  21593672.297                    21593674.324
        39.000          23.200
 18  3 15 13 43 29.0000000  0 12R01R02G12R10R11G14G17G01R19G24G32G19
                  92550119.809 4  22260100.766                    22260105.625
                        25.200
                  84759460.431 6  20422140.781                    20422143.262
                        41.600
 116248150.537 6  90582862.55042  22121258.281                    22121261.242
        40.700          16.300
                  81577695.007 6  19676273.961                    19676277.457
                        39.900
                  84773421.058 6  20396815.016                    20396816.969
                        41.400
 124937088.354 5                  23774745.477
        33.400
 114790741.547 7  89447349.10044  21843962.336                    21843965.711
        46.100          29.500
 119185916.462 6                  22680327.141
        37.600
                  84034043.330 6  20197645.883                    20197644.906
                        39.300
 111448826.607 8  86843254.01345  21208006.695                    21208012.871
        50.800          35.500
 117393660.063 7  91475545.02644  22339271.914                    22339277.895
        44.700          28.900
 113474342.655 6  88421522.89243  21593449.211                    21593450.414
        38.800          22.000
 18  3 15 13 43 30.0000000  0 12R01R02G12R10R11G14G17G01R19G24G32G19
                  92553480.125 4  22260909.320                    22260913.461
                        24.800
                  84759424.899 6  20422132.984                    20422135.191
                        41.500
 116245410.504 6  90580727.47342  22120737.711                    22120739.918
        40.900          15.600
                  81579352.449 6  19676673.023                    19676677.465
                        39.600
                  84771573.165 6  20396370.453                    20396372.117
                        41.500
 124934556.078 5                  23774263.500
        33.200
 114791186.001 7  89447695.42244  21844046.766                    21844050.074
        45.800          28.400
 119187799.423 6                  22680684.938
        37.100
                  84034680.692 6  20197799.336                    20197798.445
                        39.500
 111450572.835 8  86844614.70245  21208339.453                    21208344.703
        50.700          35.400
 117392572.699 7  91474697.73744  22339064.938                    22339071.172
        44.200          29.100
 113473168.186 6  88420607.71743  21593225.336                    21593227.113
        38.400          22.900
 18  3 15 13 43 31.0000000  0 13R01R02G12R10R11G14R18G17G01R19G24G32
                                G19
                  92556840.750 4  22261717.445                    22261722.289
                        24.900
                  84759390.092 6  20422124.242                    20422126.480
                        41.400
 116242670.948 6  90578592.75042  22120215.703                    22120218.574
        40.900          16.900
                  81581010.504 6  19677073.148                    19677077.344
                        39.300
                  84769725.757 6  20395925.883                    20395927.906
                        41.300
 124932024.216 5                  23773782.250
        33.200
                                  22627105.250

 114791631.086 7  89448042.22944  21844131.922                    21844134.813
        46.100          29.200
 119189683.064 6                  22681042.844
        37.700
                  84035318.783 6  20197952.336                    20197951.406
                        39.100
 111452319.681 8  86845975.88445  21208671.695                    21208677.848
        50.200          35.700
 117391485.989 7  91473850.95844  22338858.094                    22338864.410
        44.500          29.600
 113471994.417 6  88419693.08843  21593001.633                    21593003.723
        38.000          22.600
 18  3 15 13 43 32.0000000  0 13R01R02G12R10R11G14R18G17G01R19G24G32
                                G19
                  92560201.701 4  22262525.836                    22262530.895
                        26.300
                  84759355.945 6  20422115.969                    20422118.480
                        41.300
 116239931.685 6  90576458.24442  22119694.641                    22119697.371
        40.700          17.800
                  81582669.080 6  19677473.883                    19677477.391
                        39.300
                  84767878.736 6  20395481.578                    20395483.203
                        41.400
 124929492.586 5                  23773300.773
        32.400
                                  22627933.195

 114792076.738 7  89448389.48044  21844216.453                    21844219.855
        46.400          29.400
 119191567.250 6                  22681401.383
        37.100
                  84035957.537 6  20198105.797                    20198105.109
                        39.100
 111454067.100 8  86847337.50545  21209004.297                    21209009.980
        49.800          35.500
 117390399.813 7  91473004.59544  22338651.398                    22338657.609
        44.500          28.900
 113470821.275 6  88418778.96743  21592778.945                    21592780.617
        37.800          22.600
 18  3 15 13 43 33.0000000  0 13R01R02G12R10R11G14R18G17G01R19G24G32
                                G19
                  92563562.972 4  22263332.930                    22263339.637
                        25.100
                  84759322.493 6  20422107.594                    20422109.973
                        41.500
 116237192.896 6  90574324.11542  22119172.859                    22119176.121
        41.200          16.900
                  81584328.251 6  19677873.430                    19677877.984
                        39.600
                  84766032.207 6  20395037.594                    20395039.367
                        41.200
 124926961.356 5                  23772818.469
        32.800
                                  22628762.055

 114792523.008 7  89448737.21044  21844301.352                    21844304.988
        46.300          28.400
 119193452.105 6                  22681760.641
        36.800
                  84036597.030 6  20198260.047                    20198258.188
                        39.500
 111455815.092 8  86848699.58046  21209337.063                    21209342.805
        50.200          36.000
 117389314.252 7  91472158.70644  22338445.477                    22338451.152
        44.500          28.900
 113469648.832 6  88417865.37343  21592555.734                    21592557.621
        38.000          22.800
 18  3 15 13 43 34.0000000  0 13R01R02G12R10R11G14R18G17G01R19G24G32
                                G19
                  92566924.569 3  22264141.320                    22264146.859
                        22.500
                  84759289.793 6  20422099.938                    20422101.941
                        41.300
 116234454.535 6  90572190.34042  22118652.258                    22118655.152
        40.900          17.400
                  81585988.040 6  19678274.375                    19678277.801
                        39.800
                  84764186.192 6  20394593.703                    20394594.512
                        41.300
 124924430.426 5                  23772338.047
        33.100
                                  22629593.828

 114792969.919 7  89449085.43944  21844386.398                    21844389.582
        46.400          28.500
 119195337.692 6                  22682119.430
        36.500
                  84037237.289 6  20198413.758                    20198413.113
                        39.600
 111457563.747 8  86850062.17045  21209670.000                    21209675.320
        49.900          35.200
 117388229.338 7  91471313.32844  22338238.719                    22338244.684
        44.500          29.100
 113468477.083 6  88416952.31643  21592332.258                    21592334.309
        37.300          23.500
 18  3 15 13 43 35.0000000  0 13R01R02G12R10R11G14R18G17G01R19G24G32
                                G19
                  92570286.652 4  22264951.391                    22264955.930
                        24.600
                  84759257.854 6  20422092.063                    20422094.375
                        41.300
 116231716.663 6  90570056.92942  22118131.055                    22118133.641
        41.300          16.900
                  81587648.443 6  19678674.195                    19678678.328
                        39.700
                  84762340.722 6  20394149.648                    20394151.695
                        41.300
 124921899.987 5                  23771855.297
        32.800
                                  22630423.633

 114793417.508 7  89449434.20444  21844471.648                    21844474.828
        46.100          28.500
 119197223.909 6                  22682478.477
        36.400
                  84037878.309 6  20198567.117                    20198566.617
                        39.800
 111459313.051 8  86851425.26645  21210002.008                    21210008.762
        49.900          35.600
 117387145.103 7  91470468.46644  22338032.156                    22338038.594
        45.100          29.200
 113467306.088 6  88416039.84943  21592109.531                    21592111.855
        38.300          22.600
 18  3 15 13 43 36.0000000  0 13R01R02G12R10R11G14R18G17G01R19G24G32
                                G19
                  92573649.025 4  22265762.055                    22265765.223
                        24.500
                  84759226.681 6  20422085.352                    20422087.656
                        41.300
 116228979.236 6  90567923.88442  22117610.195                    22117613.000
        41.800          15.600
                  81589309.492 6  19679075.648                    19679079.125
                        39.800
                  84760495.720 6  20393705.266                    20393707.766
                        41.300
 124919369.943 5                  23771374.078
        32.500
                                  22631252.797

 114793865.776 7  89449783.49444  21844556.867                    21844560.078
        46.100          28.700
 119199110.858 6                  22682837.258
        37.000
                  84038520.089 6  20198722.352                    20198721.254
                        39.800
 111461063.003 8  86852788.86845  21210335.750                    21210341.309
        50.300          35.500
 117386061.470 7  91469624.08144  22337826.383                    22337832.313
        45.000          28.500
 113466135.821 6  88415127.96143  21591887.664                    21591888.828
        39.000          22.800
 18  3 15 13 43 37.0000000  0 14R01R02G12R10R11G14R18G17G01R19G24G32
                                G03G19
                  92577011.753 4  22266568.938                    22266573.723
                        25.900
                  84759196.246 6  20422077.406                    20422079.594
                        41.200
 116226242.253 7  90565791.16742  22117089.391                    22117092.246
        42.100          15.600
                  81590971.137 6  19679475.898                    19679480.180
                        39.800
                  84758651.187 6  20393261.898                    20393263.449
                        41.400
 124916840.230 5                  23770893.359
        32.400
                                  22632082.094

 114794314.669 7  89450133.27944  21844642.352                    21844645.855
        45.900          28.300
 119200998.439 6                  22683196.750
        37.400
                  84039162.604 6  20198876.969                    20198875.172
                        39.900
 111462813.589 8  86854152.95745  21210668.734                    21210674.645
        50.100          35.200
 117384978.523 7  91468780.22544  22337620.023                    22337626.254
        45.100          28.300
 129522351.88816 100926523.60052  24647282.117                    24647289.402
        38.500          15.600
 113464966.255 6  88414216.60443  21591664.141                    21591666.512
        37.900          22.300
 18  3 15 13 43 38.0000000  0 14R01R02G12R10R11G14R18G17G01R19G24G32
                                G03G19
                  92580374.865 3  22267376.797                    22267383.141
                        23.800
                  84759166.533 6  20422069.992                    20422072.242
                        41.300
 116223505.711 7  90563658.80742  22116569.070                    22116571.465
        42.500          17.400
                  81592633.402 6  19679877.055                    19679880.469
                        40.100
                  84756807.146 6  20392818.063                    20392819.918
                        41.300
 124914310.835 5                  23770411.594
        32.900
                                  22632912.539

 114794764.195 7  89450483.55744  21844727.914                    21844731.406
        46.100          28.100
 119202886.702 6                  22683556.023
        37.600
                  84039805.875 6  20199031.203                    20199029.895
                        39.600
 111464564.815 8  86855517.55045  21211001.867                    21211007.953
        50.000          35.000
 117383896.165 7  91467936.82844  22337414.328                    22337420.273
        45.500          29.200
 129519455.631 6 100924266.76842  24646732.117                    24646738.367
        38.400          15.600
 113463797.366 6  88413305.78043  21591441.227                    21591443.836
        38.100          21.500
 18  3 15 13 43 39.0000000  0 14R01R02G12R10R11G14R18G17G01R19G24G32
                                G03G19
                  92583738.366 3  22268186.445                    22268191.508
                        23.300
                  84759137.566 6  20422063.523                    20422065.434
                        41.300
 116220769.658 7  90561526.83342  22116048.086                    22116050.910
        42.700          17.400
                  81594296.285 6  19680278.289                    19680282.086
                        39.800
                  84754963.643 6  20392374.172                    20392376.227
                        41.400
 124911781.908 5                  23769930.242
        33.100
                                  22633742.977

 114795214.422 7  89450834.37944  21844813.734                    21844816.773
        45.800          28.400
 119204775.730 6                  22683915.633
        37.200
                  84040449.926 6  20199186.641                    20199185.227
                        39.100
 111466316.727 8  86856882.67345  21211335.234                    21211341.352
        50.300          35.300
 117382814.467 7  91467093.93844  22337208.086                    22337214.566
        45.200          28.100
 129516559.748 6 100922010.25442  24646180.500                    24646187.004
        38.900          15.600
 113462629.273 6  88412395.58443  21591220.328                    21591221.359
        40.000          22.600
 18  3 15 13 43 40.0000000  0 14R01R02G12R10R11G14R18G17G01R19G24G32
                                G03G19
                  92587102.143 4  22268995.914                    22269000.242
                        26.600
                  84759109.284 6  20422056.516                    20422058.906
                        41.200
 116218034.034 7  90559395.17043  22115527.180                    22115530.512
        45.600          19.600
                  81595959.776 6  19680679.016                    19680682.891
                        39.000
                  84753120.660 6  20391930.750                    20391932.738
                        41.300
 124909253.313 5                  23769447.984
        32.300
                                  22634573.070

 114795665.290 7  89451185.70144  21844899.477                    21844902.789
        45.700          27.100
 119206665.343 6                  22684274.719
        36.700
                  84041094.708 6  20199341.008                    20199339.895
                        39.300
 111468069.250 8  86858248.28045  21211668.719                    21211674.477
        48.500          34.400
 117381733.466 7  91466251.59544  22337002.563                    22337008.570
        45.500          29.100
 129513664.180 6 100919753.95842  24645629.906                    24645636.258
        38.700          15.600
 113461461.877 6  88411485.91943  21590998.695                    21590999.621
        39.700          22.900
 18  3 15 13 43 41.0000000  0 14R01R02G12R10R11G14R18G17G01R19G24G32
                                G03G19
                  92590466.361 4  22269804.555                    22269809.340
                        24.500
                  84759081.726 6  20422050.219                    20422051.859
                        41.200
 116215298.826 6  90557263.83743  22115007.422                    22115010.262
        41.900          19.900
                  81597623.859 6  19681080.461                    19681084.219
                        38.700
                  84751278.154 6  20391487.484                    20391489.313
                        40.800
 124906725.092 5                  23768967.422
        33.500
                                  22635401.672

 114796116.760 7  89451537.47644  21844985.391                    21844988.590
        45.800          29.100
 119208555.668 6                  22684633.961
        36.300
                  84041740.197 6  20199496.055                    20199494.984
                        39.400
 111469822.398 8  86859614.37945  21212002.711                    21212008.289
        49.300          35.100
 117380653.003 7  91465409.68044  22336796.594                    22336802.914
        45.400          29.300
 129510768.907 6 100917497.89442  24645078.445                    24645085.227
        38.900          15.600
 113460295.126 6  88410576.76544  21590775.008                    21590777.570
        40.400          26.000
 18  3 15 13 43 42.0000000  0 13R01R02G12R10R11G14G17G01R19G24G32G03
                                G19
                  92593830.914 4  22270614.102                    22270619.371
                        25.000
                  84759054.941 6  20422042.984                    20422045.246
                        41.400
 116212564.109 6  90555132.89043  22114486.461                    22114489.781
        40.700          18.600
                  81599288.589 6  19681481.859                    19681485.637
                        38.800
                  84749436.155 6  20391044.359                    20391046.617
                        41.200
 124904197.70815                  23768487.406
        32.300
 114796568.911 7  89451889.79744  21845071.445                    21845074.773
        46.000          28.800
 119210446.683 6                  22684994.109
        36.200
                  84042386.462 6  20199651.211                    20199650.359
                        39.400
 111471576.217 8  86860980.98345  21212336.477                    21212342.254
        49.700          35.700
 117379573.257 7  91464568.32244  22336591.445                    22336598.059
        45.600          29.500
 129507873.978 6 100915242.07742  24644527.172                    24644534.133
        38.600          16.300
 113459129.173 6  88409668.23843  21590554.984                    21590555.281
        39.800          21.700
 18  3 15 13 43 43.0000000  0 13R01R02G12R10R11G14G17G01R19G24G32G03
                                G19
                  92597196.023 4  22271422.977                    22271428.219
                        27.900
                  84759028.984 6  20422036.617                    20422039.629
                        41.200
 116209829.947 7  90553002.39043  22113966.461                    22113969.465
        43.500          19.300
                  81600953.988 6  19681883.508                    19681887.703
                        39.000
                  84747594.678 6  20390601.320                    20390602.516
                        41.100
 124901669.813 5                  23768005.047
        31.200
 114797021.796 7  89452242.67544  21845157.633                    21845160.742
        45.900          28.900
 119212338.455 6                  22685354.664
        37.300
                  84043033.524 6  20199806.273                    20199805.941
                        39.600
 111473330.751 8  86862348.14845  21212669.953                    21212675.996
        49.800          35.800
 117378494.196 7  91463727.50444  22336386.195                    22336392.379
        45.500          29.700
 129504979.447 6 100912986.59242  24643976.539                    24643983.684
        38.200          15.600
 113457964.006 6  88408760.31843  21590332.766                    21590333.734
        40.100          22.200
 18  3 15 13 43 44.0000000  0 12R02G12R10R11G14G17G01R19G24G32G03G19
                  84759003.772 6  20422030.875                    20422032.891
                        41.100
 116207096.193 7  90550872.20043  22113446.156                    22113449.035
        45.700          21.100
                  81602619.994 6  19682285.641                    19682289.594
                        39.100
                  84745753.759 6  20390158.227                    20390160.113
                        41.200
 124899142.757 5                  23767524.781
        31.600
 114797475.362 7  89452596.09044  21845243.977                    21845247.016
        46.100          29.100
 119214230.903 6                  22685714.758
        37.500
                  84043681.368 6  20199961.500                    20199961.117
                        39.400
 111475085.918 8  86863715.81245  21213004.188                    21213009.520
        49.600          34.600
 117377415.788 7  91462887.18744  22336180.922                    22336187.098
        45.300          29.500
 129502085.263 6 100910731.40342  24643426.188                    24643432.645
        38.600          16.900
 113456799.577 6  88407852.95643  21590110.117                    21590112.734
        38.100          22.500
 18  3 15 13 43 45.0000000  0 12R02G12R10R11G14G17G01R19G24G32G03G19
                  84758979.261 6  20422024.875                    20422027.492
                        41.200
 116204362.862 7  90548742.33643  22112925.375                    22112928.957
        45.600          23.200
                  81604286.595 6  19682687.664                    19682691.711
                        39.800
                  84743913.302 6  20389715.477                    20389717.262
                        41.200
 124896616.125 5                  23767044.008
        31.500
 114797929.515 7  89452949.96744  21845330.141                    21845333.906
        46.000          28.400
 119216124.047 6                  22686074.656
        36.900
                  84044329.891 6  20200117.234                    20200117.141
                        39.100
 111476841.705 8  86865083.96045  21213338.523                    21213343.699
        49.800          34.800
 117376338.040 7  91462047.38944  22335975.406                    22335981.984
        44.800          28.500
 129499191.363 6 100908476.47242  24642874.102                    24642882.254
        37.500          16.300
 113455635.814 6  88406946.12043  21589888.453                    21589890.996
        39.100          22.000
 18  3 15 13 43 46.0000000  0 13R02G12R10R11G14R18G17G01R19G24G32G03
                                G19
                  84758955.486 6  20422019.203                    20422021.824
                        41.300
 116201630.013 7  90546612.84443  22112405.891                    22112408.574
        45.500          22.600
                  81605953.783 6  19683089.617                    19683093.273
                        39.800
                  84742073.321 6  20389273.523                    20389274.836
                        41.200
 124894089.873 5                  23766563.398
        30.700
                                  22639553.977

 114798384.339 7  89453304.37244  21845416.969                    21845419.871
        46.100          28.300
 119218017.854 6                  22686434.977
        36.900
                  84044979.172 6  20200274.320                    20200273.883
                        39.100
 111478598.132 8  86866452.60645  21213672.359                    21213678.387
        49.600          34.800
 117375260.869 7  91461208.03444  22335770.922                    22335777.012
        45.100          28.600
 129496297.768 6 100906221.69042  24642324.531                    24642331.352
        38.000          16.300
 113454472.781 6  88406039.84343  21589668.234                    21589669.375
        39.900          22.500
 18  3 15 13 43 47.0000000  0 14R01R02G12R10R11G14R18G17G01R19G24G32
                                G03G19
                  92610659.61714  22274662.875                    22274666.570
                        27.400
                  84758932.442 6  20422013.867                    20422016.078
                        41.100
 116198897.563 7  90544483.65244  22111885.555                    22111888.957
        45.900          25.100
                  81607621.596 6  19683492.102                    19683496.133
                        39.800
                  84740233.841 6  20388830.055                    20388831.855
                        41.300
 124891563.969 5                  23766082.070
        30.500
                                  22640384.859

 114798839.781 7  89453659.26344  21845503.445                    21845506.703
        46.600          28.100
 119219912.284 6                  22686795.766
        36.600
                  84045629.199 6  20200430.375                    20200429.422
                        38.900
 111480355.162 8  86867821.72345  21214006.766                    21214012.438
        50.300          35.200
 117374184.373 7  91460369.20544  22335566.102                    22335571.816
        45.100          28.900
 129493404.521 6 100903967.20342  24641774.906                    24641780.961
        37.400          16.300
 113453310.437 6  88405134.12043  21589446.805                    21589448.484
        39.900          22.200
 18  3 15 13 43 48.0000000  0 14R01R02G12R10R11G14R18G17G01R19G24G32
                                G03G19
                  92614026.382 4  22275472.039                    22275476.047
                        27.600
                  84758910.136 6  20422008.320                    20422010.918
                        41.400
 116196165.556 7  90542354.80843  22111366.000                    22111368.977
        45.100          22.000
                  81609290.007 6  19683894.359                    19683898.141
                        39.700
                  84738394.845 6  20388388.039                    20388389.582
                        41.700
 124889038.466 5                  23765601.625
        30.800
                                  22641216.797

 114799295.900 7  89454014.68844  21845590.570                    21845593.750
        46.400          29.000
 119221807.464 6                  22687156.344
        36.100
                  84046279.979 6  20200586.016                    20200586.137
                        38.900
 111482112.826 8  86869191.33145  21214341.664                    21214346.855
        50.200          35.000
 117373108.489 7  91459530.86044  22335361.172                    22335367.270
        45.100          29.500
 129490511.605 6 100901712.94442  24641223.453                    24641230.691
        37.200          15.600
 113452148.804 6  88404228.95943  21589225.195                    21589227.109
        40.600          23.300
 18  3 15 13 43 49.0000000  0 14R01R02G12R10R11G14R18G17G01R19G24G32
                                G03G19
                  92617393.541 4  22276282.609                    22276285.777
                        29.100
                  84758888.567 6  20422003.625                    20422005.520
                        41.100
 116193434.007 7  90540226.33244  22110846.352                    22110848.785
        45.400          25.000
                  81610959.043 6  19684296.789                    19684300.953
                        39.100
                  84736556.369 6  20387945.781                    20387946.805
                        41.200
 124886513.231 5                  23765121.250
        30.100
                                  22642045.500

 114799752.611 7  89454370.56344  21845676.883                    21845680.883
        46.100          27.800
 119223703.213 6                  22687517.063
        36.000
                  84046931.489 6  20200743.469                    20200742.719
                        39.100
 111483871.138 8  86870561.45345  21214676.055                    21214681.766
        49.100          33.300
 117372033.255 7  91458693.01044  22335156.984                    22335163.246
        45.400          28.700
 129487618.988 6 100899458.96342  24640672.938                    24640679.969
        37.100          16.300
 113450987.881 6  88403324.36643  21589004.609                    21589006.219
        40.500          23.600
 18  3 15 13 43 50.0000000  0 14R01R02G12R10R11G14R18G17G01R19G24G32
                                G03G19
                  92620761.028 4  22277091.820                    22277095.531
                        27.400
                  84758867.691 6  20421998.086                    20422000.355
                        41.100
 116190702.909 7  90538098.21244  22110326.336                    22110328.980
        45.200          24.600
                  81612628.661 6  19684699.711                    19684703.727
                        39.400
                  84734718.371 6  20387503.719                    20387504.914
                        41.400
 124883988.462 5                  23764641.008
        31.500
                                  22642876.742

 114800209.989 7  89454726.94944  21845764.406                    21845767.547
        46.300          27.200
 119225599.731 5                  22687877.508
        35.300
                  84047583.736 6  20200899.711                    20200899.109
                        39.800
 111485630.061 8  86871932.05245  21215010.281                    21215016.430
        49.100          34.700
 117370958.639 7  91457855.64544  22334952.102                    22334958.410
        45.100          28.500
 129484726.711 6 100897205.23542  24640122.023                    24640129.789
        37.200          17.400
 113449827.645 6  88402420.28143  21588783.680                    21588785.641
        38.800          22.600
 18  3 15 13 43 51.0000000  0 14R01R02G12R10R11G14R18G17G01R19G24G32
                                G03G19
                  92624128.838 4  22277901.391                    22277906.078
                        28.700
                  84758847.523 6  20421993.367                    20421995.195
                        41.100
 116187972.224 7  90535970.42643  22109806.594                    22109809.816
        44.600          23.000
                  81614298.859 6  19685102.406                    19685106.777
                        39.800
                  84732880.835 6  20387061.023                    20387063.008
                        41.600
 124881463.949 5                  23764160.352
        31.000
                                  22643706.305

 114800667.958 7  89455083.79944  21845851.461                    21845854.844
        46.000          28.700
 119227496.812 5                  22688238.703
        35.900
                  84048236.699 6  20201057.836                    20201056.191
                        40.100
 111487389.542 8  86873303.06945  21215345.945                    21215351.461
        49.000          34.400
 117369884.607 7  91457018.74544  22334747.500                    22334753.887
        45.100          28.900
 129481834.687 6 100894951.70442  24639571.531                    24639579.734
        37.300          16.300
 113448668.063 6  88401516.70943  21588562.945                    21588564.793
        39.800          22.600
 18  3 15 13 43 52.0000000  0 13R01R02G12R10R11G14G17G01R19G24G32G03
                                G19
                  92627497.107 4  22278710.836                    22278716.090
                        27.000
                  84758828.175 6  20421989.063                    20421990.641
                        41.200
 116185242.021 7  90533843.00844  22109287.234                    22109290.156
        45.300          25.700
                  81615969.707 6  19685505.648                    19685509.574
                        39.800
                  84731043.843 6  20386619.508                    20386620.848
                        41.400
 124878939.944 5                  23763680.953
        32.200
 114801126.663 7  89455441.22944  21845938.914                    21845942.289
        45.200          26.200
 119229394.594 5                  22688600.617
        35.900
                  84048890.452 6  20201214.078                    20201213.559
                        39.600
 111489149.769 8  86874674.66645  21215679.953                    21215685.996
        49.100          35.700
 117368811.300 7  91456182.41444  22334543.664                    22334549.238
        45.300          28.100
 129478943.053 6 100892698.48642  24639022.352                    24639029.473
        37.300          15.600
 113447509.298 7  88400613.76243  21588343.578                    21588344.500
        42.400          22.900
 18  3 15 13 43 53.0000000  0 13R01R02G12R10R11G14G17G01R19G24G32G03
                                G19
                  92630865.729 4  22279522.273                    22279526.621
                        27.400
                  84758809.578 6  20421984.195                    20421985.977
                        40.900
 116182512.261 7  90531715.91744  22108767.922                    22108770.840
        46.300          27.300
                  81617641.209 6  19685908.617                    19685912.320
                        40.200
                  84729207.364 6  20386177.297                    20386178.750
                        41.200
 124876416.290 5                  23763200.156
        33.000
 114801586.019 7  89455799.16244  21846025.836                    21846030.008
        45.100          25.000
 119231293.079 6                  22688961.063
        36.000
                  84049544.957 6  20201371.219                    20201371.059
                        39.200
 111490910.636 8  86876046.77645  21216015.609                    21216021.172
        48.800          34.300
 117367738.637 7  91455346.58244  22334339.008                    22334345.223
        45.600          29.100
 129476051.771 6 100890445.54842  24638471.508                    24638479.387
        37.500          15.600
 113446351.274 6  88399711.39044  21588121.391                    21588123.820
        40.800          25.200
 18  3 15 13 43 54.0000000  0 13R01R02G12R10R11G14G17G01R19G24G32G03
                                G19
                  92634234.699 4  22280333.938                    22280337.293
                        28.300
                  84758791.705 6  20421980.250                    20421982.016
                        41.400
 116179782.974 7  90529589.18844  22108248.555                    22108251.598
        46.400          27.000
                  81619313.284 6  19686312.523                    19686316.004
                        39.900
                  84727371.356 6  20385735.883                    20385737.512
                        41.200
 124873893.025 5                  23762721.172
        32.200
 114802045.990 7  89456157.58143  21846113.539                    21846117.238
        44.600          23.800
 119233192.288 6                  22689322.688
        36.900
                  84050200.207 6  20201528.531                    20201528.281
                        39.500
 111492672.121 8  86877419.35845  21216350.609                    21216356.367
        48.600          34.200
 117366666.602 7  91454511.23744  22334135.359                    22334141.324
        45.800          29.900
 129473160.808 6 100888192.86142  24637921.664                    24637929.145
        38.100          16.300
 113445193.880 6  88398809.53644  21587901.219                    21587903.359
        41.400          25.200
 18  3 15 13 43 55.0000000  0 13R01R02G12R10R11G14G17G01R19G24G32G03
                                G19
                  92637604.026 4  22281142.273                    22281147.727
                        24.800
                  84758774.569 6  20421975.727                    20421978.148
                        41.100
 116177054.128 7  90527462.80744  22107729.180                    22107732.160
        45.800          27.700
                  81620985.988 6  19686715.625                    19686719.344
                        39.800
                  84725535.869 6  20385294.086                    20385295.059
                        41.200
 124871370.146 5                  23762241.313
        32.800
 114802506.670 7  89456516.54844  21846201.250                    21846204.785
        44.900          25.700
 119235092.137 6                  22689683.680
        37.300
                  84050856.201 6  20201686.188                    20201685.844
                        39.000
 111494434.232 8  86878792.43145  21216686.086                    21216691.523
        49.100          34.200
 117365595.191 7  91453676.36144  22333930.922                    22333937.535
        45.500          29.700
 129470270.145 6 100885940.36342  24637371.852                    24637378.832
        37.500          16.300
 113444037.240 7  88397908.26744  21587683.188                    21587683.551
        43.100          26.700
 18  3 15 13 43 56.0000000  0 13R01R02G12R10R11G14G17G01R19G24G32G03
                                G19
                  92640973.730 4  22281954.742                    22281957.758
                        27.100
                  84758758.142 6  20421971.648                    20421973.980
                        41.300
 116174325.735 7  90525336.80144  22107209.984                    22107213.098
        45.600          25.600
                  81622659.287 6  19687119.352                    19687122.699
                        40.300
                  84723700.888 6  20384852.852                    20384854.488
                        41.300
 124868847.601 5                  23761760.672
        33.400
 114802967.929 7  89456875.96544  21846289.313                    21846292.410
        45.900          26.400
 119236992.664 6                  22690046.102
        36.400
                  84051512.919 6  20201843.984                    20201843.371
                        39.600
 111496196.985 8  86880166.01045  21217021.203                    21217027.148
        48.900          34.100
 117364524.423 7  91452841.99544  22333727.961                    22333733.816
        45.900          28.700
 129467379.802 6 100883688.14642  24636821.141                    24636829.215
        38.500          16.300
 113442881.376 6  88397007.59343  21587462.367                    21587463.961
        41.400          23.600
 18  3 15 13 43 57.0000000  0 14R01R02G12R10R11G14R18G17G01R19G24G32
                                G03G19
                  92644343.760 4  22282764.273                    22282768.719
                        26.100
                  84758742.437 6  20421968.180                    20421970.160
                        41.100
 116171597.783 7  90523211.11944  22106691.070                    22106693.441
        45.600          26.500
                  81624333.195 6  19687523.109                    19687527.121
                        40.000
                  84721866.406 6  20384411.484                    20384412.551
                        41.200
 124866325.443 5                  23761280.992
        32.600
                                  22648693.734

 114803429.869 7  89457235.90144  21846376.945                    21846380.250
        45.700          27.100
 119238893.943 5                  22690407.641
        35.800
                  84052170.411 6  20202002.164                    20202001.734
                        39.300
 111497960.371 8  86881540.08145  21217357.813                    21217362.867
        49.100          34.200
 117363454.277 7  91452008.11544  22333524.359                    22333530.148
        45.500          28.800
 129464489.804 6 100881436.18142  24636271.133                    24636279.172
        37.700          16.300
 113441726.122 6  88396107.40244  21587240.742                    21587243.805
        41.100          25.400
 18  3 15 13 43 58.0000000  0 13R01R02G12R10R11G14G17G01R19G24G32G03
                                G19
                  92647714.158 4  22283576.672                    22283579.578
                        27.800
                  84758727.483 6  20421964.102                    20421966.762
                        41.100
 116168870.286 7  90521085.80644  22106171.867                    22106174.609
        45.800          26.200
                  81626007.722 6  19687926.711                    19687930.801
                        39.800
                  84720032.416 6  20383970.141                    20383971.793
                        41.200
 124863803.685 5                  23760800.727
        33.700
 114803892.458 7  89457596.35044  21846465.203                    21846468.383
        46.300          26.400
 119240795.864 6                  22690769.508
        36.200
                  84052828.643 6  20202160.594                    20202159.770
                        39.700
 111499724.426 8  86882914.67345  21217691.875                    21217698.453
        48.900          33.400
 117362384.810 7  91451174.75744  22333320.039                    22333326.273
        45.300          28.800
 129461600.167 6 100879184.47542  24635721.438                    24635729.297
        37.300          17.400
 113440571.657 7  88395207.83944  21587023.055                    21587023.949
        43.000          25.700
 18  3 15 13 43 59.0000000  0 13R01R02G12R10R11G14G17G01R19G24G32G03
                                G19
                  92651084.903 4  22284385.594                    22284390.180
                        26.400
                  84758713.284 6  20421961.047                    20421963.410
                        40.900
 116166143.266 7  90518960.85444  22105653.234                    22105655.672
        45.900          25.400
                  81627682.860 6  19688331.109                    19688334.754
                        39.700
                  84718198.948 6  20383528.875                    20383529.805
                        41.400
 124861282.350 5                  23760321.930
        33.100
 114804355.721 7  89457957.33244  21846553.258                    21846556.652
        45.800          27.200
 119242698.450 5                  22691131.211
        35.500
                  84053487.646 6  20202319.117                    20202318.137
                        39.800
 111501489.108 8  86884289.74245  21218028.813                    21218034.207
        50.000          35.200
 117361315.964 7  91450341.88844  22333117.594                    22333123.203
        45.100          29.000
 129458710.857 6 100876933.03542  24635171.688                    24635179.195
        37.900          14.800
 113439417.896 7  88394308.79843  21586803.688                    21586804.520
        42.200          23.800
 18  3 15 13 44  0.0000000  0 13R01R02G12R10R11G14G17G01R19G24G32G03
                                G19
                  92654456.060 4  22285196.234                    22285200.996
                        26.300
                  84758699.844 6  20421958.367                    20421960.551
                        41.400
 116163416.670 7  90516836.24344  22105133.797                    22105136.582
        45.600          24.100
                  81629358.597 6  19688734.875                    19688738.496
                        39.800
                  84716365.979 6  20383087.750                    20383089.410
                        41.300
 124858761.77615                  23759841.938
        33.900
 114804819.613 7  89458318.79644  21846641.742                    21846645.070
        45.500          26.300
 119244601.748 5                  22691492.602
        34.900
                  84054147.374 6  20202477.563                    20202476.977
                        39.400
 111503254.432 8  86885665.31245  21218364.398                    21218370.402
        50.100          35.400
 117360247.761 7  91449509.51944  22332913.578                    22332920.078
        45.100          28.700
 129455821.878 6 100874681.90742  24634622.023                    24634629.574
        37.700          14.800
 113438264.841 6  88393410.30044  21586582.852                    21586585.359
        41.600          24.800
 18  3 15 13 44  1.0000000  0 13R01R02G12R10R11G14G17G01R19G24G32G03
                                G19
                  92657827.544 4  22286008.047                    22286011.633
                        27.300
                  84758687.111 6  20421955.242                    20421957.059
                        41.100
 116160690.601 7  90514712.03344  22104615.164                    22104618.141
        45.000          25.600
                  81631034.955 6  19689139.477                    19689142.672
                        39.800
                  84714533.510 6  20382647.344                    20382648.699
                        41.500
 124856240.717 5                  23759360.719
        33.200
 114805284.175 7  89458680.79344  21846729.852                    21846733.273
        45.600          26.000
 119246505.703 6                  22691854.734
        36.900
                  84054807.848 6  20202636.117                    20202635.754
                        39.600
 111505020.388 8  86887041.37945  21218700.359                    21218705.895
        49.500          34.400
 117359180.224 7  91448677.67445  22332710.766                    22332716.473
        44.900          30.000
 129452933.224 6 100872431.02142  24634072.734                    24634080.250
        38.800          15.600
 113437112.509 7  88392512.38343  21586363.078                    21586365.879
        42.000          22.200
 18  3 15 13 44  2.0000000  0 13R01R02G12R10R11G14G17G01R19G24G32G03
                                G19
                  92661199.407 4  22286819.031                    22286822.430
                        27.000
                  84758675.139 6  20421951.594                    20421954.000
                        41.100
 116157964.893 7  90512588.09544  22104096.617                    22104099.184
        45.700          26.700
                  81632711.912 6  19689543.711                    19689548.176
                        39.800
                  84712701.509 6  20382205.977                    20382207.211
                        41.500
 124853720.508 5                  23758881.969
        33.100
 114805749.363 7  89459043.27644  21846818.828                    21846821.449
        46.200          26.300
 119248410.353 6                  22692218.734
        36.700
                  84055469.088 6  20202794.742                    20202794.773
                        39.800
 111506786.978 8  86888417.95445  21219036.211                    21219042.496
        48.900          34.300
 117358113.331 7  91447846.33144  22332507.742                    22332513.570
        44.900          28.700
 129450044.908 6 100870180.39342  24633523.516                    24633530.617
        38.600          15.600
 113435960.913 7  88391615.03944  21586145.461                    21586146.789
        42.200          24.400
 18  3 15 13 44  3.0000000  0 13R01R02G12R10R11G14G17G01R19G24G32G03
                                G19
                  92664571.636 4  22287629.359                    22287633.707
                        26.800
                  84758663.889 6  20421948.758                    20421950.809
                        41.300
 116155239.704 7  90510464.57944  22103577.914                    22103580.691
        45.400          26.600
                  81634389.479 6  19689948.625                    19689951.926
                        39.900
                  84710870.023 6  20381765.438                    20381767.035
                        41.500
 124851200.638 5                  23758403.266
        31.900
 114806215.214 7  89459406.26544  21846906.930                    21846910.156
        46.100          27.800
 119250315.608 6                  22692580.867
        37.300
                  84056131.043 6  20202955.172                    20202954.121
                        39.600
 111508554.229 8  86889795.03545  21219373.430                    21219378.371
        49.400          34.700
 117357047.065 7  91447015.47644  22332304.805                    22332310.863
        45.200          28.900
 129447156.895 6 100867930.00842  24632973.430                    24632980.883
        38.800          14.800
 113434810.029 7  88390718.24544  21585926.086                    21585927.711
        42.900          24.700
 18  3 15 13 44  4.0000000  0 13R01R02G12R10R11G14G17G01R19G24G32G03
                                G19
                  92667944.224 4  22288440.234                    22288444.566
                        28.000
                  84758653.399 6  20421946.742                    20421948.520
                        41.200
 116152514.939 7  90508341.38044  22103059.242                    22103062.133
        45.500          26.400
                  81636067.680 6  19690353.188                    19690356.641
                        39.700
                  84709039.088 6  20381325.078                    20381326.180
                        41.200
 124848681.158 5                  23757923.141
        32.500
 114806681.742 7  89459769.80444  21846996.016                    21846999.250
        46.000          26.800
 119252221.621 6                  22692944.609
        37.100
                  84056793.789 6  20203113.227                    20203112.973
                        39.400
 111510322.115 8  86891172.60745  21219708.914                    21219715.246
        48.400          34.400
 117355981.467 7  91446185.13744  22332101.859                    22332107.969
        45.500          29.100
 129444269.257 6 100865679.88742  24632424.273                    24632431.559
        38.300          15.600
 113433659.910 7  88389822.05044  21585707.969                    21585709.090
        43.000          25.500
 18  3 15 13 44  5.0000000  0 14R01R02G12R10R11G14R18G17G01R19G24G32
                                G03G19
                  92671317.268 4  22289253.141                    22289256.449
                        27.700
                  84758643.751 6  20421944.484                    20421946.039
                        41.000
 116149790.744 7  90506218.61944  22102541.031                    22102544.109
        45.500          26.600
                  81637746.588 6  19690758.180                    19690761.832
                        39.500
                  84707208.720 6  20380884.211                    20380885.961
                        41.300
 124846162.193 5                  23757442.906
        32.300
                                  22655346.922

 114807149.014 7  89460133.91744  21847084.570                    21847087.836
        45.800          26.700
 119254128.404 6                  22693306.891
        36.900
                  84057457.368 6  20203273.875                    20203273.258
                        39.100
 111512090.738 8  86892550.76145  21220045.727                    21220051.434
        49.100          35.400
 117354916.583 7  91445355.35144  22331899.609                    22331905.352
        45.600          28.800
 129441382.021 6 100863430.12042  24631874.281                    24631881.746
        38.800          15.600
 113432510.549 6  88388926.44843  21585487.797                    21585490.156
        41.300          23.500
 18  3 15 13 44  6.0000000  0 14R01R02G12R10R11G14R18G17G01R19G24G32
                                G03G19
                  92674690.658 4  22290062.930                    22290067.578
                        29.400
                  84758634.856 6  20421942.820                    20421943.957
                        41.200
 116147067.039 7  90504096.28244  22102022.750                    22102025.613
        44.700          27.900
                  81639426.115 6  19691163.445                    19691167.113
                        39.900
                  84705378.835 6  20380444.063                    20380446.094
                        41.400
 124843644.10415                  23756963.984
        32.400
                                  22656180.086

 114807616.930 7  89460498.51644  21847173.438                    21847177.184
        46.300          27.000
 119256035.902 6                  22693669.734
        36.700
                  84058121.692 6  20203432.039                    20203432.160
                        39.500
 111513860.002 8  86893929.40645  21220382.320                    21220388.176
        48.700          33.700
 117353852.351 7  91444526.06744  22331696.516                    22331702.801
        45.800          29.500
 129438495.147 6 100861180.60042  24631325.070                    24631332.750
        39.200          14.800
 113431361.956 7  88388031.45143  21585269.648                    21585271.289
        42.000          23.600
 18  3 15 13 44  7.0000000  0 14R01R02G12R10R11G14R18G17G01R19G24G32
                                G03G19
                  92678064.419 4  22290875.883                    22290879.402
                        28.200
                  84758626.706 6  20421940.469                    20421942.703
                        41.000
 116144343.729 7  90501974.22744  22101504.352                    22101507.301
        45.200          25.600
                  81641106.274 6  19691568.320                    19691571.957
                        39.900
                  84703549.457 6  20380004.328                    20380005.281
                        41.200
 124841125.393 5                  23756485.047
        32.000
                                  22657012.578

 114808085.544 7  89460863.66544  21847262.813                    21847266.031
        45.700          27.600
 119257944.034 6                  22694033.055
        36.700
                  84058786.792 6  20203591.305                    20203592.469
                        39.600
 111515629.967 8  86895308.60445  21220719.742                    21220725.246
        49.000          34.700
 117352788.789 7  91443697.30744  22331494.445                    22331500.496
        45.500          29.300
 129435608.600 6 100858931.35342  24630775.906                    24630783.457
        38.900          13.900
 113430214.103 7  88387137.03043  21585052.516                    21585052.875
        42.100          23.500
 18  3 15 13 44  8.0000000  0 14R01R02G12R10R11G14R18G17G01R19G24G32
                                G03G19
                  92681438.545 4  22291687.883                    22291690.824
                        28.300
                  84758619.264 6  20421938.789                    20421940.313
                        41.000
 116141620.882 7  90499852.50944  22100986.414                    22100988.660
        46.600          27.300
                  81642787.002 6  19691974.594                    19691977.711
                        39.900
                  84701720.586 6  20379563.953                    20379566.199
                        41.200
 124838607.530 5                  23756006.711
        32.300
                                  22657844.375

 114808554.755 7  89461229.26944  21847352.445                    21847355.480
        46.100          27.000
 119259852.911 5                  22694396.289
        35.700
                  84059452.585 6  20203751.984                    20203752.316
                        39.700
 111517400.512 8  86896688.24745  21221055.922                    21221061.813
        49.100          34.400
 117351725.857 7  91442869.03944  22331292.188                    22331297.930
        45.800          29.800
 129432722.401 6 100856682.31442  24630226.695                    24630234.262
        38.700          14.800
 113429066.926 6  88386243.11444  21584832.672                    21584834.941
        41.100          25.400
 18  3 15 13 44  9.0000000  0 14R01R02G12R10R11G14R18G17G01R19G24G32
                                G03G19
                  92684813.064 4  22292497.680                    22292502.469
                        28.900
                  84758612.536 6  20421937.133                    20421938.969
                        41.100
 116138898.473 7  90497731.14644  22100468.805                    22100471.340
        46.600          26.900
                  81644468.354 6  19692379.469                    19692383.027
                        39.700
                  84699892.207 6  20379124.602                    20379125.816
                        41.100
 124836090.018 5                  23755526.391
        31.900
                                  22658677.508

 114809024.622 7  89461595.38944  21847441.570                    21847444.789
        46.400          27.500
 119261762.419 6                  22694758.180
        36.400
                  84060119.087 6  20203912.859                    20203913.297
                        39.500
 111519171.699 8  86898068.39045  21221393.438                    21221398.742
        49.200          34.400
 117350663.562 7  91442041.27145  22331089.836                    22331095.957
        45.600          30.200
 129429836.537 6 100854433.57842  24629677.781                    24629685.141
        39.000          16.300
 113427920.454 6  88385349.74744  21584613.508                    21584616.227
        41.300          25.400
 18  3 15 13 44 10.0000000  0 14R01R02G12R10R11G14R18G17G01R19G24G32
                                G03G19
                  92688187.923 4  22293309.461                    22293314.160
                        27.800
                  84758606.554 6  20421935.242                    20421937.453
                        41.200
 116136176.569 7  90495610.17744  22099950.766                    22099953.078
        46.900          27.700
                  81646150.331 6  19692785.141                    19692789.164
                        39.900
                  84698064.372 6  20378684.617                    20378685.980
                        41.400
 124833572.908 5                  23755047.336
        31.800
                                  22659509.438

 114809495.176 7  89461962.05144  21847531.063                    21847534.539
        46.700          27.400
 119263672.614 6                  22695122.352
        36.600
                  84060786.398 6  20204073.297                    20204072.508
                        39.600
 111520943.525 8  86899449.03245  21221730.500                    21221735.883
        49.400          34.600
 117349601.919 7  91441214.01844  22330888.117                    22330894.023
        45.800          28.100
 129426950.973 6 100852185.09642  24629128.477                    24629136.188
        39.100          14.800
 113426774.716 7  88384456.96443  21584397.211                    21584398.324
        42.500          23.900
 18  3 15 13 44 11.0000000  0 14R01R02G12R10R11G14R18G17G01R19G24G32
                                G03G19
                  92691563.126 4  22294121.648                    22294125.719
                        27.500
                  84758601.287 6  20421934.625                    20421936.277
                        41.200
 116133455.077 7  90493489.53044  22099432.695                    22099435.566
        46.900          27.100
                  81647832.898 6  19693190.945                    19693194.980
                        39.600
                  84696236.983 6  20378244.797                    20378246.125
                        41.500
 124831056.134 5                  23754569.281
        32.000
                                  22660342.836

 114809966.331 7  89462329.19644  21847620.617                    21847624.398
        46.300          27.200
 119265583.415 5                  22695486.180
        35.900
                  84061454.426 6  20204233.758                    20204233.914
                        39.100
 111522715.972 8  86900830.16045  21222067.969                    21222073.191
        49.600          34.700
 117348540.897 7  91440387.25144  22330686.359                    22330692.047
        45.400          29.300
 129424065.733 6 100849936.84042  24628579.586                    24628587.160
        39.000          14.800
 113425629.722 7  88383564.76244  21584179.609                    21584180.719
        42.000          25.300
 18  3 15 13 44 12.0000000  0 14R01R02G12R10R11G14R18G17G01R19G24G32
                                G03G19
                  92694938.656 4  22294934.141                    22294938.203
                        27.200
                  84758596.766 6  20421933.352                    20421934.961
                        41.200
 116130734.055 7  90491369.25644  22098914.805                    22098917.570
        46.800          26.800
                  81649516.075 6  19693597.320                    19693601.047
                        39.700
                  84694410.102 6  20377805.281                    20377806.973
                        41.200
 124828539.922 5                  23754091.336
        33.000
                                  22661175.289

 114810438.164 7  89462696.85544  21847710.453                    21847713.750
        46.300          27.500
 119267494.932 5                  22695850.023
        35.500
                  84062123.213 6  20204394.336                    20204394.563
                        39.300
 111524489.058 8  86902211.78545  21222405.133                    21222410.918
        49.200          35.000
 117347480.531 7  91439560.99044  22330484.008                    22330490.547
        44.700          29.100
 129421180.869 6 100847688.86342  24628030.438                    24628038.359
        38.800          14.800
 113424485.398 6  88382673.07444  21583960.984                    21583963.348
        40.900          24.800
 18  3 15 13 44 13.0000000  0 14R01R02G12R10R11G14R18G17G01R19G24G32
                                G03G19
                  92698314.627 4  22295746.492                    22295750.141
                        27.800
                  84758593.019 6  20421932.273                    20421934.156
                        41.400
 116128013.484 7  90489249.32944  22098397.156                    22098399.590
        46.300          26.600
                  81651199.864 6  19694003.141                    19694006.715
                        40.000
                  84692583.748 6  20377366.047                    20377367.211
                        41.300
 124826023.985 5                  23753612.203
        32.500
                                  22662008.344

 114810910.660 7  89463065.02344  21847800.422                    21847803.590
        46.200          27.800
 119269407.188 5                  22696215.516
        35.800
                  84062792.776 6  20204554.594                    20204555.160
                        39.100
 111526262.770 8  86903593.90245  21222742.938                    21222748.387
        49.700          34.800
 117346420.831 7  91438735.24644  22330282.758                    22330288.563
        44.800          28.700
 129418296.333 6 100845441.15142  24627481.906                    24627489.375
        39.400          15.600
 113423341.813 6  88381781.95844  21583743.063                    21583745.414
        41.000          24.400
 18  3 15 13 44 14.0000000  0 13R01R02G12R10R11G14G17G01R19G24G32G03
                                G19
                  92701690.949 4  22296558.328                    22296562.488
                        27.300
                  84758589.994 6  20421931.938                    20421933.328
                        41.300
 116125293.351 7  90487129.75144  22097879.648                    22097882.016
        46.700          27.300
                  81652884.258 6  19694409.438                    19694413.000
                        39.800
                  84690757.895 6  20376926.578                    20376927.645
                        41.300
 124823508.403 5                  23753133.656
        32.900
 114811383.780 7  89463433.68844  21847890.688                    21847894.063
        46.400          27.300
 119271320.042 6                  22696578.672
        36.100
                  84063463.062 6  20204715.891                    20204716.430
                        39.600
 111528037.100 8  86904976.49745  21223080.438                    21223085.828
        49.000          34.300
 117345361.747 7  91437909.99244  22330081.344                    22330086.734
        44.900          29.000
 129415412.061 6 100843193.67742  24626933.141                    24626940.422
        38.700          15.600
 113422198.979 7  88380891.45444  21583526.484                    21583527.977
        42.200          26.400
 18  3 15 13 44 15.0000000  0 13R01R02G12R10R11G14G17G01R19G24G32G03
                                G19
                  92705067.568 4  22297371.234                    22297373.914
                        29.000
                  84758587.737 6  20421931.078                    20421932.863
                        41.300
 116122573.697 7  90485010.55544  22097362.078                    22097364.480
        45.500          24.400
                  81654569.268 6  19694815.992                    19694819.383
                        39.800
                  84688932.540 6  20376487.391                    20376488.641
                        41.400
 124820993.227 5                  23752654.242
        33.300
 114811857.582 7  89463802.87744  21847980.117                    21847984.059
        46.000          26.800
 119273233.635 6                  22696942.188
        36.700
                  84064134.137 6  20204878.203                    20204877.234
                        39.500
 111529812.107 8  86906359.62045  21223417.859                    21223423.469
        49.700          33.700
 117344303.342 7  91437085.26244  22329880.063                    22329885.250
        45.100          29.200
 129412528.185 6 100840946.55442  24626383.531                    24626391.336
        38.400          14.800
 113421056.813 6  88380001.45644  21583308.977                    21583310.852
        41.700          25.600
 18  3 15 13 44 16.0000000  0 13R01R02G12R10R11G14G17G01R19G24G32G03
                                G19
                  92708444.652 4  22298182.641                    22298186.582
                        29.000
                  84758586.240 6  20421930.328                    20421932.480
                        41.400
 116119854.513 7  90482891.70344  22096844.477                    22096846.973
        46.700          26.900
                  81656254.918 6  19695222.625                    19695225.965
                        39.900
                  84687107.692 6  20376048.438                    20376049.750
                        41.400
 124818478.445 5                  23752176.383
        33.500
 114812332.024 7  89464172.56444  21848071.031                    21848074.418
        45.800          27.400
 119275147.849 6                  22697306.813
        36.200
                  84064805.948 6  20205039.836                    20205039.195
                        38.800
 111531587.766 8  86907743.25145  21223756.359                    21223761.957
        49.200          34.700
 117343245.587 7  91436261.03844  22329678.305                    22329684.129
        45.400          28.900
 129409644.656 6 100838699.66042  24625835.063                    24625843.129
        38.200          15.600
 113419915.419 6  88379112.05444  21583091.422                    21583093.566
        41.800          24.100
 18  3 15 13 44 17.0000000  0 14R01R02G12R10R11G14R18G17G01R19G24G32
                                G03G19
                  92711822.047 4  22298994.445                    22298998.703
                        28.900
                  84758585.436 6  20421930.773                    20421932.313
                        41.400
 116117135.750 7  90480773.18944  22096327.492                    22096329.625
        46.900          27.000
                  81657941.129 6  19695629.109                    19695633.012
                        39.700
                  84685283.313 6  20375609.531                    20375610.504
                        41.500
 124815963.973 5                  23751698.445
        33.600
                                  22665339.766

 114812807.112 7  89464542.75644  21848161.219                    21848164.750
        46.100          27.100
 119277062.768 6                  22697670.148
        36.800
                  84065478.454 6  20205201.156                    20205200.516
                        39.300
 111533364.033 8  86909127.35745  21224093.742                    21224099.379
        49.400          34.200
 117342188.443 7  91435437.29444  22329477.406                    22329483.063
        45.500          28.500
 129406761.454 6 100836452.99942  24625286.039                    24625294.324
        38.400          15.600
 113418774.710 6  88378223.18443  21582874.391                    21582876.730
        41.500          23.900
 18  3 15 13 44 18.0000000  0 14R01R02G12R10R11G14R18G17G01R19G24G32
                                G03G19
                  92715199.792 4  22299806.383                    22299811.008
                        28.600
                  84758585.355 6  20421930.242                    20421932.852
                        41.400
 116114417.439 7  90478655.02344  22095809.633                    22095812.566
        46.800          26.700
                  81659627.986 6  19696036.023                    19696039.746
                        40.000
                  84683459.479 6  20375170.031                    20375171.582
                        41.800
 124813449.955 5                  23751219.164
        33.000
                                  22666172.547

 114813282.806 7  89464913.41344  21848252.008                    21848255.242
        46.000          26.200
 119278978.340 6                  22698034.836
        36.500
                  84066151.728 6  20205363.078                    20205362.504
                        39.600
 111535140.934 8  86910511.95645  21224432.039                    21224437.625
        49.100          34.700
 117341131.974 7  91434614.08044  22329276.406                    22329282.230
        45.500          29.100
 129403878.497 6 100834206.49842  24624737.664                    24624745.727
        38.200          16.300
 113417634.719 6  88377334.89044  21582657.984                    21582659.285
        41.800          24.700
 18  3 15 13 44 19.0000000  0 14R01R02G12R10R11G14R18G17G01R19G24G32
                                G03G19
                  92718577.907 4  22300619.453                    22300623.984
                        29.400
                  84758586.019 6  20421930.703                    20421932.688
                        41.100
 116111699.595 7  90476537.21344  22095292.273                    22095295.273
        46.700          27.400
                  81661315.455 6  19696442.289                    19696447.043
                        39.700
                  84681636.158 6  20374731.336                    20374732.734
                        41.700
 124810936.291 5                  23750740.422
        32.200
                                  22667006.313

 114813759.199 7  89465284.62644  21848342.328                    21848345.879
        45.100          26.700
 119280894.603 5                  22698400.242
        35.800
                  84066825.760 6  20205524.484                    20205524.793
                        39.700
 111536918.461 8  86911897.04045  21224770.383                    21224775.961
        49.300          34.200
 117340076.151 7  91433791.36644  22329075.523                    22329081.051
        45.200          28.600
 129400995.955 6 100831960.37842  24624189.766                    24624197.270
        38.500          15.600
 113416495.457 7  88376447.16744  21582441.852                    21582442.797
        42.600          24.000
 18  3 15 13 44 20.0000000  0 14R01R02G12R10R11G14R18G17G01R19G24G32
                                G03G19
                  92721956.384 4  22301431.758                    22301436.375
                        28.600
                  84758587.405 6  20421931.141                    20421932.559
                        40.800
 116108982.200 7  90474419.77044  22094775.383                    22094778.223
        46.000          26.600
                  81663003.536 6  19696850.156                    19696853.734
                        39.300
                  84679813.338 6  20374292.906                    20374294.188
                        41.400
 124808423.112 5                  23750261.570
        32.500
                                  22667840.508

 114814236.226 7  89465656.32544  21848433.297                    21848436.551
        45.200          26.300
 119282811.508 5                  22698764.688
        35.800
                  84067500.538 6  20205686.109                    20205686.449
                        39.300
 111538696.650 8  86913282.64345  21225108.648                    21225114.563
        49.100          34.200
 117339020.949 7  91432969.14544  22328874.430                    22328880.324
        45.300          28.700
 129398113.746 6 100829714.47142  24623641.484                    24623649.219
        38.300          14.800
 113415356.929 6  88375559.99943  21582224.477                    21582226.438
        41.100          23.600
 18  3 15 13 44 21.0000000  0 14R01R02G12R10R11G14R18G17G01R19G24G32
                                G03G19
                  92725335.199 4  22302243.758                    22302249.266
                        28.000
                  84758589.566 6  20421932.008                    20421933.430
                        41.100
 116106265.261 7  90472302.68444  22094258.430                    22094260.926
        46.000          26.400
                  81664692.228 6  19697257.422                    19697261.379
                        39.400
                  84677991.022 6  20373854.766                    20373856.289
                        41.100
 124805910.171 5                  23749784.086
        32.300
                                  22668672.805

 114814713.931 7  89466028.55444  21848524.117                    21848527.719
        45.400          26.500
 119284729.191 6                  22699129.633
        36.300
                  84068176.068 6  20205849.531                    20205849.117
                        39.300
 111540475.467 8  86914668.73245  21225447.242                    21225452.652
        49.200          34.300
 117337966.376 7  91432147.40144  22328673.992                    22328679.656
        45.500          28.900
 129395231.862 6 100827468.84242  24623092.289                    24623100.375
        38.300          13.900
 113414219.081 6  88374673.34943  21582007.117                    21582009.684
        40.800          22.800
 18  3 15 13 44 22.0000000  0 14R01R02G12R10R11G14R18G17G01R19G24G32
                                G03G19
                  92728714.342 4  22303056.984                    22303061.965
                        26.000
                  84758592.436 6  20421932.523                    20421934.348
                        41.200
 116103548.739 7  90470185.91344  22093741.617                    22093744.719
        45.900          25.900
                  81666381.505 6  19697664.500                    19697668.160
                        39.900
                  84676169.141 6  20373416.313                    20373417.594
                        41.500
 124803397.707 5                  23749306.188
        33.000
                                  22669507.039

 114815192.210 7  89466401.22944  21848615.641                    21848618.789
        45.900          27.200
 119286647.429 6                  22699495.070
        37.000
                  84068852.300 6  20206011.703                    20206011.570
                        39.900
 111542254.931 8  86916055.32045  21225785.719                    21225791.754
        48.800          34.200
 117336912.418 7  91431326.12044  22328473.391                    22328479.316
        45.500          28.700
 129392350.297 6 100825223.43742  24622544.211                    24622552.281
        38.300          13.900
 113413081.934 6  88373787.26443  21581791.969                    21581793.152
        41.300          22.800
 18  3 15 13 44 23.0000000  0 14R01R02G12R10R11G14R18G17G01R19G24G32
                                G03G19
                  92732093.806 4  22303870.617                    22303874.836
                        26.600
                  84758596.027 6  20421933.273                    20421934.738
                        40.900
 116100832.656 7  90468069.49044  22093225.023                    22093227.594
        46.700          27.200
                  81668071.330 6  19698072.781                    19698075.910
                        39.400
                  84674347.742 6  20372977.414                    20372979.301
                        41.400
 124800885.462 5                  23748827.797
        32.400
                                  22670339.695

 114815671.151 7  89466774.43344  21848706.445                    21848709.930
        46.000          27.400
 119288566.326 6                  22699860.102
        36.400
                  84069529.297 6  20206174.461                    20206173.832
                        39.800
 111544034.938 8  86917442.34045  21226125.008                    21226130.207
        49.500          34.400
 117335859.066 7  91430505.32144  22328272.906                    22328278.770
        45.400          29.600
 129389468.996 6 100822978.28442  24621995.500                    24622003.625
        37.300          13.900
 113411945.499 6  88372901.74343  21581575.523                    21581577.086
        40.800          22.300
 18  3 15 13 44 24.0000000  0 14R01R02G12R10R11G14R18G17G01R19G24G32
                                G03G19
                  92735473.606 4  22304684.398                    22304687.293
                        27.500
                  84758600.356 6  20421934.664                    20421935.590
                        40.900
 116098116.975 7  90465953.36544  22092707.883                    22092710.844
        47.100          27.100
                  81669761.770 6  19698480.008                    19698484.090
                        39.700
                  84672526.843 6  20372539.766                    20372541.156
                        41.400
 124798373.546 5                  23748348.422
        33.000
                                  22671172.539

 114816150.664 7  89467148.07344  21848797.602                    21848800.660
        45.800          26.300
 119290485.941 6                  22700224.867
        37.200
                  84070207.025 6  20206337.688                    20206336.723
                        39.400
 111545815.609 8  86918829.88245  21226463.047                    21226469.176
        48.700          34.400
 117334806.342 7  91429685.01344  22328072.578                    22328078.555
        45.600          29.600
 129386587.975 6 100820733.43642  24621448.344                    24621456.449
        37.100          13.900
 113410809.713 6  88372016.70844  21581359.031                    21581361.094
        40.800          25.000
 18  3 15 13 44 25.0000000  0 14R01R02G12R10R11G14R18G17G01R19G24G32
                                G03G19
                  92738853.745 4  22305496.445                    22305500.320
                        27.800
                  84758605.379 6  20421935.281                    20421937.117
                        40.900
 116095401.705 7  90463837.56344  22092191.047                    22092193.930
        46.800          27.500
                  81671452.780 6  19698887.500                    19698891.879
                        39.400
                  84670706.436 6  20372101.523                    20372103.445
                        41.100
 124795862.072 5                  23747871.547
        33.100
                                  22672006.109

 114816630.801 7  89467522.18944  21848888.828                    21848891.914
        45.900          27.300
 119292406.148 6                  22700591.141
        36.400
                  84070885.439 6  20206500.336                    20206500.301
                        39.600
 111547596.876 8  86920217.87945  21226802.492                    21226808.406
        48.500          34.000
 117333754.221 7  91428865.18144  22327872.063                    22327877.977
        45.600          29.300
 129383707.275 6 100818488.75642  24620899.703                    24620907.441
        37.300          14.800
 113409674.628 6  88371132.20243  21581143.164                    21581145.082
        41.100          23.200
 18  3 15 13 44 26.0000000  0 14R01R02G12R10R11G14R18G17G01R19G24G32
                                G03G19
                  92742234.276 4  22306308.914                    22306313.695
                        26.100
                  84758611.109 6  20421936.664                    20421938.469
                        40.900
 116092686.902 7  90461722.13744  22091674.484                    22091677.125
        46.800          27.300
                  81673144.405 6  19699296.250                    19699300.523
                        39.800
                  84668886.513 6  20371664.125                    20371665.211
                        41.300
 124793350.945 5                  23747393.906
        33.400
                                  22672839.250

 114817111.619 7  89467896.85344  21848980.445                    21848984.086
        45.800          27.000
 119294327.048 6                  22700956.359
        36.800
                  84071564.568 6  20206663.297                    20206663.191
                        39.300
 111549378.770 8  86921606.36645  21227141.820                    21227147.340
        48.800          34.200
 117332702.754 7  91428045.86744  22327672.398                    22327677.691
        45.500          29.700
 129380826.956 6 100816244.34142  24620350.922                    24620359.242
        37.000          14.800
 113408540.266 6  88370248.28444  21580927.328                    21580928.988
        41.600          24.700
 18  3 15 13 44 27.0000000  0 14R01R02G12R10R11G14R18G17G01R19G24G32
                                G03G19
                  92745615.175 4  22307122.563                    22307126.699
                        27.200
                  84758617.577 6  20421938.469                    20421940.043
                        41.300
 116089972.574 7  90459607.08444  22091158.133                    22091161.008
        46.700          26.700
                  81674836.651 6  19699703.961                    19699707.941
                        39.800
                  84667067.097 6  20371226.000                    20371227.348
                        41.500
 124790840.302 5                  23746915.523
        33.300
                                  22673673.984

 114817593.063 7  89468271.99244  21849071.984                    21849075.715
        45.700          26.400
 119296248.657 6                  22701321.586
        37.200
                  84072244.502 6  20206827.344                    20206827.199
                        39.400
 111551161.325 8  86922995.36845  21227480.938                    21227486.355
        48.700          33.800
 117331651.940 7  91427227.05244  22327472.492                    22327478.078
        45.900          29.300
 129377946.896 6 100814000.13142  24619802.922                    24619810.734
        37.000          14.800
 113407406.641 7  88369364.93943  21580711.469                    21580713.473
        42.100          23.200
 18  3 15 13 44 28.0000000  0 14R01R02G12R10R11G14R18G17G01R19G24G32
                                G03G19
                  92748996.423 4  22307935.109                    22307940.273
                        26.900
                  84758624.768 6  20421940.039                    20421942.352
                        41.200
 116087258.698 7  90457492.37644  22090641.797                    22090644.246
        46.600          27.000
                  81676529.515 6  19700112.563                    19700116.691
                        39.600
                  84665248.194 6  20370788.953                    20370790.496
                        41.400
 124788329.913 5                  23746438.141
        33.100
                                  22674508.305

 114818075.178 7  89468647.65544  21849163.914                    21849167.234
        45.900          27.400
 119298170.896 6                  22701688.234
        37.600
                  84072925.129 6  20206990.477                    20206990.551
                        39.000
 111552944.499 8  86924384.86145  21227819.711                    21227825.875
        48.300          34.600
 117330601.768 7  91426408.74944  22327272.570                    22327278.488
        45.800          29.100
 129375067.202 6 100811756.21142  24619255.055                    24619263.262
        36.300          14.800
 113406273.739 6  88368482.15444  21580495.461                    21580497.934
        41.700          24.300
 18  3 15 13 44 29.0000000  0 14R01R02G12R10R11G14R18G17G01R19G24G32
                                G03G19
                  92752378.087 4  22308747.648                    22308753.168
                        28.200
                  84758632.710 6  20421942.000                    20421943.730
                        41.200
 116084545.284 7  90455378.03244  22090125.328                    22090128.063
        46.000          26.800
                  81678223.012 6  19700520.734                    19700525.184
                        39.700
                  84663429.798 6  20370351.078                    20370352.445
                        41.200
 124785819.945 5                  23745960.188
        33.400
                                  22675342.195

 114818557.942 7  89469023.83244  21849255.688                    21849258.996
        45.600          26.700
 119300093.889 6                  22702053.078
        36.900
                  84073606.566 6  20207154.211                    20207153.945
                        39.100
 111554728.344 8  86925774.86945  21228159.375                    21228165.176
        48.500          34.500
 117329552.280 7  91425590.97644  22327072.938                    22327078.313
        45.400          28.900
 129372187.858 6 100809512.58142  24618707.203                    24618715.172
        37.100          14.800
 113405141.560 6  88367599.94244  21580280.453                    21580282.297
        41.600          25.400
 18  3 15 13 44 30.0000000  0 14R01R02G12R10R11G14R18G17G01R19G24G32
                                G03G19
                  92755760.036 4  22309562.844                    22309566.629
                        28.400
                  84758641.406 6  20421944.719                    20421946.023
                        41.000
 116081832.300 7  90453264.03144  22089609.695                    22089611.730
        46.400          27.000
                  81679917.111 6  19700929.977                    19700933.422
                        39.400
                  84661611.902 6  20369913.773                    20369915.152
                        41.300
 124783310.375 5                  23745483.211
        34.100
                                  22676176.703

 114819041.360 7  89469400.50644  21849347.797                    21849351.332
        45.700          27.500
 119302017.478 6                  22702419.492
        36.500
                  84074288.691 6  20207318.781                    20207318.387
                        39.200
 111556512.806 8  86927165.36045  21228499.281                    21228505.145
        48.300          33.600
 117328503.398 7  91424773.66544  22326873.047                    22326879.223
        45.300          29.200
 129369308.841 6 100807269.20542  24618159.617                    24618167.563
        36.800          14.800
 113404010.119 6  88366718.30643  21580064.211                    21580066.988
        41.300          22.800
 18  3 15 13 44 31.0000000  0 14R01R02G12R10R11G14R18G17G01R19G24G32
                                G03G19
                  92759142.398 4  22310375.672                    22310380.691
                        29.500
                  84758650.898 6  20421946.023                    20421948.445
                        41.200
 116079119.860 7  90451150.44744  22089093.039                    22089095.684
        46.000          26.600
                  81681611.802 6  19701338.297                    19701342.406
                        39.500
                  84659794.534 6  20369476.352                    20369477.813
                        41.100
 124780801.230 5                  23745005.766
        34.000
                                  22677009.617

 114819525.436 7  89469777.71144  21849439.875                    21849443.176
        46.100          26.800
 119303941.836 6                  22702785.281
        36.900
                  84074971.591 6  20207482.375                    20207482.969
                        39.300
 111558297.889 8  86928556.32245  21228838.914                    21228844.570
        49.300          34.900
 117327455.193 7  91423956.88544  22326673.414                    22326679.465
        45.600          29.100
 129366430.176 6 100805026.01842  24617611.844                    24617619.742
        37.000          14.800
 113402879.393 6  88365837.23443  21579850.031                    21579852.047
        41.100          22.800
 18  3 15 13 44 32.0000000  0 14R01R02G12R10R11G14R18G17G01R19G24G32
                                G03G19
                  92762525.114 4  22311188.758                    22311193.949
                        27.500
                  84758661.174 6  20421948.742                    20421950.324
                        41.100
 116076407.873 7  90449037.20644  22088576.641                    22088578.977
        46.300          26.800
                  81683307.123 6  19701746.859                    19701750.969
                        39.600
                  84657977.696 6  20369038.867                    20369040.801
                        41.600
 124778292.432 5                  23744528.375
        33.100
                                  22677843.922

 114820010.196 7  89470155.44444  21849532.500                    21849535.191
        46.000          27.000
 119305866.881 6                  22703152.320
        36.200
                  84075655.228 6  20207647.227                    20207646.770
                        38.600
 111560083.619 8  86929947.79845  21229178.344                    21229184.605
        49.200          35.100
 117326407.636 7  91423140.60844  22326474.477                    22326480.352
        45.500          29.400
 129363551.846 6 100802783.12542  24617063.719                    24617071.934
        37.400          13.900
 113401749.425 6  88364956.75743  21579635.188                    21579636.672
        41.300          23.000
 18  3 15 13 44 33.0000000  0 14R01R02G12R10R11G14R18G17G01R19G24G32
                                G03G19
                  92765908.152 4  22312002.086                    22312007.797
                        28.800
                  84758672.186 6  20421951.141                    20421952.914
                        41.200
 116073696.246 7  90446924.24044  22088060.844                    22088063.254
        46.900          27.600
                  81685003.046 6  19702156.422                    19702160.203
                        40.000
                  84656161.356 6  20368602.320                    20368603.902
                        41.400
 124775783.968 5                  23744051.977
        33.900
                                  22678678.492

 114820495.589 7  89470533.66244  21849624.773                    21849627.672
        45.600          26.800
 119307792.514 6                  22703518.680
        36.500
                  84076339.653 6  20207810.742                    20207811.320
                        39.200
 111561869.989 8  86931339.77245  21229518.906                    21229524.359
        49.300          34.600
 117325360.727 7  91422324.83344  22326274.727                    22326281.031
        45.800          29.400
 129360673.844 6 100800540.49442  24616516.008                    24616524.000
        37.300          13.900
 113400620.101 6  88364076.76843  21579419.906                    21579421.570
        40.900          22.500
 18  3 15 13 44 34.0000000  0 14R01R02G12R10R11G14R18G17G01R19G24G32
                                G03G19
                  92769291.574 4  22312815.305                    22312820.973
                        27.400
                  84758683.892 6  20421953.664                    20421956.316
                        41.000
 116070985.103 7  90444811.65544  22087544.609                    22087547.496
        45.800          25.800
                  81686699.561 6  19702565.477                    19702569.488
                        39.900
                  84654345.442 6  20368165.484                    20368166.590
                        41.500
 124773276.026 5                  23743574.563
        33.700
                  94161496.80913  22679512.320                    22679513.582
                        22.500
 114820981.603 7  89470912.35044  21849716.859                    21849720.453
        46.000          27.100
 119309718.896 6                  22703885.055
        37.100
                  84077024.811 6  20207976.719                    20207976.250
                        39.500
 111563656.957 8  86932732.21745  21229858.750                    21229864.344
        49.300          34.900
 117324314.415 7  91421509.52744  22326075.938                    22326081.633
        45.400          29.100
 129357796.132 6 100798298.15142  24615968.602                    24615976.555
        37.600          13.900
 113399491.533 6  88363197.37243  21579205.438                    21579206.973
        41.200          22.800
 18  3 15 13 44 35.0000000  0 15R01R02G12R09R10R11G14R18G17G01R19G24
                                G32G03G19
                  92772675.364 4  22313630.289                    22313634.980
                        28.600
                  84758696.335 6  20421957.086                    20421959.227
                        41.200
 116068274.443 7  90442699.45144  22087029.086                    22087031.531
        45.500          25.200
                                  23315524.953

                  81688396.693 6  19702975.016                    19702979.000
                        39.600
                  84652530.063 6  20367728.367                    20367729.926
                        41.500
 124770768.397 5                  23743096.805
        34.400
                  94164960.83414  22680346.453                    22680347.883
                        25.500
 114821468.306 7  89471291.58844  21849809.719                    21849813.148
        45.500          26.500
 119311645.913 6                  22704252.672
        36.800
                  84077710.697 6  20208140.539                    20208140.395
                        39.400
 111565444.593 8  86934125.18345  21230198.781                    21230204.668
        49.100          34.800
 117323268.774 7  91420694.75344  22325877.023                    22325882.773
        45.600          29.600
 129354918.825 6 100796056.08942  24615420.617                    24615428.895
        37.500          14.800
 113398363.678 6  88362318.52143  21578990.586                    21578992.641
        41.400          23.200
 18  3 15 13 44 36.0000000  0 15R01R02G12R09R10R11G14R18G17G01R19G24
                                G32G03G19
                  92776059.501 4  22314443.414                    22314449.328
                        28.000
                  84758709.464 6  20421959.758                    20421962.020
                        41.000
 116065564.221 7  90440587.60044  22086513.250                    22086515.828
        44.900          24.600
                                  23316431.617

                  81690094.395 6  19703384.094                    19703388.785
                        39.600
                  84650715.185 6  20367292.375                    20367293.688
                        41.600
 124768261.134 5                  23742619.063
        33.900
                  94168425.116 4  22681181.648                    22681182.891
                        24.600
 114821955.622 7  89471671.31244  21849902.414                    21849905.836
        46.500          28.000
 119313573.627 6                  22704618.617
        36.100
                  84078397.292 6  20208305.750                    20208305.352
                        39.600
 111567232.842 8  86935518.62545  21230538.844                    21230544.758
        49.100          34.300
 117322223.756 7  91419880.45644  22325678.328                    22325683.723
        45.400          29.900
 129352041.787 6 100793814.26542  24614874.000                    24614881.457
        38.100          13.900
 113397236.526 6  88361440.19144  21578776.234                    21578777.957
        41.600          25.400
 18  3 15 13 44 37.0000000  0 15R01R02G12R09R10R11G14R18G17G01R19G24
                                G32G03G19
                  92779444.015 4  22315256.789                    22315263.285
                        28.800
                  84758723.367 6  20421963.688                    20421965.887
                        40.900
 116062854.450 7  90438476.09744  22085997.758                    22086000.227
        45.400          26.700
                                  23317339.984

                  81691792.754 6  19703794.094                    19703797.355
                        39.800
                  84648900.828 6  20366855.352                    20366857.035
                        41.200
 124765754.234 5                  23742142.367
        33.600
                  94171889.772 3  22682015.609                    22682017.113
                        22.700
 114822443.614 7  89472051.55544  21849995.180                    21849998.879
        45.800          28.600
 119315502.002 6                  22704984.922
        37.000
                  84079084.697 6  20208470.586                    20208470.750
                        39.600
 111569021.716 8  86936912.54545  21230879.805                    21230884.859
        49.500          34.700
 117321179.409 7  91419066.68444  22325479.359                    22325485.285
        45.200          29.600
 129349165.099 6 100791572.71642  24614326.664                    24614334.254
        38.100          13.900
 113396110.129 7  88360562.47344  21578562.039                    21578563.477
        42.000          25.100
 18  3 15 13 44 38.0000000  0 15R01R02G12R09R10R11G14R18G17G01R19G24
                                G32G03G19
                  92782828.845 4  22316070.734                    22316076.992
                        27.800
                  84758738.037 6  20421967.266                    20421969.227
                        40.900
 116060145.139 7  90436364.94944  22085482.078                    22085484.672
        44.900          25.700
                                  23318249.000

                  81693491.689 6  19704204.094                    19704207.672
                        39.400
                  84647086.954 6  20366419.391                    20366420.363
                        41.400
 124763247.816 5                  23741665.055
        33.200
                  94175354.717 3  22682849.602                    22682851.652
                        22.800
 114822932.250 7  89472432.31344  21850088.328                    21850091.672
        46.000          28.600
 119317431.075 6                  22705352.336
        36.100
                  84079772.820 6  20208636.953                    20208636.094
                        39.300
 111570811.245 8  86938306.97045  21231220.484                    21231225.254
        48.800          33.300
 117320135.698 7  91418253.39944  22325280.820                    22325286.816
        45.200          29.700
 129346288.769 6 100789331.46642  24613779.305                    24613786.590
        38.100          14.800
 113394984.446 6  88359685.31244  21578347.828                    21578349.227
        40.800          24.400
 18  3 15 13 44 39.0000000  0 15R01R02G12R09R10R11G14R18G17G01R19G24
                                G32G03G19
                  92786214.076 4  22316886.016                    22316891.727
                        28.800
                  84758753.454 6  20421971.133                    20421973.609
                        40.900
 116057436.329 7  90434254.19044  22084966.984                    22084969.422
        45.700          25.700
                                  23319156.086

                  81695191.281 6  19704613.234                    19704618.035
                        39.700
                  84645273.618 6  20365982.727                    20365984.273
                        41.500
 124760741.801 5                  23741188.805
        33.200
                  94178820.034 3  22683684.547                    22683685.848
                        22.100
 114823421.555 7  89472813.58544  21850181.164                    21850184.770
        45.900          27.900
 119319360.815 6                  22705718.922
        36.000
                  84080461.726 6  20208801.883                    20208801.684
                        39.500
 111572601.416 8  86939701.91845  21231560.102                    21231566.508
        48.500          33.200
 117319092.648 7  91417440.64044  22325082.188                    22325088.023
        45.200          29.300
 129343412.790 6 100787090.42542  24613231.563                    24613239.188
        37.900          14.800
 113393859.486 6  88358808.71844  21578133.039                    21578135.180
        40.300          26.400
 18  3 15 13 44 40.0000000  0 14R01R02G12R10R11G14R18G17G01R19G24G32
                                G03G19
                  92789599.632 4  22317701.828                    22317706.023
                        28.700
                  84758769.600 6  20421974.672                    20421976.754
                        41.000
 116054727.956 7  90432143.76644  22084451.094                    22084453.637
        45.500          25.400
                  81696891.459 6  19705023.758                    19705027.531
                        39.800
                  84643460.773 6  20365546.398                    20365547.715
                        41.400
 124758235.990 5                  23740713.086
        32.800
                  94182285.672 3  22684520.281                    22684521.070
                        21.900
 114823911.480 7  89473195.33844  21850274.563                    21850278.055
        46.400          27.900
 119321291.254 5                  22706086.250
        35.300
                  84081151.359 6  20208967.688                    20208968.133
                        39.400
 111574392.250 8  86941097.38045  21231901.523                    21231906.945
        48.100          33.400
 117318050.231 7  91416628.38144  22324883.633                    22324889.621
        45.600          29.000
 129340537.147 6 100784849.65342  24612684.289                    24612691.953
        37.900          13.900
 113392735.197 6  88357932.66044  21577919.563                    21577921.539
        40.700          25.100
 18  3 15 13 44 41.0000000  0 14R01R02G12R10R11G14R18G17G01R19G24G32
                                G03G19
                  92792985.553 4  22318516.234                    22318520.129
                        28.700
                  84758786.482 6  20421979.328                    20421980.895
                        41.000
 116052020.054 7  90430033.71144  22083936.078                    22083938.219
        45.400          25.600
                  81698592.274 6  19705434.281                    19705437.867
                        40.100
                  84641648.473 6  20365111.063                    20365112.086
                        41.600
 124755730.659 5                  23740236.438
        31.800
                                  22685355.273

 114824402.120 7  89473577.64644  21850368.281                    21850371.215
        46.000          27.800
 119323222.383 5                  22706453.180
        35.000
                  84081841.768 6  20209133.383                    20209133.820
                        39.100
 111576183.686 8  86942493.29545  21232242.492                    21232247.633
        48.600          33.600
 117317008.510 7  91415816.65944  22324686.188                    22324691.664
        45.800          29.100
 129337661.827 6 100782609.13142  24612137.141                    24612144.730
        38.200          14.800
 113391611.713 6  88357057.22244  21577706.563                    21577707.680
        40.800          24.500
 18  3 15 13 44 42.0000000  0 13R01R02G12R10R11G14G17G01R19G24G32G03
                                G19
                  92796371.814 4  22319329.969                    22319335.094
                        28.800
                  84758804.082 6  20421983.063                    20421984.945
                        40.900
 116049312.585 7  90427923.99044  22083420.477                    22083423.230
        45.600          25.800
                  81700293.698 6  19705844.188                    19705848.219
                        39.400
                  84639836.626 6  20364674.555                    20364676.055
                        41.700
 124753225.646 5                  23739759.172
        31.800
 114824893.359 7  89473960.42844  21850461.664                    21850465.039
        46.000          28.200
 119325154.190 5                  22706821.117
        35.400
                  84082532.893 6  20209299.914                    20209299.789
                        39.200
 111577975.742 8  86943889.70345  21232583.852                    21232588.805
        49.100          33.600
 117315967.381 7  91415005.39744  22324487.508                    22324493.430
        45.600          28.900
 129334786.836 6 100780368.83142  24611589.773                    24611597.766
        38.100          15.600
 113390488.878 6  88356182.29144  21577492.219                    21577494.105
        40.900          26.300
 18  3 15 13 44 43.0000000  0 13R01R02G12R10R11G14G17G01R19G24G32G03
                                G19
                  92799758.434 4  22320142.969                    22320148.918
                        26.000
                  84758822.411 6  20421986.969                    20421989.188
                        41.000
 116046605.575 7  90425814.62244  22082905.469                    22082907.996
        45.900          26.700
                  81701995.710 6  19706254.500                    19706258.195
                        39.200
                  84638025.301 6  20364238.414                    20364239.945
                        41.300
 124750721.068 5                  23739281.820
        32.000
 114825385.249 7  89474343.72644  21850554.742                    21850558.668
        45.800          28.000
 119327086.631 6                  22707189.695
        37.200
                  84083224.748 6  20209466.023                    20209465.969
                        39.600
 111579768.445 8  86945286.61045  21232923.984                    21232929.910
        49.200          34.000
 117314926.910 7  91414194.65844  22324289.078                    22324295.273
        45.800          28.600
 129331912.154 6 100778128.83342  24611043.859                    24611051.039
        38.400          14.800
 113389366.776 6  88355307.93044  21577277.695                    21577280.648
        40.900          25.600
 18  3 15 13 44 44.0000000  0 13R01R02G12R10R11G14G17G01R19G24G32G03
                                G19
                  92803145.424 4  22320958.508                    22320964.184
                        26.800
                  84758841.522 6  20421992.391                    20421994.207
                        41.000
 116043899.029 7  90423705.62744  22082390.664                    22082393.266
        45.500          24.200
                  81703698.342 6  19706665.359                    19706669.313
                        39.600
                  84636214.489 6  20363803.180                    20363804.922
                        41.500
 124748216.862 5                  23738806.188
        31.900
 114825877.804 7  89474727.51944  21850648.930                    21850652.223
        45.800          28.100
 119329019.818 6                  22707558.172
        38.100
                  84083917.377 6  20209633.039                    20209632.594
                        38.900
 111581561.796 8  86946684.03045  21233265.422                    21233271.215
        49.300          33.200
 117313887.059 7  91413384.39544  22324091.438                    22324097.289
        45.900          29.400
 129329037.840 6 100775889.12242  24610496.836                    24610504.281
        38.100          15.600
 113388245.423 6  88354434.13844  21577065.383                    21577067.371
        40.600          24.600
 18  3 15 13 44 45.0000000  0 14R01R02G12R10R11G14R18G17G01R19G24G32
                                G03G19
                  92806532.771 4  22321772.797                    22321778.641
                        26.900
                  84758861.356 6  20421996.422                    20421998.820
                        40.900
 116041192.878 7  90421596.93143  22081875.953                    22081878.152
        45.700          22.800
                  81705401.531 6  19707076.195                    19707079.957
                        39.600
                  84634404.125 6  20363367.352                    20363368.875
                        41.400
 124745713.56615                  23738329.000
        32.900
                                  22688693.766

 114826370.961 7  89475111.77844  21850742.602                    21850746.137
        45.800          26.700
 119330953.583 6                  22707925.898
        38.000
                  84084610.692 6  20209799.344                    20209799.113
                        39.400
 111583355.708 8  86948081.87745  21233606.883                    21233612.789
        49.000          33.600
 117312847.829 7  91412574.60344  22323893.688                    22323899.398
        46.200          28.900
 129326163.819 6 100773649.66842  24609949.430                    24609956.902
        38.400          14.800
 113387124.710 6  88353560.85243  21576852.211                    21576853.871
        39.900          23.600
 18  3 15 13 44 46.0000000  0 14R01R02G12R10R11G14R18G17G01R19G24G32
                                G03G19
                  92809920.477 4  22322587.297                    22322593.391
                        26.300
                  84758881.951 6  20422001.391                    20422003.887
                        41.100
 116038487.248 7  90419488.64644  22081360.984                    22081362.984
        46.000          27.100
                  81707105.363 6  19707487.797                    19707491.324
                        39.700
                  84632594.306 6  20362932.539                    20362933.078
                        41.700
 124743210.15915                  23737853.445
        32.200
                                  22689528.336

 114826864.796 7  89475496.57544  21850836.508                    21850840.340
        45.300          27.300
 119332888.047 6                  22708294.047
        38.600
                  84085304.760 6  20209966.352                    20209965.605
                        39.600
 111585150.303 8  86949480.26645  21233948.219                    21233954.551
        48.500          33.000
 117311809.296 7  91411765.35444  22323696.438                    22323701.891
        46.400          29.800
 129323290.139 6 100771410.45642  24609402.906                    24609410.039
        38.700          15.600
 113386004.760 6  88352688.16444  21576639.016                    21576640.766
        41.800          24.700
 18  3 15 13 44 47.0000000  0 14R01R02G12R10R11G14R18G17G01R19G24G32
                                G03G19
                  92813308.536 4  22323402.359                    22323408.848
                        26.200
                  84758903.290 6  20422007.039                    20422009.191
                        41.200
 116035782.069 7  90417380.69944  22080845.984                    22080848.605
        45.800          27.800
                  81708809.789 6  19707898.203                    19707902.184
                        39.700
                  84630784.978 6  20362496.180                    20362498.586
                        41.400
 124740706.635 5                  23737376.570
        32.400
                                  22690361.422

 114827359.302 7  89475881.90344  21850930.906                    21850934.328
        45.400          26.400
 119334823.214 6                  22708662.102
        38.100
                  84085999.616 6  20210132.508                    20210133.066
                        39.500
 111586945.548 8  86950879.15545  21234289.977                    21234295.523
        48.500          33.000
 117310771.407 7  91410956.61644  22323498.719                    22323504.563
        45.800          29.700
 129320416.848 6 100769171.51642  24608855.805                    24608863.355
        38.200          17.400
 113384885.565 6  88351816.06944  21576426.070                    21576427.602
        41.800          24.600
 18  3 15 13 44 48.0000000  0 15R01R02G12R09R10R11G14R18G17G01R19G24
                                G32G03G19
                  92816696.978 4  22324217.500                    22324223.043
                        27.200
                  84758925.329 6  20422012.250                    20422014.320
                        41.000
 116033077.306 7  90415273.08544  22080330.891                    22080333.461
        46.700          27.100
                  96885228.01914  23327325.281                    23327326.941
                        26.700
                  81710514.813 6  19708309.328                    19708313.277
                        39.700
                  84628976.155 6  20362061.508                    20362062.773
                        41.200
 124738203.927 5                  23736899.977
        33.000
                                  22691196.539

 114827854.456 7  89476267.73444  21851024.836                    21851028.473
        45.600          27.300
 119336759.052 6                  22709028.836
        36.700
                  84086695.196 6  20210299.711                    20210299.965
                        39.400
 111588741.425 8  86952278.54345  21234631.742                    21234637.617
        48.500          33.800
 117309734.127 7  91410148.36644  22323301.039                    22323307.129
        46.100          28.900
 129317543.815 6 100766932.77342  24608309.000                    24608316.215
        38.200          14.800
 113383767.043 6  88350944.49043  21576213.336                    21576214.652
        40.400          22.600
 18  3 15 13 44 49.0000000  0 15R01R02G12R09R10R11G14R18G17G01R19G24
                                G32G03G19
                  92820085.782 4  22325034.016                    22325037.996
                        28.900
                  84758948.106 6  20422017.500                    20422019.688
                        40.700
 116030373.032 7  90413165.85644  22079816.172                    22079818.969
        45.400          25.500
                  96888998.96614  23328233.000                    23328234.523
                        25.100
                  81712220.474 6  19708720.930                    19708724.941
                        39.400
                  84627167.863 6  20361625.820                    20361627.891
                        41.200
 124735701.688 5                  23736423.820
        32.300
                                  22692034.047

 114828350.235 7  89476654.05844  21851118.938                    21851122.582
        45.900          26.000
 119338695.538 6                  22709397.828
        36.500
                  84087391.589 6  20210466.641                    20210467.191
                        39.000
 111590538.107 7  86953678.57144  21234973.227                    21234979.145
        45.400          27.300
 117308697.548 7  91409340.64944  22323103.523                    22323109.723
        46.000          28.200
 129314671.168 6 100764694.33742  24607762.328                    24607769.723
        37.800          13.900
 113382649.252 6  88350073.48544  21575999.305                    21576002.613
        40.400          25.100
 18  3 15 13 44 50.0000000  0 15R01R02G12R09R10R11G14R18G17G01R19G24
                                G32G03G19
                  92823474.921 4  22325848.305                    22325853.516
                        28.000
                  84758971.644 6  20422023.336                    20422025.402
                        41.100
 116027669.267 7  90411059.02444  22079302.469                    22079304.625
        45.800          25.800
                  96892770.180 4  23329141.648                    23329142.398
                        26.000
                  81713926.778 6  19709132.477                    19709135.906
                        39.800
                  84625360.114 6  20361191.789                    20361192.883
                        41.500
 124733199.856 5                  23735948.828
        32.400
                                  22692869.797

 114828846.752 7  89477040.95644  21851213.945                    21851217.129
        46.200          28.100
 119340632.762 6                  22709766.883
        36.900
                  84088088.695 6  20210634.836                    20210635.059
                        39.300
 111592335.334 7  86955079.02545  21235316.609                    21235321.727
        47.100          30.500
 117307661.611 7  91408533.43844  22322906.961                    22322912.832
        45.500          29.100
 129311798.910 6 100762456.20942  24607216.063                    24607223.137
        37.400          14.800
 113381532.299 6  88349203.13243  21575787.992                    21575789.898
        40.600          22.900
 18  3 15 13 44 51.0000000  0 15R01R02G12R09R10R11G14R18G17G01R19G24
                                G32G03G19
                  92826864.338 4  22326664.203                    22326668.371
                        28.200
                  84758995.896 6  20422029.172                    20422031.387
                        40.900
 116024965.867 7  90408952.50744  22078787.695                    22078790.238
        46.600          26.300
                  96896541.389 4  23330050.648                    23330050.527
                        27.400
                  81715633.618 6  19709544.602                    19709548.191
                        39.300
                  84623552.813 6  20360756.539                    20360757.965
                        41.400
 124730698.325 5                  23735472.883
        33.000
                                  22693705.516

 114829343.827 7  89477428.29244  21851308.297                    21851312.297
        46.400          27.200
 119342570.602 6                  22710136.563
        36.600
                  84088786.511 6  20210803.156                    20210802.945
                        39.400
 111594133.052 7  86956479.85844  21235658.008                    21235663.430
        46.200          29.400
 117306626.274 7  91407726.68644  22322709.789                    22322716.031
        45.900          28.600
 129308926.958 6 100760218.33142  24606668.680                    24606676.555
        37.600          14.800
 113380415.867 6  88348333.17343  21575575.898                    21575577.402
        41.100          22.800
 18  3 15 13 44 52.0000000  0 15R01R02G12R09R10R11G14R18G17G01R19G24
                                G32G03G19
                                  22327476.945

                  84759020.886 6  20422034.727                    20422037.652
                        40.900
 116022262.945 7  90406846.34044  22078273.398                    22078275.371
        47.100          27.200
                  96900312.739 4  23330959.367                    23330957.926
                        28.500
                  81717341.085 6  19709956.273                    19709959.379
                        39.700
                  84621745.966 6  20360321.844                    20360323.363
                        41.500
 124728197.268 5                  23734995.836
        32.400
                                  22694540.539

 114829841.546 7  89477816.12944  21851402.578                    21851406.598
        46.000          27.900
 119344509.129 5                  22710504.563
        35.700
                  84089485.041 6  20210970.547                    20210970.785
                        39.100
 111595931.574 7  86957881.30445  21236000.141                    21236005.340
        47.500          31.900
 117305591.582 7  91406920.43844  22322513.109                    22322518.531
        45.800          29.300
 129306055.246 6 100757980.62742  24606123.195                    24606130.008
        37.600          13.900
 113379300.291 6  88347463.88543  21575362.563                    21575365.109
        40.900          22.500
 18  3 15 13 44 53.0000000  0 15R01R02G12R09R10R11G14R18G17G01R19G24
                                G32G03G19
                                  22328292.625

                  84759046.643 6  20422041.453                    20422043.445
                        40.800
 116019560.408 7  90404740.47543  22077759.328                    22077761.371
        43.400          23.800
                                  23331867.844

                  81719049.155 6  19710368.211                    19710371.684
                        38.900
                  84619939.647 6  20359886.797                    20359888.145
                        41.100
 124725696.441 5                  23734519.641
        34.800
                                  22695377.219

 114830339.925 7  89478204.46644  21851497.953                    21851501.586
        45.300          26.600
 119346448.302 6                  22710874.172
        36.600
                  84090184.332 6  20211138.922                    20211138.742
                        39.200
 111597730.514 7  86959283.06745  21236343.023                    21236347.883
        47.300          30.200
 117304557.505 7  91406114.68544  22322316.242                    22322322.137
        45.800          28.500
 129303183.902 6 100755743.19942  24605576.539                    24605583.535
        37.800          13.900
 113378185.318 7  88346595.07944  21575151.039                    21575152.719
        42.000          24.900
 18  3 15 13 44 54.0000000  0 12R02G12R10R11G14G17G01R19G24G32G03G19
                  84759073.146 6  20422047.969                    20422050.324
                        41.000
 116016858.433 7  90402635.05543  22077244.828                    22077247.160
        44.700          22.300
                  81720757.874 6  19710780.461                    19710783.906
                        39.400
                  84618133.843 6  20359453.188                    20359454.523
                        41.000
 124723196.051 5                  23734045.047
        34.000
 114830838.960 7  89478593.31444  21851593.086                    21851596.430
        45.400          27.500
 119348388.168 6                  22711243.656
        36.500
                  84090884.404 6  20211307.563                    20211307.180
                        39.200
 111599530.279 7  86960685.48744  21236684.156                    21236690.309
        43.500          26.500
 117303524.118 7  91405309.44444  22322120.070                    22322125.199
        45.900          28.900
 129300312.927 6 100753506.08942  24605030.375                    24605037.813
        37.300          14.800
 113377071.153 6  88345726.91243  21574939.578                    21574940.832
        41.600          22.200
 18  3 15 13 44 55.0000000  0 12R02G12R10R11G14G17G01R19G24G32G03G19
                  84759100.355 6  20422054.773                    20422056.918
                        40.900
 116014156.832 7  90400529.88943  22076730.977                    22076733.230
        46.000          22.600
                  81722467.172 6  19711192.680                    19711196.203
                        39.600
                  84616328.553 6  20359018.570                    20359020.023
                        41.200
 124720695.962 5                  23733568.484
        34.500
 114831338.651 7  89478982.67944  21851687.711                    21851691.465
        45.700          26.200
 119350328.744 6                  22711612.469
        37.100
                  84091585.185 6  20211475.219                    20211475.203
                        39.600
 111601330.576 7  86962088.31844  21237027.484                    21237032.871
        46.100          28.800
 117302491.343 7  91404504.68744  22321923.180                    22321928.840
        45.700          27.600
 129297442.266 6 100751269.26742  24604484.125                    24604491.414
        37.900          16.300
 113375957.697 6  88344859.31143  21574726.641                    21574729.219
        40.900          22.500
 18  3 15 13 44 56.0000000  0 12R02G12R10R11G14G17G01R19G24G32G03G19
                  84759128.326 6  20422060.711                    20422063.266
                        41.200
 116011455.809 6  90398425.15043  22076217.133                    22076219.211
        41.400          21.100
                  81724177.098 6  19711605.234                    19711608.711
                        38.800
                  84614523.791 6  20358584.055                    20358585.887
                        40.400
 124718196.365 5                  23733092.883
        33.700
 114831839.029 7  89479372.57244  21851782.711                    21851786.699
        46.100          27.800
 119352270.009 6                  22711982.180
        36.800
                  84092286.762 6  20211644.227                    20211643.969
                        39.200
 111603131.497 8  86963491.61045  21237370.359                    21237375.316
        49.100          32.100
 117301459.263 7  91403700.47545  22321726.516                    22321732.410
        46.300          30.200
 129294571.995 6 100749032.69842  24603938.086                    24603944.977
        38.200          15.600
 113374844.964 6  88343992.24643  21574515.445                    21574517.492
        40.600          23.300
 18  3 15 13 44 57.0000000  0 12R02G12R10R11G14G17G01R19G24G32G03G19
                  84759157.004 6  20422068.305                    20422070.113
                        41.500
 116008755.355 6  90396320.96943  22075703.836                    22075705.375
        39.600          19.000
                  81725887.627 6  19712017.680                    19712021.258
                        38.600
                  84612719.522 6  20358150.148                    20358151.590
                        41.000
 124715697.203 5                  23732617.945
        33.100
 114832340.055 7  89479762.97944  21851878.555                    21851881.984
        46.200          27.900
 119354211.896 6                  22712351.578
        36.600
                  84092989.122 6  20211813.578                    20211813.078
                        40.200
 111604933.098 8  86964895.43145  21237713.453                    21237718.344
        50.300          35.200
 117300427.791 7  91402896.73245  22321530.359                    22321536.195
        46.400          30.000
 129291702.013 6 100746796.37042  24603391.430                    24603398.984
        37.900          15.600
 113373732.989 6  88343125.75443  21574303.695                    21574305.844
        38.200          21.300
 18  3 15 13 44 58.0000000  0 11R02R10R11G14G17G01R19G24G32G03G19
                  84759186.337 6  20422075.008                    20422077.344
                        41.300
                  81727598.714 6  19712430.367                    19712434.176
                        39.800
                  84610915.737 7  20357715.836                    20357717.613
                        42.100
 124713198.481 5                  23732141.703
        33.100
 114832841.653 7  89480153.84044  21851974.203                    21851977.383
        46.300          29.000
 119356154.452 6                  22712721.758
        38.600
                  84093692.155 6  20211981.273                    20211981.930
                        40.200
 111606735.288 6  86966299.73943  21238054.750                    21238061.402
        41.900          20.600
 117299396.915 7  91402093.45745  22321334.125                    22321340.148
        45.400          30.400
 129288832.313 6 100744560.26142  24602844.773                    24602853.063
        38.300          14.800
 113372621.578 6  88342259.70543  21574092.414                    21574094.395
        40.700          22.600
 18  3 15 13 44 59.0000000  0 11R02G12R10R11G17G01R19G24G32G03G19
                  84759216.521 6  20422082.320                    20422084.340
                        39.700
 116003355.10717  90392112.98753  22074675.602                    22074678.063
        47.600          21.700
                  81729310.389 6  19712843.945                    19712846.598
                        37.700
                  84609112.452 7  20357282.203                    20357283.203
                        42.400
 114833343.896 7  89480545.19844  21852069.883                    21852073.125
        44.700          24.700
 119358098.21815                  22713090.477
        35.000
                  84094395.891 6  20212150.508                    20212151.426
                        37.400
 111608538.39116                  21238399.953
        39.500
 117298366.732 7  91401290.68444  22321138.055                    22321144.176
        46.300          29.700
 129285962.946 6 100742324.36442  24602299.297                    24602306.977
        37.900          13.900
 113371511.070 6  88341394.37544  21573881.148                    21573882.855
        40.900          26.500
 18  3 15 13 45  0.0000000  0 11R02G12R10R11G17G01R19G24G32G03G19
                  84759247.530 6  20422090.055                    20422092.008
                        40.900
 116000655.879 7  90390009.67244  22074161.906                    22074163.969
        47.300          24.900
                  81731022.729 6  19713256.141                    19713260.086
                        37.900
                  84607309.621 7  20356848.375                    20356849.773
                        42.100
 114833846.876 7  89480937.10444  21852164.992                    21852168.539
        44.600          25.600
 119360041.657 6                  22713461.148
        36.500
                  84095100.443 6  20212320.703                    20212320.266
                        39.200
 111610341.955 6  86969110.28352  21238743.102                    21238748.199
        39.800          17.400
 117297337.185 7  91400488.44444  22320942.438                    22320947.949
        45.800          28.800
 129283094.014 5 100740088.67842  24601752.836                    24601760.813
        35.700          13.900
 113370401.227 7  88340529.56044  21573670.063                    21573671.055
        42.100          28.000
 18  3 15 13 45  1.0000000  0 11R02G12R10R11G17G01R19G24G32G03G19
                  84759279.345 6  20422096.984                    20422099.715
                        40.800
 115997957.259 7  90387906.82244  22073647.844                    22073650.535
        46.400          27.100
                  81732735.820 6  19713669.625                    19713673.063
                        38.200
                  84605507.490 7  20356415.141                    20356416.652
                        42.400
 114834350.643 7  89481329.61344  21852261.039                    21852264.453
        44.900          27.000
 119361986.530 5                  22713830.547
        30.300
                  84095805.931 6  20212489.680                    20212490.395
                        40.400
 111612146.248 7  86970516.24642  21239085.680                    21239091.480
        42.300          16.900
 117296308.463 7  91399686.87844  22320746.773                    22320752.098
        44.900          28.400
 129280225.549 6                  24601207.227
        38.200
 113369292.251 7  88339665.41144  21573458.664                    21573460.469
        42.800          27.500
 18  3 15 13 45  2.0000000  0 11R02G12R10R11G17G01R19G24G32G03G19
                  84759311.890 6  20422105.109                    20422108.188
                        41.400
 115995259.079 7  90385804.33454  22073134.852                    22073137.461
        46.400          28.600
                  81734449.502 6  19714082.906                    19714086.633
                        38.100
                  84603705.896 7  20355981.180                    20355983.055
                        42.300
 114834855.042 7  89481722.64244  21852356.414                    21852360.387
        44.500          26.600
 119363932.52315                  22714201.289
        33.000
                  84096512.099 6  20212659.508                    20212659.926
                        39.900
 111613951.227 7  86971922.71742  21239429.414                    21239434.840
        42.400          17.400
 117295280.438 7  91398885.84544  22320551.016                    22320556.508
        43.900          28.700
 129277357.436 6                  24600661.602
        38.100
 113368184.024 7  88338801.87044  21573247.695                    21573249.273
        42.600          27.500
 18  3 15 13 45  3.0000000  0 13R01R02G12R10R11R18G17G01R19G24G32G03
                                G19
                  92867566.14414  22336453.867                    22336458.906
                        26.100
                  84759345.104 6  20422113.516                    20422116.125
                        41.900
 115992561.271 7  90383702.14443  22072621.031                    22072624.039
        45.000          23.400
                  81736163.770 6  19714495.789                    19714500.281
                        38.200
                  84601904.755 6  20355548.047                    20355549.914
                        41.200
                  94262087.52113  22703741.711                    22703742.133
                        21.900
 114835360.021 7  89482116.14644  21852453.156                    21852456.938
        43.800          24.300
 119365878.45515                  22714571.219
        33.500
                  84097218.919 6  20212829.016                    20212829.578
                        38.500
 111615756.807 6  86973329.62142  21239773.195                    21239778.188
        40.000          17.800
 117294252.939 7  91398085.20344  22320355.328                    22320360.914
        43.800          28.500
 129274489.547 6                  24600116.297
        37.500
 113367076.404 7  88337938.78644  21573036.375                    21573038.492
        42.100          27.400
 18  3 15 13 45  4.0000000  0 12R02G12R10R11G14G17G01R19G24G32G03G19
                  84759378.946 6  20422121.086                    20422123.344
                        41.600
 115989863.831 7  90381600.23143  22072108.008                    22072110.715
        46.100          22.900
                  81737878.516 6  19714910.273                    19714913.508
                        38.800
                  84600104.002 6  20355114.898                    20355116.039
                        41.700
 124698210.79815                  23729289.320
        34.200
 114835865.521 7  89482510.02144  21852549.906                    21852553.137
        46.400          28.500
 119367825.12616                  22714941.891
        38.100
                  84097926.423 6  20212999.703                    20212999.430
                        39.300
 111617562.838 7  86974736.91643  21240117.758                    21240122.309
        43.500          19.600
 117293225.963 7  91397284.91944  22320159.445                    22320165.434
        43.900          28.900
 129271621.842 6                  24599570.281
        37.500
 113365969.415 6  88337076.19743  21572827.141                    21572827.668
        40.800          22.200
 18  3 15 13 45  5.0000000  0 12R02G12R10R11G14G17G01R19G24G32G03G19
                  84759413.458 6  20422129.625                    20422131.758
                        40.900
 115987166.751 6  90379498.61743  22071594.594                    22071597.098
        39.200          20.600
                  81739593.790 6  19715323.344                    19715327.371
                        39.800
                  84598303.682 6  20354681.422                    20354683.602
                        41.500
 124695714.58015                  23728815.180
        33.500
 114836371.623 7  89482904.39044  21852645.547                    21852649.434
        46.300          26.600
 119369772.36316                  22715312.117
        37.600
                  84098634.556 6  20213169.367                    20213169.938
                        39.600
 111619369.03316                  21240460.078
        39.700
 117292199.580 7  91396485.09444  22319964.516                    22319970.027
        45.600          29.600
 129268754.402 6                  24599024.914
        37.700
 113364863.060 6  88336214.11843  21572615.508                    21572617.699
        40.600          23.800
 18  3 15 13 45  6.0000000  0 12R02G12R10R11G14G17G01R19G24G32G03G19
                  84759448.699 6  20422138.375                    20422140.422
                        41.400
 115984470.114 6  90377397.35843  22071081.102                    22071084.008
        37.400          18.300
                  81741309.690 6  19715737.039                    19715740.883
                        40.900
                  84596503.838 6  20354248.508                    20354249.652
                        41.900
 124693218.54015                  23728340.648
        32.800
 114836878.285 7  89483299.20344  21852741.953                    21852746.023
        45.500          25.300
 119371720.10916                  22715682.813
        37.000
                  84099343.412 6  20213340.141                    20213340.156
                        39.900
 111621176.24717                  21240802.688
        44.700
 117291173.686 7  91395685.69744  22319770.000                    22319774.922
        45.600          29.700
 129265887.342 6                  24598479.109
        38.200
 113363757.357 6  88335352.52843  21572404.508                    21572407.086
        40.200          23.800
 18  3 15 13 45  7.0000000  0 12R02G12R10R11G14G17G01R19G24G32G03G19
                  84759484.724 6  20422146.594                    20422149.191
                        41.400
 115981773.898 6  90375296.50442  22070568.695                    22070571.133
        40.400          16.900
                  81743026.172 6  19716151.656                    19716154.742
                        40.400
                  84594704.486 7  20353815.469                    20353817.449
                        42.100
 124690723.074 5                  23727865.297
        32.800
 114837385.590 7  89483694.50444  21852838.734                    21852842.332
        45.300          26.200
 119373668.098 6                  22716053.602
        36.900
                  84100053.029 6  20213510.453                    20213510.402
                        40.000
 111622983.970 8  86978961.00955  21241148.617                    21241153.137
        48.600          33.300
 117290148.515 7  91394886.88345  22319574.531                    22319579.605
        45.100          30.000
 129263020.581 6                  24597933.422
        37.900
 113362652.359 6  88334491.49344  21572195.781                    21572197.004
        41.300          25.800
 18  3 15 13 45  8.0000000  0 12R02G12R10R11G14G17G01R19G24G32G03G19
                  84759521.471 6  20422155.320                    20422158.184
                        41.900
 115979078.124 7  90373195.93643  22070055.086                    22070058.098
        42.300          18.600
                  81744743.257 6  19716565.391                    19716569.121
                        39.900
                  84592905.655 7  20353382.359                    20353384.254
                        42.600
 124688227.885 5                  23727390.555
        33.500
 114837893.558 7  89484090.33444  21852935.227                    21852938.863
        45.600          27.900
 119375617.263 6                  22716423.992
        36.500
                  84100763.384 6  20213681.352                    20213681.473
                        39.700
 111624792.319 8  86980370.10445  21241491.789                    21241497.508
        48.800          33.400
 117289123.987 7  91394088.57244  22319379.289                    22319385.098
        45.400          28.700
 129260154.082 6                  24597387.961
        37.600
 113361548.140 6  88333631.07144  21571984.703                    21571986.480
        41.000          25.300
 18  3 15 13 45  9.0000000  0 13R02G12R09R10R11G14G17G01R19G24G32G03
                                G19
                  84759558.940 6  20422164.938                    20422167.492
                        41.500
 115976382.666 7  90371095.56343  22069542.461                    22069545.234
        45.000          19.900
                  96964448.49014  23346400.906                    23346400.938
                        29.600
                  81746460.945 6  19716980.063                    19716983.000
                        39.600
                  84591107.302 6  20352950.094                    20352951.934
                        41.600
 124685733.070 5                  23726916.453
        33.700
 114838402.191 7  89484486.67444  21853032.031                    21853036.320
        45.800          26.900
 119377567.100 6                  22716794.578
        36.500
                  84101474.527 6  20213852.383                    20213852.520
                        39.100
 111626601.392 8  86981779.78945  21241836.531                    21241841.898
        48.600          32.600
 117288100.085 7  91393290.73844  22319184.625                    22319190.137
        44.700          27.400
 129257287.986 6                  24596842.219
        38.300
 113360444.602 6  88332771.17544  21571773.977                    21571776.660
        40.100          25.000
 18  3 15 13 45 10.0000000  0 13R02G12R09R10R11G14G17G01R19G24G32G03
                                G19
                  84759597.088 6  20422173.766                    20422176.434
                        41.300
 115973687.771 7  90368995.58444  22069029.727                    22069032.371
        46.500          25.300
                  96968222.114 4  23347309.086                    23347309.582
                        27.300
                  81748179.237 6  19717393.984                    19717397.992
                        39.600
                  84589309.448 6  20352517.875                    20352518.793
                        41.500
 124683238.682 5                  23726441.391
        33.000
 114838911.469 7  89484883.51644  21853128.688                    21853132.715
        45.800          28.200
 119379517.581 6                  22717165.906
        37.200
                  84102186.357 6  20214023.477                    20214023.098
                        39.000
 111628411.091 8  86983189.97445  21242180.359                    21242186.512
        49.600          34.800
 117287076.861 7  91392493.43144  22318989.648                    22318995.340
        45.300          28.900
 129254422.230 6                  24596296.547
        38.000
 113359341.778 6  88331911.82344  21571565.039                    21571566.742
        41.300          24.000
 18  3 15 13 45 11.0000000  0 14R02G12R09R10R11G14R18G17G01R19G24G32
                                G03G19
                  84759635.980 6  20422183.250                    20422185.688
                        41.300
 115970993.412 7  90366896.04944  22068516.867                    22068519.676
        46.900          26.200
                  96971995.900 4  23348217.406                    23348218.484
                        24.200
                  81749898.156 6  19717808.969                    19717812.359
                        39.600
                  84587512.138 6  20352085.227                    20352086.504
                        41.600
 124680744.702 5                  23725966.320
        33.200
                                  22710432.773

 114839421.413 7  89485280.85444  21853226.219                    21853229.906
        45.500          27.000
 119381468.789 6                  22717537.219
        37.300
                  84102899.014 6  20214195.234                    20214194.887
                        39.300
 111630221.444 8  86984600.65645  21242526.102                    21242530.945
        48.800          32.500
 117286054.266 7  91391696.61044  22318795.508                    22318800.691
        45.000          28.500
 129251556.832 6                  24595751.344
        38.200
 113358239.730 6  88331053.08844  21571355.367                    21571357.168
        40.400          24.600
 18  3 15 13 45 12.0000000  0 14R02G12R09R10R11G14R18G17G01R19G24G32
                                G03G19
                  84759675.589 6  20422192.453                    20422195.148
                        41.300
 115968299.450 7  90364796.83744  22068004.602                    22068007.090
        46.400          25.800
                  96975769.782 4  23349126.977                    23349125.430
                        24.300
                  81751617.661 6  19718223.867                    19718227.555
                        39.400
                  84585715.341 6  20351652.086                    20351654.188
                        41.800
 124678251.002 5                  23725492.344
        33.700
                                  22711270.031

 114839931.996 7  89485678.69544  21853323.711                    21853326.695
        45.600          26.300
 119383420.668 6                  22717909.438
        37.300
                  84103612.363 6  20214366.172                    20214365.688
                        39.700
 111632032.373 8  86986011.77245  21242869.438                    21242875.445
        48.400          33.100
 117285032.338 7  91390900.29644  22318601.109                    22318606.488
        45.400          28.400
 129248691.734 6                  24595206.688
        38.600
 113357138.369 6  88330194.88644  21571145.648                    21571148.102
        39.900          25.000
 18  3 15 13 45 13.0000000  0 15R01R02G12R09R10R11G14R18G17G01R19G24
                                G32G03G19
                  92901521.21014  22344620.258                    22344625.879
                        25.000
                  84759715.949 6  20422202.461                    20422204.555
                        41.200
 115965605.965 7  90362698.02944  22067491.820                    22067494.457
        46.400          25.400
                  96979543.859 4  23350036.906                    23350034.551
                        27.700
                  81753337.758 6  19718637.766                    19718642.543
                        39.700
                  84583919.052 6  20351220.508                    20351221.555
                        41.200
 124675757.786 5                  23725017.289
        34.000
                  94296832.73513  22712107.672                    22712110.367
                        22.500
 114840443.213 7  89486077.03044  21853420.672                    21853424.109
        46.300          26.100
 119385373.178 6                  22718281.469
        37.500
                  84104326.458 6  20214537.836                    20214537.320
                        39.500
 111633844.008 7  86987423.43145  21243214.750                    21243219.957
        47.900          32.300
 117284011.044 7  91390104.47944  22318406.805                    22318411.895
        45.700          29.900
 129245826.999 6                  24594662.242
        38.500
 113356037.658 6  88329337.18543  21570936.055                    21570937.793
        39.200          22.800
 18  3 15 13 45 14.0000000  0 14R02G12R09R10R11G14R18G17G01R19G24G32
                                G03G19
                  84759757.100 6  20422212.508                    20422214.684
                        41.000
 115962913.003 7  90360599.60944  22066979.031                    22066981.746
        47.100          27.100
                  96983318.060 4  23350944.773                    23350943.652
                        26.300
                  81755058.494 6  19719053.875                    19719057.359
                        39.800
                  84582123.238 6  20350788.563                    20350790.070
                        41.200
 124673264.928 5                  23724543.109
        33.200
                  94300308.99713  22712945.359                    22712947.707
                        21.900
 114840955.124 7  89486475.92444  21853517.797                    21853521.457
        45.300          26.000
 119387326.433 6                  22718653.297
        37.100
                  84105041.313 6  20214709.859                    20214709.504
                        39.000
 111635656.150 8  86988835.47845  21243559.180                    21243564.832
        49.000          33.300
 117282990.422 7  91389309.18645  22318212.227                    22318217.480
        45.300          30.200
 129242962.603 6                  24594117.102
        37.800
 113354937.837 6  88328480.20043  21570727.055                    21570729.262
        40.400          23.200
 18  3 15 13 45 15.0000000  0 14R02G12R09R10R11G14R18G17G01R19G24G32
                                G03G19
                  84759799.032 6  20422222.750                    20422224.453
                        41.300
 115960220.424 7  90358501.49844  22066466.813                    22066469.652
        45.900          27.200
                  96987092.344 4  23351853.500                    23351852.258
                        28.100
                  81756779.825 6  19719467.992                    19719472.367
                        39.900
                  84580327.947 6  20350356.570                    20350358.328
                        41.800
 124670772.461 5                  23724068.305
        33.400
                  94303785.16413  22713781.234                    22713784.750
                        21.400
 114841467.658 7  89486875.29944  21853614.961                    21853619.227
        45.300          27.200
 119389280.362 6                  22719024.008
        36.400
                  84105756.935 6  20214881.086                    20214881.492
                        39.300
 111637469.051 8  86990248.11945  21243905.180                    21243909.652
        48.600          32.700
 117281970.425 7  91388514.38444  22318018.164                    22318023.738
        45.600          29.500
 129240098.533 6                  24593571.773
        38.100
 113353838.688 6  88327623.73143  21570517.367                    21570519.688
        40.300          22.600
 18  3 15 13 45 16.0000000  0 14R02G12R09R10R11G14R18G17G01R19G24G32
                                G03G19
                  84759841.731 6  20422233.453                    20422235.344
                        41.600
 115957528.311 7  90356403.76444  22065954.766                    22065957.270
        46.200          24.700
                  96990866.801 4  23352762.914                    23352761.145
                        27.000
                  81758501.776 6  19719884.063                    19719887.422
                        39.700
                  84578533.192 6  20349924.609                    20349926.188
                        41.300
 124668280.371 5                  23723594.430
        31.800
                                  22714619.852

 114841980.875 7  89487275.20744  21853713.008                    21853716.813
        45.400          26.800
 119391234.931 6                  22719396.102
        36.700
                  84106473.294 6  20215053.883                    20215053.797
                        39.100
 111639282.476 8  86991661.17245  21244249.461                    21244254.867
        48.200          33.000
 117280951.084 7  91387720.09744  22317823.578                    22317829.586
        45.300          29.500
 129237234.831 6                  24593026.094
        38.100
 113352740.228 6  88326767.78943  21570308.266                    21570310.344
        40.200          23.000
 18  3 15 13 45 17.0000000  0 14R02G12R09R10R11G14R18G17G01R19G24G32
                                G03G19
                  84759885.132 6  20422243.078                    20422245.508
                        41.400
 115954836.695 7  90354306.42244  22065442.406                    22065445.527
        46.100          26.900
                  96994641.433 4  23353670.266                    23353670.129
                        27.000
                  81760224.344 6  19720299.250                    19720303.227
                        40.000
                  84576738.975 6  20349492.523                    20349494.270
                        41.400
 124665788.652 5                  23723119.867
        32.400
                                  22715457.859

 114842494.760 7  89487675.64444  21853810.672                    21853814.441
        45.500          26.800
 119393190.205 5                  22719768.266
        34.700
                  84107190.422 6  20215226.016                    20215226.250
                        39.600
 111641096.630 7  86993074.80645  21244594.891                    21244599.949
        47.100          30.300
 117279932.403 7  91386926.32644  22317630.258                    22317635.707
        45.400          29.100
 129234371.475 6                  24592481.156
        38.400
 113351642.531 6  88325912.43243  21570099.273                    21570101.387
        41.600          23.900
 18  3 15 13 45 18.0000000  0 15R01R02G12R09R10R11G14R18G17G01R19G24
                                G32G03G19
                  92918513.47314  22348708.258                    22348711.902
                        26.800
                  84759929.262 6  20422254.328                    20422256.469
                        41.000
 115952145.558 7  90352209.43844  22064930.891                    22064933.305
        45.800          24.800
                  96998416.261 4  23354578.813                    23354578.836
                        27.800
                  81761947.510 6  19720715.188                    19720718.969
                        39.300
                  84574945.218 6  20349060.797                    20349062.680
                        41.500
 124663297.419 5                  23722644.547
        32.400
                                  22716294.805

 114843009.249 7  89488076.53344  21853908.344                    21853912.578
        45.300          27.300
 119395146.241 5                  22720140.250
        35.800
                  84107908.285 6  20215397.789                    20215398.527
                        39.500
 111642911.438 7  86994488.93844  21244939.688                    21244945.379
        46.800          29.400
 117278914.398 7  91386133.08444  22317436.523                    22317442.309
        45.200          29.500
 129231508.416 6                  24591936.984
        38.700
 113350545.540 6  88325057.62943  21569891.383                    21569892.855
        41.900          22.800
