     2.11           OBSERVATION DATA    M (MIXED)           RINEX VERSION / TYPE
teqc  2018Mar15                         20180319 14:17:33UTCPGM / RUN BY / DATE
Linux 2.6.32-573.12.1.x86_64|x86_64|gcc -static|Linux 64|=+ COMMENT
END OF STATIC MODE OBSERVATION                              COMMENT
BIT 2 OF LLI FLAGS DATA COLLECTED UNDER A/S CONDITION       COMMENT
-Unknown-                                                   MARKER NAME
4625                                                        MARKER NUMBER
-Unknown-           -Unknown-                               OBSERVER / AGENCY
5127468778          TRIMBLE             4.63                REC # / TYPE / VERS
47477114                            NONE                    ANT # / TYPE
   227767.8360   284595.8898 -6346362.4605                  APPROX POSITION XYZ
        0.0000        0.0000        0.0000                  ANTENNA: DELTA H/E/N
     1     1                                                WAVELENGTH FACT L1/2
     7    L1    L2    C1    P1    P2    S1    S2            # / TYPES OF OBSERV
    18                                                      LEAP SECONDS
 SNR is mapped to RINEX snr flag value [0-9]                COMMENT
  L1 & L2: min(max(int(snr_dBHz/6), 0), 9)                  COMMENT
  2018     3    13    14    13    0.0000000     GPS         TIME OF FIRST OBS
                                                            END OF HEADER
 18  3 13 14 13  0.0000000  0 18R08R07G14G22R09G03R16R17R18R01R24G19
                                G25G12G32G24G17G01
                  86174201.695 6  20690265.523                    20690266.805
                        40.700
                  95006000.774 6  22818753.820                    22818757.332
                        37.000
 122087157.119 6  95132901.77942  23232423.977                    23232427.426
        38.700          16.900
 123964368.099 6  96595600.47942  23589629.672                    23589631.242
        37.400          16.900
                  82691369.909 7  19909849.328                    19909850.258
                        44.300
 126237511.647 6  98366895.41142  24022194.328                    24022201.484
        36.900          14.800
                  85037322.085 6  20467499.180                    20467499.930
                        39.700
                  85060468.604 6  20437178.648                    20437180.887
                        41.500
                  86602237.287 7  20858805.547                    20858807.813
                        43.400
                  90315788.130 5  21722700.180                    21722703.598
                        31.500
                                  23426037.742

 112641160.594 8  87772420.42346  21434918.859                    21434920.461
        49.900          37.200
 129309850.94515                  24606853.797
        31.900
 113220075.722 8  88223361.04245  21545040.555                    21545044.332
        48.800          34.000
 116620230.961 8  90872875.26745  22192092.211                    22192097.973
        48.000          34.200
 114251577.491 7  89027194.71845  21741353.852                    21741360.609
        45.300          31.200
 115967148.252 8  90364120.69446  22067839.953                    22067843.523
        49.700          36.500
 122193707.973 5                  23252698.445
        32.900
 18  3 13 14 13  1.0000000  0 18R08R07G14G22R09G03R16R17R18R01R24G19
                                G25G12G32G24G17G01
                  86175210.459 6  20690507.797                    20690508.438
                        41.100
                  95009560.629 6  22819608.945                    22819612.574
                        36.800
 122085204.723 6  95131380.43842  23232052.945                    23232055.484
        37.400          16.300
 123963327.285 6  96594789.44842  23589432.492                    23589433.715
        37.800          17.400
                  82690282.313 7  19909587.984                    19909588.203
                        44.700
 126235136.068 6  98365044.30842  24021742.875                    24021749.488
        38.100          15.600
                  85039867.277 6  20468110.859                    20468112.480
                        39.700
                  85061850.241 6  20437511.438                    20437512.965
                        41.800
                  86600337.307 7  20858348.203                    20858349.914
                        43.200
                  90313874.862 5  21722240.984                    21722242.523
                        32.000
                                  23426932.070

 112640968.446 8  87772270.69246  21434882.391                    21434884.176
        50.000          37.600
 129306263.385 5                  24606171.039
        35.800
 113218004.516 8  88221747.12445  21544646.609                    21544650.262
        48.300          33.200
 116620025.304 7  90872715.00945  22192052.734                    22192059.176
        47.500          34.000
 114254116.214 7  89029172.94945  21741837.078                    21741843.535
        46.300          32.600
 115968442.509 8  90365129.20046  22068085.945                    22068089.938
        50.400          37.400
 122196425.854 5                  23253215.086
        32.500
 18  3 13 14 13  2.0000000  0 18R08R07G14G22R09G03R16R17R18R01R24G19
                                G25G12G32G24G17G01
                  86176219.916 6  20690750.086                    20690750.930
                        41.500
                  95013120.693 6  22820463.563                    22820468.035
                        36.000
 122083252.731 6  95129859.40742  23231680.781                    23231683.688
        36.600          16.300
 123962287.037 6  96593978.85042  23589234.750                    23589235.492
        38.700          17.800
                  82689195.319 7  19909326.391                    19909326.199
                        44.600
 126232760.971 6  98363193.56842  24021290.570                    24021297.457
        37.700          15.600
                  85042413.016 6  20468723.375                    20468725.102
                        39.300
                  85063232.601 7  20437843.125                    20437845.535
                        42.600
                  86598437.863 7  20857890.383                    20857892.688
                        42.300
                  90311962.125 5  21721780.344                    21721783.344
                        32.500
                                  23427827.336

 112640777.030 8  87772121.53646  21434845.797                    21434847.352
        49.500          36.500
 129302675.945 5                  24605489.023
        33.900
 113215933.877 8  88220133.64645  21544252.563                    21544256.383
        49.500          35.900
 116619820.363 7  90872555.29845  22192013.695                    22192020.125
        47.500          33.500
 114256655.564 7  89031151.66745  21742320.758                    21742326.820
        45.000          30.800
 115969737.356 8  90366138.16246  22068332.844                    22068336.469
        50.500          37.500
 122199144.414 5                  23253733.180
        33.700
 18  3 13 14 13  3.0000000  0 19R10R08R07G14G22R09G03R16R17R18R01R24
                                G19G25G12G32G24G17G01
                                  23507979.281

                  86177230.147 6  20690992.984                    20690994.086
                        41.500
                  95016681.172 6  22821318.555                    22821322.961
                        37.100
 122081301.405 6  95128338.89442  23231310.844                    23231312.988
        36.300          15.600
 123961247.337 6  96593168.69943  23589036.164                    23589037.855
        38.400          18.600
                  82688108.899 7  19909064.672                    19909064.863
                        45.100
 126230386.234 5  98361343.14142  24020838.953                    24020846.156
        35.600          16.300
                  85044959.259 6  20469335.680                    20469338.105
                        39.900
                  85064615.667 7  20438175.156                    20438177.246
                        42.200
                  86596538.993 7  20857433.313                    20857434.906
                        43.000
                  90310050.006 5  21721320.930                    21721323.988
                        33.100
                                  23428723.117

 112640586.419 8  87771973.02146  21434809.461                    21434811.305
        48.900          37.500
 129299088.943 5                  24604805.594
        30.300
 113213863.827 8  88218520.60146  21543858.383                    21543861.941
        50.500          37.300
 116619616.072 7  90872396.10145  22191974.789                    22191981.102
        47.200          33.900
 114259195.351 7  89033130.72345  21742803.898                    21742810.102
        47.400          34.800
 115971032.858 8  90367147.64446  22068579.297                    22068583.102
        49.900          37.900
 122201863.459 5                  23254250.000
        34.400
 18  3 13 14 13  4.0000000  0 19R10R08R07G14G22R09G03R16R17R18R01R24
                                G19G25G12G32G24G17G01
                                  23507213.844

                  86178241.072 6  20691234.672                    20691236.520
                        41.600
                  95020241.982 5  22822173.297                    22822177.676
                        34.300
 122079350.458 5  95126818.64842  23230939.445                    23230941.785
        35.100          15.600
 123960208.363 6  96592359.14443  23588838.883                    23588840.363
        39.400          19.000
                  82687023.136 7  19908803.258                    19908803.363
                        44.400
 126228012.186 5  98359493.26342  24020386.977                    24020394.102
        35.400          15.600
                  85047506.039 6  20469949.641                    20469951.227
                        39.200
                  85065999.487 7  20438508.172                    20438509.762
                        42.200
                  86594640.727 7  20856976.250                    20856977.719
                        43.000
                  90308138.461 5  21720860.578                    21720863.566
                        32.200
                                  23429617.102

 112640396.634 8  87771825.13246  21434773.086                    21434774.961
        49.000          38.100
 129295501.957 5                  24604123.664
        35.700
 113211794.336 8  88216908.01045  21543464.461                    21543468.121
        49.500          34.400
 116619412.564 7  90872237.52245  22191936.133                    22191942.391
        47.300          33.200
 114261735.836 7  89035110.32245  21743286.977                    21743293.422
        46.400          33.200
 115972329.023 8  90368157.64246  22068825.859                    22068829.430
        49.600          38.100
 122204583.212 5                  23254768.648
        35.500
 18  3 13 14 13  5.0000000  0 19R10R08R07G14G22R09G03R16R17R18R01R24
                                G19G25G12G32G24G17G01
                                  23506447.555

                  86179252.749 7  20691478.063                    20691479.559
                        42.000
                  95023803.047 5  22823029.805                    22823033.441
                        35.800
 122077400.041 5  95125298.82242  23230566.758                    23230570.523
        34.600          15.600
 123959169.914 6  96591549.96143  23588640.906                    23588642.617
        38.600          18.600
                  82685937.961 7  19908542.281                    19908542.371
                        44.500
 126225638.443 6  98357643.58042  24019936.039                    24019942.188
        36.100          15.600
                  85050053.333 6  20470562.547                    20470564.004
                        39.500
                  85067383.991 7  20438840.484                    20438842.602
                        42.200
                  86592743.049 7  20856519.023                    20856520.680
                        43.100
                  90306227.489 5  21720400.727                    21720403.820
                        32.700
                                  23430511.563

 112640207.595 8  87771677.81546  21434737.188                    21434739.074
        49.100          37.800
 129291915.112 5                  24603442.453
        33.400
 113209725.439 8  88215295.89445  21543070.680                    21543074.891
        49.400          35.100
 116619209.768 7  90872079.49645  22191897.211                    22191903.680
        47.600          34.300
 114264276.899 7  89037090.37245  21743770.961                    21743776.578
        47.300          34.000
 115973625.815 8  90369168.12346  22069072.727                    22069076.473
        49.300          38.400
 122207303.542 5                  23255285.195
        35.200
 18  3 13 14 13  6.0000000  0 19R10R08R07G14G22R09G03R16R17R18R01R24
                                G19G25G12G32G24G17G01
                                  23505681.813

                  86180265.104 6  20691721.492                    20691722.629
                        40.600
                  95027364.533 6  22823884.797                    22823888.645
                        37.000
 122075450.100 5  95123779.38842  23230195.859                    23230199.613
        35.400          16.300
 123958132.028 6  96590741.23942  23588443.055                    23588445.113
        39.100          17.800
                  82684853.389 7  19908280.859                    19908281.898
                        44.800
 126223265.192 5  98355794.31342  24019484.320                    24019490.770
        35.500          16.300
                  85052601.066 6  20471176.477                    20471177.172
                        40.200
                  85068769.203 7  20439173.008                    20439175.723
                        42.100
                  86590845.937 7  20856061.453                    20856063.289
                        44.000
                  90304317.032 5  21719942.750                    21719944.422
                        33.600
                                  23431407.242

 112640019.336 8  87771531.11846  21434701.844                    21434703.648
        49.700          38.100
 129288328.482 5                  24602758.906
        34.300
 113207657.095 8  88213684.19546  21542677.336                    21542680.805
        50.900          38.200
 116619007.655 7  90871922.01445  22191859.102                    22191865.586
        47.800          34.500
 114266818.511 8  89039070.84346  21744254.547                    21744260.387
        48.000          36.000
 115974923.216 8  90370179.08046  22069319.594                    22069323.402
        49.900          39.500
 122210024.478 5                  23255803.016
        35.200
 18  3 13 14 13  7.0000000  0 19R10R08R07G14G22R09G03R16R17R18R01R24
                                G19G25G12G32G24G17G01
                                  23504916.602

                  86181278.212 6  20691964.523                    20691965.832
                        41.700
                  95030926.336 6  22824740.945                    22824743.762
                        36.800
 122073500.692 5  95122260.37442  23229824.688                    23229827.969
        35.400          16.300
 123957094.771 6  96589932.99942  23588246.469                    23588247.445
        39.500          17.400
                  82683769.406 7  19908019.969                    19908020.059
                        44.600
 126220892.441 5  98353945.47342  24019031.828                    24019039.543
        33.900          16.900
                  85055149.285 6  20471788.258                    20471790.480
                        39.400
                  85070155.109 7  20439506.750                    20439508.465
                        42.100
                  86588949.391 7  20855604.945                    20855607.434
                        43.800
                  90302407.147 5  21719483.516                    21719485.324
                        31.800
                                  23432302.141

 112639831.839 8  87771385.02346  21434665.992                    21434667.660
        50.000          37.500
 129284742.074 5                  24602076.484
        33.900
 113205589.316 8  88212072.92346  21542283.734                    21542287.160
        51.200          38.200
 116618806.274 7  90871765.09945  22191821.023                    22191827.148
        47.800          33.900
 114269360.705 7  89041051.76545  21744737.789                    21744744.207
        47.000          35.600
 115976221.258 8  90371190.54546  22069566.656                    22069570.191
        49.600          38.900
 122212745.966 5                  23256321.313
        34.700
 18  3 13 14 13  8.0000000  0 19R10R08R07G14G22R09G03R16R17R18R01R24
                                G19G25G12G32G24G17G01
                  97448065.85513  23504149.320                    23504155.113
                        22.100
                  86182292.102 6  20692208.078                    20692209.082
                        41.200
                  95034488.392 6  22825596.172                    22825599.594
                        36.900
 122071551.790 5  95120741.70642  23229454.508                    23229457.535
        34.400          16.300
 123956058.055 6  96589125.16142  23588048.805                    23588050.238
        39.400          17.400
                  82682686.018 7  19907759.273                    19907759.422
                        44.700
 126218520.130 5  98352096.93542  24018580.273                    24018587.875
        34.200          16.300
                  85057698.010 6  20472401.703                    20472403.902
                        39.200
                  85071541.715 7  20439840.047                    20439841.465
                        42.100
                  86587053.434 7  20855148.711                    20855150.168
                        43.400
                  90300497.817 5  21719023.195                    21719025.660
                        31.700
                                  23433196.391

 112639645.131 8  87771239.54946  21434630.367                    21434631.984
        49.500          37.900
 129281155.760 5                  24601393.469
        33.800
 113203522.092 8  88210462.09146  21541890.766                    21541893.773
        50.900          37.900
 116618605.560 7  90871608.70845  22191782.711                    22191789.031
        47.900          33.700
 114271903.457 7  89043033.12345  21745221.797                    21745228.188
        47.200          35.700
 115977519.885 8  90372202.45946  22069813.836                    22069817.473
        50.000          38.700
 122215468.050 5                  23256839.469
        35.000
 18  3 13 14 13  9.0000000  0 19R10R08R07G14G22R09G03R16R17R18R01R24
                                G19G25G12G32G24G17G01
                  97444890.54013  23503382.617                    23503389.469
                        22.700
                  86183306.729 6  20692451.219                    20692452.234
                        41.500
                  95038050.707 6  22826452.469                    22826455.094
                        37.100
 122069603.260 5  95119223.33542  23229083.133                    23229086.602
        33.800          16.900
 123955021.932 6  96588317.78142  23587852.844                    23587852.836
        38.500          17.800
                  82681603.248 7  19907498.461                    19907498.906
                        44.700
 126216148.387 5  98350248.80842  24018129.016                    24018136.691
        34.600          16.300
                  85060247.241 6  20473016.711                    20473017.348
                        39.400
                  85072929.014 7  20440173.313                    20440174.680
                        42.000
                  86585158.065 7  20854692.453                    20854694.129
                        42.700
                  90298589.028 5  21718563.438                    21718566.508
                        31.000
                                  23434093.297

 112639459.177 8  87771094.66246  21434595.047                    21434597.043
        49.500          37.500
 129277569.646 5                  24600710.625
        32.600
 113201455.423 8  88208851.70446  21541497.391                    21541500.621
        51.100          38.000
 116618405.543 8  90871452.86845  22191744.508                    22191751.074
        48.000          34.200
 114274446.770 7  89045014.93045  21745705.844                    21745712.387
        47.200          34.900
 115978819.185 8  90373214.89746  22070060.695                    22070064.707
        50.200          38.800
 122218190.654 5                  23257357.852
        33.400
 18  3 13 14 13 10.0000000  0 18R10R08R07G14G22R09G03R16R17R18R01G19
                                G25G12G32G24G17G01
                  97441715.817 4  23502617.688                    23502623.207
                        25.000
                  86184322.071 6  20692695.406                    20692696.727
                        41.700
                  95041613.302 6  22827308.391                    22827310.613
                        37.300
 122067655.265 5  95117705.42142  23228713.211                    23228715.727
        34.100          14.800
 123953986.352 6  96587510.79743  23587655.453                    23587656.137
        39.500          18.300
                  82680521.046 7  19907237.945                    19907237.855
                        44.800
 126213776.899 6  98348400.87542  24017678.227                    24017685.430
        36.300          16.300
                  85062796.957 6  20473630.313                    20473631.266
                        40.000
                  85074317.013 7  20440506.969                    20440508.336
                        42.800
                  86583263.248 7  20854235.578                    20854237.102
                        43.500
                  90296680.798 5  21718104.234                    21718107.898
                        31.900
 112639273.986 8  87770950.36946  21434559.969                    21434561.809
        49.300          38.100
 129273983.677 5                  24600029.086
        35.200
 113199389.262 8  88207241.71246  21541104.523                    21541107.535
        51.200          38.200
 116618206.160 7  90871297.51945  22191706.828                    22191713.195
        47.500          35.100
 114276990.594 7  89046997.13245  21746190.414                    21746196.242
        47.000          35.300
 115980119.075 8  90374227.78546  22070308.133                    22070311.914
        50.200          39.700
 122220913.804 5                  23257876.008
        33.900
 18  3 13 14 13 11.0000000  0 18R10R08R07G14G22R09G03R16R17R18R01G19
                                G25G12G32G24G17G01
                  97438541.293 3  23501850.969                    23501857.316
                        22.800
                  86185338.100 7  20692938.430                    20692940.281
                        42.300
                  95045176.216 6  22828163.109                    22828166.066
                        36.100
 122065707.720 5  95116187.85642  23228342.117                    23228345.547
        33.600          14.800
 123952951.386 6  96586704.34143  23587457.969                    23587458.672
        39.500          19.300
                  82679439.445 7  19906977.352                    19906977.094
                        45.100
 126211405.987 5  98346553.41242  24017227.367                    24017234.512
        34.600          16.900
                  85065347.179 6  20474244.359                    20474245.070
                        39.800
                  85075705.712 7  20440839.773                    20440841.340
                        42.900
                  86581368.997 7  20853778.766                    20853780.762
                        43.500
                  90294773.172 5  21717645.273                    21717648.535
                        32.700
 112639089.575 8  87770806.66846  21434524.563                    21434526.238
        49.600          38.500
 129270397.867 5                  24599346.609
        34.200
 113197323.697 8  88205632.17746  21540711.359                    21540714.469
        50.400          36.600
 116618007.529 7  90871142.74245  22191668.852                    22191674.957
        47.700          35.100
 114279534.994 7  89048979.78845  21746674.305                    21746680.121
        46.700          34.500
 115981419.593 8  90375241.16546  22070555.883                    22070559.605
        50.400          39.600
 122223637.620 5                  23258393.781
        33.500
 18  3 13 14 13 12.0000000  0 18R10R08R07G14G22R09G03R16R17R18R01G19
                                G25G12G32G24G17G01
                  97435366.824 3  23501086.367                    23501092.211
                        22.300
                  86186354.873 6  20693183.898                    20693184.301
                        41.100
                  95048739.404 6  22829018.813                    22829022.477
                        36.800
 122063760.782 5  95114670.76242  23227972.906                    23227975.082
        34.600          16.300
 123951917.020 6  96585898.33943  23587261.188                    23587261.559
        39.900          19.000
                  82678358.429 7  19906717.125                    19906717.219
                        44.700
 126209035.497 6  98344706.27742  24016776.234                    24016783.090
        36.000          16.300
                  85067897.900 6  20474857.883                    20474858.676
                        39.600
                  85077095.104 7  20441173.938                    20441176.094
                        42.100
                  86579475.298 7  20853323.305                    20853325.160
                        43.200
                  90292866.096 5  21717186.938                    21717190.520
                        32.000
 112638905.921 8  87770663.56146  21434490.086                    21434491.313
        50.200          38.800
 129266812.251 5                  24598664.188
        35.200
 113195258.675 8  88204023.07146  21540318.125                    21540321.746
        50.700          37.500
 116617809.562 7  90870988.46045  22191631.422                    22191637.668
        47.400          34.400
 114282079.937 7  89050962.86845  21747158.703                    21747164.285
        47.400          35.500
 115982720.734 8  90376255.03546  22070803.023                    22070807.063
        50.200          38.900
 122226362.014 5                  23258911.273
        34.600
 18  3 13 14 13 13.0000000  0 19R10R08R07G14G22R09G03R16R17R18R01R24
                                G19G25G12G32G24G17G01
                  97432192.546 3  23500320.578                    23500326.918
                        22.700
                  86187372.399 6  20693428.023                    20693428.492
                        41.000
                  95052302.938 6  22829874.875                    22829878.496
                        37.800
 122061814.196 5  95113153.90042  23227601.016                    23227604.934
        31.900          16.300
 123950883.180 6  96585092.75142  23587064.734                    23587065.254
        39.500          17.800
                  82677278.051 7  19906456.625                    19906457.125
                        44.400
 126206665.524 5  98342859.52942  24016324.930                    24016331.637
        35.600          15.600
                  85070449.129 6  20475472.289                    20475473.555
                        40.200
                  85078485.220 6  20441508.109                    20441510.332
                        41.900
                  86577582.188 7  20852866.703                    20852869.309
                        42.500
                  90290959.561 5  21716728.063                    21716731.672
                        31.200
                                  23437673.758

 112638723.073 8  87770521.08146  21434454.805                    21434456.438
        50.200          38.500
 129263226.841 5                  24597981.828
        35.700
 113193194.273 8  88202414.44446  21539925.297                    21539928.262
        51.000          38.100
 116617612.334 7  90870834.76045  22191593.391                    22191599.746
        47.400          34.800
 114284625.469 7  89052946.40345  21747642.828                    21747648.781
        47.400          35.400
 115984022.526 8  90377269.41646  22071051.039                    22071054.828
        49.500          38.100
 122229086.982 5                  23259430.250
        33.900
 18  3 13 14 13 14.0000000  0 19R10R08R07G14G22R09G03R16R17R18R01R24
                                G19G25G12G32G24G17G01
                  97429018.465 3  23499555.555                    23499561.309
                        22.100
                  86188390.670 6  20693672.195                    20693673.348
                        41.300
                  95055866.771 6  22830729.750                    22830734.500
                        37.100
 122059868.263 5  95111637.56142  23227231.055                    23227234.441
        30.700          15.600
 123949849.957 6  96584287.63343  23586867.188                    23586868.371
        39.400          18.300
                  82676198.239 7  19906197.078                    19906197.215
                        44.300
 126204296.025 5  98341013.17842  24015874.555                    24015881.332
        33.600          15.600
                  85073000.842 6  20476086.180                    20476087.117
                        39.600
                  85079876.034 6  20441842.602                    20441843.723
                        41.600
                  86575689.680 7  20852411.555                    20852413.395
                        42.600
                  90289053.543 5  21716270.273                    21716273.504
                        31.600
                                  23438568.242

 112638540.991 8  87770379.20346  21434420.461                    21434422.246
        50.800          37.700
 129259641.545 5                  24597299.305
        34.700
 113191130.392 8  88200806.22646  21539532.422                    21539535.730
        51.000          37.600
 116617415.797 7  90870681.60845  22191556.172                    22191562.172
        47.100          33.900
 114287171.583 7  89054930.39545  21748127.609                    21748133.895
        47.500          34.400
 115985324.944 8  90378284.28646  22071298.867                    22071302.398
        49.400          37.100
 122231812.563 5                  23259949.391
        34.600
 18  3 13 14 13 15.0000000  0 19R10R08R07G14G22R09G03R16R17R18R01R24
                                G19G25G12G32G24G17G01
                  97425844.420 3  23498789.367                    23498795.555
                        22.300
                  86189409.618 6  20693917.070                    20693917.973
                        40.900
                  95059430.863 6  22831587.094                    22831590.570
                        38.100
 122057922.604 5  95110121.50542  23226860.250                    23226864.160
        31.000          14.800
 123948817.294 6  96583482.96143  23586670.594                    23586671.855
        39.400          18.300
                  82675119.002 7  19905936.945                    19905937.363
                        44.100
 126201926.902 5  98339167.10742  24015423.313                    24015430.020
        34.200          14.800
                  85075553.030 6  20476700.563                    20476701.281
                        39.100
                  85081267.514 6  20442175.992                    20442178.414
                        41.700
                  86573797.746 7  20851955.914                    20851958.117
                        42.400
                  90287148.048 5  21715810.922                    21715814.750
                        31.800
                                  23439462.836

 112638359.663 8  87770237.91546  21434385.539                    21434387.492
        50.500          37.600
 129256056.406 5                  24596617.352
        35.000
 113189067.032 8  88199198.42546  21539139.898                    21539143.027
        50.500          36.900
 116617219.900 7  90870528.95545  22191519.164                    22191525.410
        47.200          34.600
 114289718.217 7  89056914.77945  21748611.883                    21748618.383
        47.500          34.200
 115986627.945 8  90379299.60746  22071546.891                    22071550.504
        49.800          37.200
 122234538.613 5                  23260467.313
        33.700
 18  3 13 14 13 16.0000000  0 19R10R08R07G14G22R09G03R16R17R18R01R24
                                G19G25G12G32G24G17G01
                  97422670.533 3  23498025.156                    23498030.309
                        21.600
                  86190429.282 6  20694161.898                    20694162.773
                        41.000
                  95062995.272 6  22832442.844                    22832445.539
                        38.000
 122055977.552 5  95108605.86342  23226490.422                    23226494.059
        32.200          16.300
 123947785.208 6  96582678.74843  23586475.344                    23586475.797
        39.800          18.300
                  82674040.360 7  19905677.266                    19905677.234
                        44.400
 126199558.249 5  98337321.38642  24014972.625                    24014979.613
        34.500          14.800
                  85078105.719 6  20477315.664                    20477315.340
                        39.100
                  85082659.691 6  20442510.688                    20442512.422
                        41.500
                  86571906.386 7  20851500.031                    20851502.141
                        42.400
                  90285243.170 5  21715353.969                    21715356.113
                        31.400
                                  23440357.336

 112638179.117 8  87770097.25346  21434351.578                    21434353.297
        49.800          37.900
 129252471.421 5                  24595935.398
        32.400
 113187004.275 8  88197591.09446  21538747.133                    21538750.652
        50.600          37.300
 116617024.757 7  90870376.89245  22191481.828                    22191487.840
        47.300          34.200
 114292265.387 7  89058899.58045  21749096.938                    21749102.859
        47.500          34.400
 115987931.578 8  90380315.41646  22071794.883                    22071798.922
        49.800          37.100
 122237265.243 5                  23260987.031
        34.400
 18  3 13 14 13 17.0000000  0 19R10R08R07G14G22R09G03R16R17R18R01R24
                                G19G25G12G32G24G17G01
                  97419496.745 3  23497260.055                    23497264.762
                        21.100
                  86191449.685 6  20694407.508                    20694407.848
                        40.700
                  95066559.985 6  22833299.680                    22833302.203
                        37.600
 122054032.971 5  95107090.60042  23226120.578                    23226124.340
        31.300          14.800
 123946753.726 6  96581875.00842  23586278.695                    23586279.215
        39.700          17.800
                  82672962.300 7  19905417.641                    19905417.684
                        44.400
 126197190.102 5  98335476.09442  24014521.844                    24014528.598
        35.900          13.900
                  85080658.877 6  20477929.648                    20477930.355
                        39.300
                  85084052.578 6  20442845.422                    20442847.316
                        41.900
                  86570015.555 7  20851044.508                    20851046.480
                        42.600
                  90283338.783 5  21714895.430                    21714898.273
                        31.300
                                  23441253.258

 112637999.332 8  87769957.16646  21434317.102                    21434318.715
        49.000          38.100
 129248886.577 5                  24595252.641
        32.900
 113184942.049 8  88195984.16546  21538355.281                    21538358.195
        51.100          37.400
 116616830.256 7  90870225.33045  22191444.828                    22191451.051
        47.200          34.200
 114294813.118 7  89060884.83145  21749581.625                    21749587.379
        47.300          33.900
 115989235.813 8  90381331.70946  22072043.266                    22072047.098
        49.900          37.600
 122239992.479 5                  23261505.508
        31.200
 18  3 13 14 13 18.0000000  0 19R10R08R07G14G22R09G03R16R17R18R01R24
                                G19G25G12G32G24G17G01
                                  23496494.391

                  86192470.779 6  20694652.336                    20694653.625
                        41.300
                  95070125.065 6  22834156.289                    22834158.840
                        37.500
 122052088.761 5  95105575.64142  23225750.188                    23225754.406
        33.000          13.900
 123945722.776 6  96581071.64543  23586082.539                    23586083.328
        40.300          18.600
                  82671884.845 7  19905158.117                    19905158.391
                        43.900
 126194822.363 6  98333631.09342  24014072.555                    24014077.957
        36.300          13.900
                  85083212.549 6  20478544.094                    20478544.566
                        38.500
                  85085446.166 6  20443180.516                    20443182.281
                        41.400
                  86568125.313 7  20850589.195                    20850591.539
                        42.800
                  90281434.959 5  21714437.586                    21714440.887
                        31.000
                                  23442150.820

 112637820.260 8  87769817.63546  21434282.977                    21434284.992
        49.100          37.500
 129245302.017 5                  24594570.945
        33.900
 113182880.387 8  88194377.68245  21537963.039                    21537966.180
        50.000          35.900
 116616636.479 7  90870074.35045  22191407.891                    22191414.195
        47.100          33.200
 114297361.405 7  89062870.51145  21750066.445                    21750072.621
        46.800          34.300
 115990540.694 8  90382348.51546  22072291.258                    22072295.426
        50.100          37.900
 122242720.336 5                  23262024.953
        33.100
 18  3 13 14 13 19.0000000  0 19R10R08R07G14G22R09G03R16R17R18R01R24
                                G19G25G12G32G24G17G01
                                  23495727.969

                  86193492.648 6  20694897.492                    20694898.906
                        40.400
                  95073690.374 5  22835012.266                    22835014.957
                        35.300
 122050145.254 5  95104061.23542  23225381.547                    23225384.477
        33.800          14.800
 123944692.427 6  96580268.77942  23585886.359                    23585887.148
        40.600          17.400
                  82670808.021 7  19904898.664                    19904899.254
                        44.400
 126192455.102 6  98331786.49242  24013621.742                    24013628.145
        36.700          14.800
                  85085766.750 6  20479158.586                    20479159.359
                        38.300
                  85086840.445 6  20443515.445                    20443517.730
                        41.600
                  86566235.629 6  20850134.602                    20850136.383
                        41.900
                  90279531.735 5  21713979.266                    21713982.809
                        31.500
                                  23443046.531

 112637642.016 8  87769678.74546  21434249.469                    21434250.652
        49.200          38.400
 129241717.583 5                  24593888.852
        33.400
 113180819.308 8  88192771.64845  21537570.586                    21537573.738
        50.100          35.800
 116616443.416 7  90869923.92145  22191370.992                    22191377.801
        46.700          34.000
 114299910.283 8  89064856.64546  21750551.641                    21750557.621
        49.300          38.000
 115991846.232 8  90383365.82946  22072539.898                    22072543.578
        49.700          38.500
 122245448.741 5                  23262543.820
        33.200
 18  3 13 14 13 20.0000000  0 19R10R08R07G14G22R09G03R16R17R18R01R24
                                G19G25G12G32G24G17G01
                                  23494963.297

                  86194515.203 6  20695143.586                    20695144.805
                        40.800
                  95077255.985 5  22835868.727                    22835871.527
                        35.800
 122048202.119 5  95102547.10242  23225010.898                    23225014.875
        34.100          16.300
 123943662.691 6  96579466.41442  23585690.344                    23585691.535
        41.000          16.900
                  82669731.750 7  19904639.516                    19904640.043
                        44.400
 126190088.316 6  98329942.27042  24013171.297                    24013177.996
        36.600          15.600
                  85088321.473 6  20479774.125                    20479774.742
                        38.700
                  85088235.433 6  20443850.633                    20443852.309
                        41.400
                  86564346.557 7  20849679.047                    20849681.320
                        42.300
                  90277629.033 5  21713521.492                    21713524.629
                        30.200
                                  23443943.852

 112637464.524 8  87769540.44446  21434215.375                    21434217.094
        49.000          38.000
 129238133.306 5                  24593206.953
        33.500
 113178758.772 8  88191166.03046  21537178.375                    21537181.324
        50.800          36.600
 116616251.033 7  90869774.01545  22191334.469                    22191340.824
        46.900          34.200
 114302459.704 8  89066843.20746  21751036.688                    21751042.641
        50.300          39.000
 115993152.351 8  90384383.58846  22072788.734                    22072792.363
        50.000          38.100
 122248177.712 5                  23263062.148
        32.600
 18  3 13 14 13 21.0000000  0 19R10R08R07G14G22R09G03R16R17R18R01R24
                                G19G25G12G32G24G17G01
                                  23494198.602

                  86195538.511 6  20695389.133                    20695389.734
                        40.800
                  95080821.973 5  22836724.461                    22836728.094
                        34.300
 122046259.533 5  95101033.37842  23224640.523                    23224645.285
        33.700          16.300
 123942633.553 6  96578664.49142  23585494.578                    23585495.949
        40.400          17.400
                  82668656.118 7  19904380.984                    19904381.324
                        44.300
 126187721.958 6  98328098.35042  24012720.148                    24012727.184
        36.000          16.900
                  85090876.679 6  20480389.109                    20480389.484
                        38.600
                  85089631.129 6  20444185.492                    20444187.832
                        41.600
                  86562458.072 6  20849224.344                    20849226.430
                        41.900
                  90275726.929 5  21713064.328                    21713067.246
                        31.700
                                  23444837.289

 112637287.823 8  87769402.74046  21434181.914                    21434183.199
        49.100          38.400
 129234549.222 5                  24592525.547
        33.800
 113176698.860 8  88189560.90346  21536786.602                    21536789.617
        50.200          36.800
 116616059.380 7  90869624.67345  22191298.117                    22191304.570
        47.000          33.100
 114305009.721 8  89068830.23646  21751522.094                    21751528.059
        50.300          39.100
 115994459.142 8  90385401.85746  22073037.047                    22073040.844
        49.700          37.600
 122250907.321 5                  23263583.195
        33.300
 18  3 13 14 13 22.0000000  0 19R10R08R07G14G22R09G03R16R17R18R01R24
                                G19G25G12G32G24G17G01
                                  23493434.234

                  86196562.548 6  20695634.938                    20695635.418
                        40.600
                  95084388.213 5  22837581.188                    22837584.477
                        34.600
 122044317.448 5  95099520.06642  23224271.883                    23224275.574
        33.700          16.300
 123941604.979 6  96577863.03543  23585299.078                    23585299.887
        39.800          18.600
                  82667581.088 7  19904121.656                    19904122.145
                        44.500
 126185356.103 6  98326254.84442  24012270.813                    24012277.109
        36.500          16.900
                  85093432.362 6  20481003.641                    20481004.797
                        39.000
                  85091027.517 6  20444521.445                    20444523.074
                        41.800
                  86560570.109 7  20848769.602                    20848771.676
                        42.500
                  90273825.343 5  21712608.000                    21712609.918
                        30.100
                                  23445732.664

 112637111.859 8  87769265.61646  21434148.328                    21434149.914
        48.800          37.600
 129230965.255 5                  24591842.789
        33.700
 113174639.465 8  88187956.18846  21536394.023                    21536397.461
        50.200          36.600
 116615868.405 7  90869475.84945  22191261.734                    22191268.594
        47.300          33.200
 114307560.296 8  89070817.71246  21752007.250                    21752013.531
        49.900          38.500
 115995766.542 8  90386420.60246  22073285.797                    22073289.156
        49.400          37.500
 122253637.480 5                  23264102.617
        32.600
 18  3 13 14 13 23.0000000  0 19R10R08R07G14G22R09G03R16R17R18R01R24
                                G19G25G12G32G24G17G01
                  97400471.49113  23492669.141                    23492675.336
                        21.900
                  86197587.316 6  20695880.078                    20695881.125
                        41.200
                  95087954.781 5  22838437.547                    22838440.777
                        34.600
 122042375.838 5  95098007.12242  23223902.094                    23223906.195
        34.700          14.800
 123940576.924 6  96577061.92542  23585103.453                    23585103.988
        39.500          17.800
                  82666506.613 7  19903863.047                    19903863.809
                        44.400
 126182990.682 6  98324411.66542  24011820.344                    24011826.863
        37.200          16.900
                  85095988.516 6  20481618.773                    20481619.723
                        39.100
                  85092424.621 6  20444857.586                    20444859.598
                        41.800
                  86558682.735 7  20848314.883                    20848316.949
                        42.200
                  90271924.313 5  21712151.063                    21712152.637
                        31.500
                                  23446627.383

 112636936.646 8  87769129.07446  21434115.078                    21434116.246
        49.200          37.800
 129227381.528 5                  24591160.664
        35.000
 113172580.621 8  88186351.89646  21536002.508                    21536005.934
        50.100          37.000
 116615678.130 7  90869327.58245  22191225.570                    22191232.004
        47.000          33.400
 114310111.416 8  89072805.59946  21752493.023                    21752498.848
        50.200          38.900
 115997074.563 8  90387439.83746  22073534.938                    22073538.434
        49.500          37.700
 122256368.206 5                  23264620.945
        31.900
 18  3 13 14 13 24.0000000  0 19R10R08R07G14G22R09G03R16R17R18R01R24
                                G19G25G12G32G24G17G01
                                  23491903.594

                  86198612.852 6  20696126.875                    20696127.945
                        41.500
                  95091521.629 5  22839294.539                    22839297.887
                        35.400
 122040434.702 5  95096494.54142  23223533.633                    23223536.906
        34.600          16.300
 123939549.543 6  96576261.33243  23584907.414                    23584908.664
        39.400          18.300
                  82665432.776 7  19903604.914                    19903604.750
                        44.200
 126180625.742 5  98322568.85842  24011370.430                    24011376.820
        35.900          15.600
                  85098545.168 6  20482234.477                    20482234.594
                        39.500
                  85093822.446 6  20445193.453                    20445194.906
                        41.800
                  86556795.987 7  20847861.086                    20847862.887
                        42.800
                  90270023.869 5  21711694.094                    21711695.445
                        31.200
                                  23447522.836

 112636762.241 8  87768993.15946  21434081.930                    21434083.391
        48.900          37.600
 129223797.952 5                  24590478.922
        35.800
 113170522.387 8  88184748.08146  21535610.859                    21535613.766
        50.700          37.900
 116615488.584 7  90869179.88645  22191189.219                    22191195.766
        47.000          34.000
 114312663.118 8  89074793.93246  21752978.523                    21752984.402
        50.000          38.900
 115998383.237 8  90388459.57946  22073783.930                    22073787.887
        49.300          37.400
 122259099.563 5                  23265141.469
        33.700
 18  3 13 14 13 25.0000000  0 19R10R08R07G14G22R09G03R16R17R18R01R24
                                G19G25G12G32G24G17G01
                                  23491137.805

                  86199639.042 6  20696373.398                    20696374.563
                        41.200
                  95095088.727 5  22840150.961                    22840154.230
                        34.400
 122038494.000 5  95094982.27042  23223163.469                    23223167.426
        34.200          15.600
 123938522.650 6  96575461.12442  23584712.961                    23584713.109
        39.700          17.800
                  82664359.487 7  19903345.859                    19903346.750
                        44.400
 126178261.242 5  98320726.38442  24010921.117                    24010926.754
        35.000          16.300
                  85101102.282 6  20482849.453                    20482850.359
                        39.500
                  85095220.885 6  20445529.250                    20445530.902
                        41.800
                  86554909.738 7  20847406.328                    20847408.711
                        42.600
                  90268123.975 5  21711236.563                    21711239.230
                        31.400
                                  23448418.570

 112636588.542 8  87768857.80046  21434049.039                    21434050.227
        48.800          37.700
 129220214.475 5                  24589796.875
        35.600
 113168464.623 8  88183144.63146  21535219.352                    21535222.457
        50.900          37.700
 116615299.661 7  90869032.68045  22191153.742                    22191160.059
        47.100          33.600
 114315215.303 8  89076782.63946  21753464.195                    21753469.910
        50.300          38.400
 115999692.465 8  90389479.76246  22074032.844                    22074036.816
        49.200          37.500
 122261831.443 5                  23265661.227
        33.200
 18  3 13 14 13 26.0000000  0 19R10R08R07G14G22R09G03R16R17R18R01R24
                                G19G25G12G32G24G17G01
                                  23490374.844

                  86200665.948 6  20696619.656                    20696621.426
                        41.200
                  95098656.131 5  22841007.414                    22841011.230
                        34.700
 122036553.775 5  95093470.41242  23222794.141                    23222798.430
        32.800          16.300
 123937496.365 6  96574661.43742  23584516.758                    23584517.855
        39.900          17.800
                  82663286.790 7  19903087.961                    19903088.473
                        44.200
 126175897.193 5  98318884.22642  24010470.625                    24010477.234
        34.200          16.900
                  85103659.903 6  20483465.484                    20483466.215
                        39.200
                  85096620.059 6  20445865.227                    20445866.898
                        41.900
                  86553024.063 7  20846952.164                    20846954.309
                        42.600
                  90266224.597 5  21710779.281                    21710782.578
                        31.600
                                  23449317.719

 112636415.676 8  87768723.09046  21434016.000                    21434017.703
        48.800          37.900
 129216631.183 5                  24589114.594
        35.000
 113166407.432 8  88181541.62146  21534827.609                    21534831.105
        50.900          37.500
 116615111.454 7  90868886.03945  22191117.695                    22191124.066
        47.300          34.100
 114317768.062 8  89078771.80546  21753949.914                    21753955.668
        50.000          38.100
 116001002.323 8  90390500.43546  22074282.266                    22074285.730
        49.300          37.600
 122264563.909 5                  23266181.500
        32.600
 18  3 13 14 13 27.0000000  0 19R10R08R07G14G22R09G03R16R17R18R01R24
                                G19G25G12G32G24G17G01
                                  23489608.547

                  86201693.584 6  20696866.672                    20696868.098
                        41.200
                  95102223.869 5  22841865.578                    22841868.070
                        33.800
 122034613.991 5  95091958.86042  23222425.313                    23222429.324
        31.500          15.600
 123936470.594 6  96573862.14143  23584321.930                    23584322.680
        39.200          18.300
                  82662214.689 7  19902829.750                    19902829.766
                        44.600
 126173533.593 5  98317042.44542  24010020.703                    24010027.410
        34.600          17.400
                  85106218.030 6  20484081.922                    20484082.180
                        39.500
                  85098019.934 7  20446201.305                    20446203.676
                        42.300
                  86551138.962 7  20846498.492                    20846500.391
                        42.800
                  90264325.777 5  21710322.781                    21710325.039
                        32.600
                                  23450214.156

 112636243.572 8  87768588.98446  21433983.109                    21433984.805
        48.300          38.800
 129213048.104 5                  24588432.367
        30.500
 113164350.847 8  88179939.09045  21534436.375                    21534439.711
        48.500          34.300
 116614923.943 7  90868739.93445  22191082.242                    22191088.438
        46.800          34.600
 114320321.394 8  89080761.41446  21754435.672                    21754442.020
        49.400          38.400
 116002312.793 8  90391521.58346  22074531.430                    22074535.449
        49.100          38.700
 122267296.870 5                  23266701.727
        33.400
 18  3 13 14 13 28.0000000  0 19R10R08R07G14G22R09G03R16R17R18R01R24
                                G19G25G12G32G24G17G01
                                  23488842.477

                  86202721.943 6  20697112.906                    20697114.527
                        41.100
                  95105791.899 5  22842722.531                    22842725.133
                        33.100
 122032674.812 5  95090447.82942  23222056.414                    23222060.535
        33.500          16.300
 123935445.508 6  96573063.40043  23584126.563                    23584127.223
        40.500          18.300
                  82661143.180 7  19902571.203                    19902572.195
                        44.400
 126171170.496 5  98315201.09542  24009570.461                    24009577.707
        35.100          17.800
                  85108776.679 6  20484697.742                    20484698.090
                        39.500
                  85099420.503 7  20446538.609                    20446539.523
                        42.600
                  86549254.449 7  20846043.836                    20846046.527
                        43.200
                  90262427.523 5  21709866.828                    21709869.730
                        32.700
                                  23451111.609

 112636072.250 8  87768455.50546  21433950.422                    21433951.984
        48.400          38.700
 129209465.068 4                  24587751.258
        28.900
 113162294.749 8  88178336.94945  21534045.234                    21534048.703
        48.500          33.600
 116614737.135 7  90868594.37245  22191046.195                    22191052.918
        46.700          33.900
 114322875.287 7  89082751.46145  21754921.813                    21754927.703
        47.300          35.400
 116003623.889 8  90392543.21946  22074781.031                    22074784.684
        49.500          39.600
 122270030.474 5                  23267222.852
        34.000
 18  3 13 14 13 29.0000000  0 19R10R08R07G14G22R09G03R16R17R18R01R24
                                G19G25G12G32G24G17G01
                                  23488076.797

                  86203751.047 6  20697360.406                    20697361.520
                        41.600
                  95109360.241 5  22843578.734                    22843581.676
                        35.300
 122030736.045 5  95088937.14142  23221686.164                    23221691.219
        32.800          16.900
 123934420.977 6  96572265.04743  23583932.063                    23583932.879
        40.400          19.300
                  82660072.257 7  19902313.844                    19902314.891
                        44.900
 126168807.903 5  98313360.18842  24009120.656                    24009127.965
        35.000          17.800
                  85111335.790 6  20485312.664                    20485313.586
                        39.500
                  85100821.748 7  20446874.570                    20446876.379
                        42.300
                  86547370.510 7  20845590.148                    20845592.781
                        43.300
                  90260529.790 5  21709410.094                    21709413.047
                        33.300
                                  23452007.164

 112635901.665 8  87768322.60446  21433917.977                    21433919.973
        48.600          38.600
 129205882.44614                  24587070.492
        28.000
 113160239.287 8  88176735.28945  21533654.266                    21533657.617
        48.300          34.400
 116614551.021 7  90868449.34445  22191011.078                    22191017.523
        46.400          34.000
 114325429.787 7  89084741.98445  21755408.070                    21755413.816
        47.600          35.500
 116004935.627 8  90393565.35446  22075030.773                    22075034.656
        49.100          38.600
 122272764.668 5                  23267742.758
        33.600
 18  3 13 14 13 30.0000000  0 19R10R08R07G14G22R09G03R16R17R18R01R24
                                G19G25G12G32G24G17G01
                                  23487310.977

                  86204780.852 6  20697607.047                    20697609.035
                        40.900
                  95112928.870 5  22844436.938                    22844439.609
                        35.400
 122028797.781 5  95087426.80842  23221318.352                    23221322.215
        34.100          15.600
 123933396.982 6  96571467.14743  23583736.898                    23583737.813
        40.500          19.600
                  82659001.945 7  19902056.172                    19902056.727
                        44.400
 126166445.662 5  98311519.49242  24008671.969                    24008678.574
        35.000          17.400
                  85113895.407 6  20485928.648                    20485929.965
                        40.500
                  85102223.710 7  20447211.031                    20447213.418
                        42.700
                  86545487.159 7  20845136.406                    20845139.047
                        43.400
                  90258632.611 5  21708954.414                    21708956.738
                        33.100
                                  23452903.875

 112635731.854 8  87768190.30346  21433885.648                    21433887.676
        48.200          38.500
 129202299.72114                  24586388.055
        28.900
 113158184.324 7  88175134.02145  21533262.898                    21533266.387
        47.500          34.000
 116614365.576 7  90868304.84745  22190976.023                    22190982.285
        46.600          33.000
 114327984.818 7  89086732.91745  21755894.008                    21755899.977
        47.600          34.900
 116006247.966 8  90394587.94846  22075280.336                    22075284.082
        49.300          37.900
 122275499.324 5                  23268262.891
        33.800
 18  3 13 14 13 31.0000000  0 19R10R08R07G14G22R09G03R16R17R18R01R24
                                G19G25G12G32G24G17G01
                                  23486547.164

                  86205811.438 6  20697855.008                    20697855.891
                        41.000
                  95116497.741 6  22845293.344                    22845297.012
                        37.100
 122026860.065 5  95085916.91142  23220948.820                    23220953.629
        35.300          16.300
 123932373.625 6  96570669.75643  23583542.461                    23583543.047
        40.800          19.000
                  82657932.252 7  19901798.586                    19901799.035
                        43.900
 126164083.937 5  98309679.17442  24008221.758                    24008229.066
        35.200          16.300
                  85116455.479 6  20486545.211                    20486545.887
                        39.300
                  85103626.379 7  20447549.063                    20447550.742
                        42.700
                  86543604.330 7  20844683.039                    20844685.180
                        43.900
                  90256736.072 5  21708498.164                    21708500.391
                        32.200
                                  23453800.492

 112635562.807 7  87768058.60446  21433853.492                    21433854.926
        47.500          37.600
 129198717.313 5                  24585706.883
        34.100
 113156129.987 8  88173533.23946  21532871.891                    21532875.438
        48.900          36.400
 116614180.856 7  90868160.90645  22190940.227                    22190947.164
        46.400          33.300
 114330540.422 7  89088724.29844  21756380.109                    21756386.359
        44.700          29.300
 116007560.934 8  90395611.02846  22075530.227                    22075534.324
        49.300          38.400
 122278234.768 5                  23268783.297
        35.400
 18  3 13 14 13 32.0000000  0 19R10R08R07G14G22R09G03R16R17R18R01R24
                                G19G25G12G32G24G17G01
                  97371920.22113  23485782.383                    23485789.332
                        21.400
                  86206842.703 6  20698102.531                    20698103.902
                        41.800
                  95120066.948 5  22846149.891                    22846154.504
                        35.100
 122024922.758 5  95084407.30842  23220580.531                    23220584.902
        33.700          15.600
 123931350.781 6  96569872.72143  23583347.516                    23583348.609
        38.100          18.600
                  82656863.132 7  19901541.086                    19901541.074
                        44.300
 126161722.660 6  98307839.24042  24007772.570                    24007779.781
        36.200          17.400
                  85119016.073 6  20487161.766                    20487162.211
                        39.600
                  85105029.749 6  20447885.828                    20447887.602
                        41.800
                  86541722.090 7  20844229.398                    20844231.383
                        43.100
                  90254840.016 5  21708041.867                    21708043.996
                        31.200
                                  23454695.406

 112635394.583 8  87767927.52346  21433821.672                    21433823.250
        48.700          38.200
 129195134.898 5                  24585023.844
        34.100
 113154076.135 8  88171932.82246  21532481.336                    21532484.727
        51.000          39.700
 116613996.792 7  90868017.47745  22190905.938                    22190911.922
        46.900          34.300
 114333096.534 8  89090716.08846  21756866.813                    21756872.824
        48.800          36.700
 116008874.482 8  90396634.56546  22075780.461                    22075784.063
        49.600          37.700
 122280970.609 5                  23269303.445
        33.600
 18  3 13 14 13 33.0000000  0 19R10R08R07G14G22R09G03R16R17R18R01R24
                                G19G25G12G32G24G17G01
                  97368748.01513  23485016.664                    23485024.027
                        22.500
                  86207874.712 6  20698350.961                    20698351.781
                        41.900
                  95123636.439 6  22847007.492                    22847011.023
                        36.300
 122022986.029 5  95082898.22542  23220212.922                    23220216.242
        35.700          16.300
 123930328.616 6  96569076.20442  23583153.352                    23583154.023
        38.600          17.800
                  82655794.638 7  19901283.820                    19901283.727
                        44.200
 126159361.900 5  98305999.73842  24007323.398                    24007330.398
        35.200          17.400
                  85121577.188 6  20487777.195                    20487778.902
                        40.900
                  85106433.826 6  20448223.234                    20448224.895
                        41.600
                  86539840.453 7  20843776.781                    20843778.992
                        43.400
                  90252944.595 5  21707585.203                    21707587.895
                        31.100
                                  23455590.828

 112635227.119 8  87767797.02146  21433789.289                    21433791.090
        48.000          38.000
 129191552.889 5                  24584342.461
        34.000
 113152022.863 8  88170332.89146  21532090.883                    21532094.133
        48.800          36.300
 116613813.510 7  90867874.67645  22190870.492                    22190876.984
        47.300          34.700
 114335653.266 8  89092708.35046  21757353.016                    21757359.000
        48.300          36.500
 116010188.731 8  90397658.64546  22076030.242                    22076034.219
        49.700          38.600
 122283707.172 5                  23269824.688
        33.400
 18  3 13 14 13 34.0000000  0 19R10R08R07G14G22R09G03R16R17R18R01R24
                                G19G25G12G32G24G17G01
                  97365576.452 3  23484251.648                    23484259.234
                        22.500
                  86208907.407 6  20698599.688                    20698599.707
                        41.500
                  95127206.259 5  22847865.469                    22847869.172
                        35.600
 122021049.683 5  95081389.37342  23219844.797                    23219848.133
        34.600          16.300
 123929306.979 6  96568280.13442  23582958.609                    23582959.355
        38.000          17.400
                  82654726.703 7  19901026.930                    19901027.094
                        43.700
 126157001.527 6  98304160.48642  24006874.883                    24006881.207
        36.200          17.800
                  85124138.810 6  20488394.242                    20488395.141
                        40.200
                  85107838.597 7  20448560.703                    20448562.543
                        42.100
                  86537959.390 7  20843323.391                    20843325.664
                        42.800
                  90251049.665 5  21707129.695                    21707131.688
                        30.400
                                  23456486.570

 112635060.402 8  87767667.11246  21433758.102                    21433759.535
        48.800          38.500
 129187970.953 5                  24583660.680
        32.600
 113149970.173 8  88168733.42546  21531699.859                    21531702.980
        49.300          36.400
 116613630.879 7  90867732.38345  22190836.063                    22190842.008
        47.200          34.300
 114338210.531 8  89094701.02546  21757839.656                    21757845.801
        48.900          36.400
 116011503.552 8  90398683.16346  22076280.656                    22076284.363
        50.400          39.000
 122286444.210 5                  23270345.672
        34.300
 18  3 13 14 13 35.0000000  0 19R10R08R07G14G22R09G03R16R17R18R01R24
                                G19G25G12G32G24G17G01
                  97362405.057 3  23483485.070                    23483493.742
                        23.000
                  86209940.848 7  20698847.055                    20698848.027
                        42.000
                  95130776.395 5  22848723.438                    22848726.598
                        35.400
 122019113.928 5  95079880.96642  23219475.484                    23219479.570
        35.300          17.400
 123928285.906 6  96567484.48542  23582763.586                    23582765.043
        37.500          16.900
                  82653659.374 7  19900769.891                    19900770.563
                        43.900
 126154641.660 5  98302321.63542  24006425.609                    24006432.633
        35.000          17.400
                  85126700.908 6  20489010.242                    20489012.063
                        40.300
                  85109244.082 6  20448898.602                    20448899.945
                        41.800
                  86536078.870 7  20842870.625                    20842872.602
                        43.300
                  90249155.322 5  21706674.875                    21706676.883
                        31.300
                                  23457383.703

 112634894.510 8  87767537.86146  21433726.453                    21433727.805
        48.200          38.100
 129184389.175 5                  24582980.000
        33.900
 113147918.056 8  88167134.38046  21531309.469                    21531312.922
        50.100          36.700
 116613448.950 7  90867590.62945  22190801.406                    22190807.434
        46.800          34.600
 114340768.379 8  89096694.15046  21758326.563                    21758332.512
        48.800          36.700
 116012819.013 8  90399708.18646  22076531.102                    22076534.789
        49.800          38.800
 122289181.899 5                  23270866.086
        34.500
 18  3 13 14 13 36.0000000  0 19R10R08R07G14G22R09G03R16R17R18R01R24
                                G19G25G12G32G24G17G01
                  97359233.640 3  23482720.531                    23482728.535
                        23.200
                  86210975.040 7  20699095.227                    20699096.145
                        42.200
                  95134346.862 6  22849580.414                    22849584.273
                        36.000
 122017178.604 5  95078372.90742  23219107.148                    23219111.750
        34.300          16.300
 123927265.424 6  96566689.31743  23582569.422                    23582570.992
        38.600          18.300
                  82652592.667 7  19900512.914                    19900513.660
                        43.900
 126152282.149 5  98300483.07742  24005975.672                    24005983.137
        34.300          17.400
                  85129263.477 6  20489627.898                    20489629.254
                        39.800
                  85110650.268 7  20449235.672                    20449237.258
                        42.100
                  86534198.895 7  20842417.406                    20842419.461
                        42.300
                  90247261.532 5  21706218.633                    21706221.547
                        31.800
                                  23458279.656

 112634729.358 8  87767409.19646  21433694.922                    21433696.344
        48.900          39.200
 129180807.576 5                  24582297.602
        32.500
 113145866.498 8  88165535.75946  21530919.000                    21530921.859
        50.100          37.100
 116613267.704 7  90867449.40145  22190766.609                    22190772.984
        47.600          34.800
 114343326.778 8  89098687.70645  21758813.695                    21758819.438
        48.700          35.800
 116014135.089 8  90400733.68246  22076781.602                    22076784.953
        50.700          39.200
 122291920.162 6                  23271387.813
        37.100
 18  3 13 14 13 37.0000000  0 19R10R08R07G14G22R09G03R16R17R18R01R24
                                G19G25G12G32G24G17G01
                  97356062.329 3  23481955.211                    23481963.840
                        22.700
                  86212009.903 6  20699343.250                    20699344.453
                        41.400
                  95137917.582 5  22850437.977                    22850441.750
                        34.800
 122015243.713 5  95076865.19342  23218739.352                    23218743.023
        34.800          16.900
 123926245.461 6  96565894.54442  23582375.688                    23582376.684
        38.000          17.800
                  82651526.490 7  19900256.453                    19900256.355
                        44.100
 126149923.170 5  98298644.91542  24005527.531                    24005534.492
        33.800          16.900
                  85131826.491 6  20490244.500                    20490245.703
                        39.800
                  85112057.087 6  20449574.563                    20449576.191
                        41.900
                  86532319.479 7  20841965.633                    20841967.059
                        42.600
                  90245368.218 5  21705763.258                    21705765.551
                        31.800
                                  23459176.359

 112634564.927 8  87767281.09446  21433663.555                    21433665.156
        48.500          38.900
 129177226.086 5                  24581617.094
        34.300
 113143815.433 8  88163937.52446  21530528.930                    21530531.805
        50.100          36.900
 116613087.119 7  90867308.69245  22190732.203                    22190738.598
        47.100          34.200
 114345885.646 8  89100681.63446  21759300.578                    21759306.066
        48.900          36.500
 116015451.742 8  90401759.62946  22077031.875                    22077035.758
        50.200          38.300
 122294658.887 6                  23271909.477
        36.400
 18  3 13 14 13 38.0000000  0 19R10R08R07G14G22R09G03R16R17R18R01R24
                                G19G25G12G32G24G17G01
                  97352891.197 3  23481191.617                    23481198.660
                        22.700
                  86213045.520 6  20699592.445                    20699593.598
                        40.900
                  95141488.613 5  22851295.156                    22851298.902
                        35.000
 122013309.379 5  95075357.90242  23218371.117                    23218375.180
        34.300          16.300
 123925226.152 6  96565100.28843  23582181.516                    23582182.391
        38.100          18.600
                  82650460.970 7  19899999.992                    19900000.004
                        44.300
 126147564.664 5  98296807.12442  24005078.016                    24005085.391
        35.600          16.900
                  85134390.050 6  20490861.133                    20490862.551
                        39.700
                  85113464.644 6  20449911.961                    20449914.004
                        41.600
                  86530440.702 7  20841512.797                    20841514.699
                        43.000
                  90243475.531 5  21705307.953                    21705309.980
                        31.200
                                  23460074.805

 112634401.332 8  87767153.64946  21433632.469                    21433634.148
        48.800          38.300
 129173644.854 5                  24580935.406
        33.700
 113141764.984 8  88162339.76846  21530138.836                    21530141.770
        50.700          36.900
 116612907.270 7  90867168.55745  22190698.313                    22190704.664
        46.700          34.700
 114348445.156 8  89102676.05746  21759787.469                    21759793.574
        48.800          36.700
 116016769.050 8  90402786.09146  22077282.547                    22077286.633
        49.500          37.700
 122297398.341 5                  23272429.984
        33.600
 18  3 13 14 13 39.0000000  0 19R10R08R07G14G22R09G03R16R17R18R01R24
                                G19G25G12G32G24G17G01
                  97349720.146 3  23480425.258                    23480433.766
                        21.600
                  86214081.873 6  20699840.820                    20699841.574
                        40.400
                  95145059.957 5  22852153.773                    22852156.844
                        34.600
 122011375.579 5  95073851.04342  23218002.680                    23218007.555
        33.700          16.900
 123924207.385 6  96564306.43843  23581988.047                    23581989.152
        37.800          18.600
                  82649396.038 7  19899743.266                    19899744.152
                        44.100
 126145206.685 6  98294969.73842  24004630.359                    24004637.223
        36.300          15.600
                  85136954.115 6  20491478.836                    20491480.008
                        39.700
                  85114872.923 6  20450250.398                    20450252.809
                        41.700
                  86528562.515 7  20841060.297                    20841061.887
                        43.300
                  90241583.400 5  21704853.172                    21704855.297
                        31.900
                                  23460970.367

 112634238.494 8  87767026.79346  21433601.250                    21433602.941
        49.100          37.900
 129170063.774 5                  24580253.852
        34.300
 113139715.132 8  88160742.47946  21529748.539                    21529751.512
        50.400          36.000
 116612728.114 7  90867028.96545  22190664.016                    22190670.387
        46.700          34.700
 114351005.237 8  89104670.93046  21760274.469                    21760280.715
        48.500          36.800
 116018087.002 8  90403813.05346  22077533.320                    22077537.090
        50.000          38.300
 122300138.251 5                  23272950.883
        34.300
 18  3 13 14 13 40.0000000  0 19R10R08R07G14G22R09G03R16R17R18R01R24
                                G19G25G12G32G24G17G01
                  97346549.234 3  23479661.016                    23479668.793
                        22.100
                  86215118.972 6  20700089.664                    20700091.059
                        40.900
                  95148631.568 5  22853011.773                    22853014.621
                        35.300
 122009442.205 5  95072344.50942  23217634.289                    23217639.453
        34.600          16.300
 123923189.235 6  96563513.05542  23581793.742                    23581794.703
        36.300          17.800
                  82648331.708 7  19899487.211                    19899487.566
                        44.000
 126142849.069 5  98293132.63642  24004182.039                    24004188.270
        34.700          15.600
                  85139518.694 6  20492095.789                    20492097.141
                        39.600
                  85116281.888 6  20450588.883                    20450590.813
                        41.500
                  86526684.901 7  20840607.969                    20840609.758
                        43.800
                  90239691.823 5  21704398.367                    21704400.379
                        31.600
                                  23461866.500

 112634076.447 8  87766900.54846  21433570.320                    21433572.141
        49.400          37.300
 129166482.870 5                  24579571.969
        34.100
 113137665.831 8  88159145.61546  21529358.844                    21529361.852
        50.800          36.400
 116612549.699 7  90866889.94045  22190630.336                    22190636.645
        47.000          34.900
 114353565.836 8  89106666.20046  21760762.039                    21760767.797
        48.300          36.300
 116019405.571 8  90404840.50746  22077784.297                    22077788.594
        49.900          38.200
 122302878.782 5                  23273472.859
        31.500
 18  3 13 14 13 41.0000000  0 19R10R08R07G14G22R09G03R16R17R18R01R24
                                G19G25G12G32G24G17G01
                  97343378.470 3  23478896.992                    23478904.473
                        21.900
                  86216156.748 6  20700339.023                    20700340.555
                        40.400
                  95152203.489 5  22853869.070                    22853872.648
                        35.100
 122007509.364 5  95070838.40042  23217267.227                    23217271.703
        34.300          16.900
 123922171.630 5  96562720.08442  23581600.102                    23581601.063
        35.900          16.300
                  82647267.945 7  19899231.000                    19899231.496
                        44.000
 126140491.968 5  98291295.94342  24003732.305                    24003739.797
        34.000          14.800
                  85142083.751 6  20492713.930                    20492714.289
                        39.100
                  85117691.517 6  20450928.445                    20450929.785
                        41.400
                  86524807.854 7  20840155.695                    20840158.102
                        43.100
                  90237800.790 5  21703943.219                    21703945.297
                        30.300
                                  23462763.297

 112633915.147 8  87766774.89146  21433540.000                    21433541.262
        49.200          37.600
 129162902.114 5                  24578890.289
        33.400
 113135617.067 8  88157549.17646  21528968.695                    21528971.773
        50.200          36.500
 116612371.910 7  90866751.39645  22190596.023                    22190602.574
        46.900          33.700
 114356126.984 8  89108661.89646  21761249.203                    21761255.195
        48.600          36.400
 116020724.737 8  90405868.42446  22078035.344                    22078039.004
        49.900          38.200
 122305619.861 5                  23273994.578
        31.000
 18  3 13 14 13 42.0000000  0 19R10R08R07G14G22R09G03R16R17R18R01R24
                                G19G25G12G32G24G17G01
                  97340207.935 3  23478131.617                    23478139.148
                        22.100
                  86217195.239 6  20700588.172                    20700589.496
                        40.400
                  95155775.685 5  22854728.297                    22854730.398
                        34.800
 122005576.990 5  95069332.62542  23216899.313                    23216904.086
        32.000          15.600
 123921154.605 6  96561927.63642  23581406.930                    23581407.891
        36.200          16.900
                  82646204.802 7  19898975.039                    19898975.320
                        43.800
 126138135.376 5  98289459.64542  24003284.023                    24003291.070
        33.400          15.600
                  85144649.300 6  20493330.750                    20493332.133
                        39.300
                  85119101.830 6  20451267.195                    20451268.371
                        41.200
                  86522931.343 7  20839703.805                    20839706.438
                        42.700
                  90235910.323 5  21703488.805                    21703491.648
                        30.600
                                  23463660.188

 112633754.606 8  87766649.82346  21433508.992                    21433510.406
        48.900          37.000
 129159321.525 5                  24578208.086
        33.900
 113133568.892 8  88155953.19146  21528578.938                    21528582.125
        49.600          36.600
 116612194.845 7  90866613.41745  22190562.484                    22190569.156
        47.300          34.300
 114358688.743 8  89110658.07446  21761736.602                    21761742.934
        48.100          36.000
 116022044.529 8  90406896.82446  22078286.625                    22078290.297
        49.500          38.000
 122308361.593 5                  23274515.992
        30.700
 18  3 13 14 13 43.0000000  0 19R10R08R07G14G22R09G03R16R17R18R01R24
                                G19G25G12G32G24G17G01
                  97337037.352 3  23477367.266                    23477373.965
                        22.500
                  86218234.477 6  20700837.742                    20700839.070
                        40.600
                  95159348.158 6  22855586.773                    22855588.609
                        36.000
 122003645.055 5  95067827.19742  23216532.180                    23216536.828
        33.500          13.900
 123920138.157 6  96561135.59342  23581212.578                    23581214.313
        36.400          16.900
                  82645142.225 7  19898719.180                    19898719.891
                        44.000
 126135778.968 5  98287623.45542  24002836.102                    24002842.750
        33.500          16.900
                  85147215.347 6  20493948.313                    20493949.258
                        39.900
                  85120512.858 6  20451606.047                    20451607.223
                        41.500
                  86521055.405 7  20839252.445                    20839254.043
                        43.300
                  90234020.437 5  21703034.180                    21703035.805
                        30.300
                                  23464559.336

 112633594.771 8  87766525.28946  21433478.805                    21433479.883
        48.700          36.900
 129155741.166 5                  24577527.617
        32.900
 113131521.224 8  88154357.59746  21528189.086                    21528192.344
        50.100          38.300
 116612018.449 7  90866475.96045  22190529.258                    22190535.465
        47.100          34.500
 114361251.046 8  89112654.67045  21762224.891                    21762230.313
        48.000          35.300
 116023364.938 8  90407925.69346  22078537.945                    22078541.691
        49.300          38.300
 122311103.732 5                  23275038.563
        33.400
 18  3 13 14 13 44.0000000  0 19R10R08R07G14G22R09G03R16R17R18R01R24
                                G19G25G12G32G24G17G01
                  97333866.916 3  23476602.648                    23476610.395
                        22.300
                  86219274.450 6  20701087.758                    20701089.152
                        40.000
                  95162920.968 5  22856444.141                    22856446.277
                        34.200
 122001713.688 5  95066322.28742  23216164.078                    23216168.621
        34.700          13.900
 123919122.355 5  96560344.08342  23581019.641                    23581021.219
        35.800          16.300
                  82644080.295 7  19898463.438                    19898463.215
                        44.100
 126133423.338 5  98285787.91742  24002386.750                    24002394.660
        33.400          16.300
                  85149781.871 6  20494566.047                    20494567.313
                        38.700
                  85121924.595 6  20451945.547                    20451946.902
                        41.400
                  86519180.057 7  20838800.102                    20838802.484
                        42.400
                  90232131.101 5  21702579.969                    21702582.094
                        31.700
                                  23465455.063

 112633435.803 8  87766401.41446  21433448.711                    21433450.117
        49.000          37.700
 129152160.851 5                  24576845.516
        32.200
 113129474.203 8  88152762.51446  21527799.563                    21527802.918
        49.700          37.300
 116611842.811 7  90866339.10345  22190495.727                    22190502.129
        46.700          33.600
 114363813.893 8  89114651.69946  21762711.969                    21762718.402
        48.800          36.800
 116024685.981 8  90408955.04646  22078789.359                    22078792.770
        49.100          37.700
 122313846.552 5                  23275560.133
        32.000
 18  3 13 14 13 45.0000000  0 19R10R08R07G14G22R09G03R16R17R18R01R24
                                G19G25G12G32G24G17G01
                  97330696.761 3  23475838.719                    23475845.723
                        23.800
                  86220315.141 6  20701338.172                    20701338.355
                        39.600
                  95166494.114 5  22857302.625                    22857304.727
                        35.700
 121999782.660 5  95064817.59342  23215796.289                    23215801.480
        32.600          15.600
 123918107.142 6  96559553.00942  23580825.516                    23580827.570
        36.000          16.300
                  82643018.894 7  19898207.594                    19898208.258
                        44.200
 126131068.064 5  98283952.65442  24001939.016                    24001945.891
        34.300          14.800
                  85152348.887 6  20495184.359                    20495185.453
                        38.900
                  85123337.054 6  20452284.594                    20452285.754
                        41.500
                  86517305.281 7  20838349.000                    20838350.730
                        42.300
                  90230242.312 5  21702124.758                    21702127.195
                        30.500
                                  23466352.742

 112633277.570 8  87766278.11846  21433418.672                    21433420.258
        49.300          37.900
 129148580.805 5                  24576164.109
        31.500
 113127427.683 8  88151167.82646  21527410.141                    21527413.410
        50.000          37.800
 116611667.808 7  90866202.75345  22190462.250                    22190468.941
        46.400          33.200
 114366377.284 8  89116649.14546  21763199.125                    21763206.242
        48.100          36.400
 116026007.634 8  90409984.87746  22079040.922                    22079044.012
        49.900          38.300
 122316590.057 5                  23276081.547
        31.800
 18  3 13 14 13 46.0000000  0 19R10R08R07G14G22R09G03R16R17R18R01R24
                                G19G25G12G32G24G17G01
                  97327526.580 3  23475073.000                    23475080.625
                        20.600
                  86221356.560 6  20701587.570                    20701588.453
                        40.100
                  95170067.499 5  22858159.953                    22858162.684
                        35.300
 121997852.222 5  95063313.36842  23215428.391                    23215433.852
        31.300          15.600
 123917092.367 6  96558762.27742  23580632.875                    23580634.672
        38.100          17.400
                  82641958.117 7  19897952.531                    19897952.953
                        44.000
 126128713.235 5  98282117.70442  24001491.227                    24001498.316
        35.700          15.600
                  85154916.395 6  20495801.625                    20495802.980
                        38.700
                  85124750.191 6  20452623.711                    20452625.328
                        41.400
                  86515431.065 7  20837897.805                    20837899.383
                        42.400
                  90228354.105 5  21701670.508                    21701673.727
                        31.200
                                  23467248.383

 112633120.069 8  87766155.40446  21433388.594                    21433390.117
        48.500          37.800
 129145000.857 5                  24575483.227
        33.700
 113125381.697 8  88149573.56346  21527021.180                    21527023.922
        49.500          36.800
 116611493.504 7  90866066.94045  22190429.078                    22190435.523
        47.000          34.600
 114368941.233 8  89118647.02246  21763687.430                    21763693.691
        48.600          36.900
 116027329.893 8  90411015.19246  22079292.641                    22079296.109
        50.000          38.100
 122319333.991 5                  23276604.688
        33.300
 18  3 13 14 13 47.0000000  0 19R10R08R07G14G22R09G03R16R17R18R01R24
                                G19G25G12G32G24G17G01
                                  23474308.875

                  86222398.673 6  20701838.492                    20701838.977
                        41.400
                  95173641.186 5  22859018.664                    22859021.309
                        35.600
 121995922.308 5  95061809.54642  23215061.781                    23215066.871
        32.300          15.600
 123916078.267 6  96557972.04542  23580439.898                    23580442.004
        37.600          16.900
                  82640897.933 7  19897696.992                    19897698.148
                        44.100
 126126358.747 5  98280283.03542  24001044.141                    24001050.102
        35.900          16.300
                  85157484.371 6  20496419.227                    20496421.434
                        39.800
                  85126163.992 7  20452963.898                    20452964.992
                        42.000
                  86513557.431 7  20837446.297                    20837447.945
                        43.200
                  90226466.425 5  21701216.836                    21701219.879
                        31.100
                                  23468146.320

 112632963.327 8  87766033.27146  21433358.781                    21433360.410
        49.000          38.800
 129141421.015 5                  24574803.656
        34.400
 113123336.293 8  88147979.75446  21526632.180                    21526634.668
        50.300          36.100
 116611319.897 7  90865931.66345  22190396.055                    22190402.566
        47.000          34.000
 114371505.637 7  89120645.24945  21764176.156                    21764181.961
        47.800          34.700
 116028652.753 8  90412045.99046  22079544.156                    22079547.711
        50.100          38.900
 122322078.444 5                  23277125.742
        32.500
 18  3 13 14 13 48.0000000  0 19R10R08R07G14G22R09G03R16R17R18R01R24
                                G19G25G12G32G24G17G01
                                  23473543.695

                  86223441.530 6  20702088.758                    20702088.789
                        41.800
                  95177215.139 5  22859876.414                    22859879.902
                        33.800
 121993992.848 5  95060306.11442  23214696.078                    23214699.770
        35.000          16.300
 123915064.763 6  96557182.31242  23580247.516                    23580248.809
        37.200          17.400
                  82639838.343 7  19897442.453                    19897442.449
                        44.400
 126124004.994 5  98278448.93642  24000594.875                    24000602.301
        32.800          16.300
                  85160052.899 6  20497038.344                    20497038.984
                        39.500
                  85127578.522 7  20453304.305                    20453305.703
                        42.300
                  86511684.392 7  20836995.039                    20836997.059
                        43.000
                  90224579.290 5  21700763.047                    21700766.066
                        31.100
                                  23469043.953

 112632807.399 8  87765911.76546  21433328.969                    21433330.426
        48.300          38.600
 129137841.469 5                  24574121.945
        31.800
 113121291.478 8  88146386.39246  21526242.828                    21526245.895
        50.500          36.300
 116611146.994 7  90865796.92945  22190363.219                    22190369.297
        47.100          35.100
 114374070.705 8  89122644.01446  21764663.672                    21764669.777
        48.400          36.000
 116029976.291 8  90413077.31146  22079795.867                    22079799.848
        49.500          38.600
 122324823.627 5                  23277648.414
        33.900
 18  3 13 14 13 49.0000000  0 19R10R08R07G14G22R09G03R16R17R18R01R24
                                G19G25G12G32G24G17G01
                                  23472778.547

                  86224485.118 6  20702339.383                    20702340.168
                        41.700
                  95180789.468 5  22860735.281                    22860738.387
                        34.500
 121992063.843 5  95058803.01842  23214328.602                    23214332.387
        35.500          16.300
 123914051.713 6  96556392.91442  23580055.039                    23580056.285
        38.200          16.900
                  82638779.356 7  19897186.492                    19897187.469
                        44.200
 126121651.460 5  98276615.01342  24000147.047                    24000154.586
        34.200          17.800
                  85162621.875 6  20497656.492                    20497657.574
                        39.600
                  85128993.738 6  20453643.359                    20453645.184
                        41.900
                  86509811.911 7  20836543.648                    20836545.934
                        43.400
                  90222692.733 5  21700309.484                    21700312.348
                        31.700
                                  23469940.977

 112632652.199 8  87765790.81646  21433299.625                    21433301.230
        49.100          38.600
 129134262.116 4                  24573441.266
        29.400
 113119247.213 8  88144793.45446  21525853.828                    21525856.727
        50.700          36.500
 116610974.785 7  90865662.73245  22190330.727                    22190336.770
        47.000          34.200
 114376636.354 7  89124643.22745  21765151.711                    21765158.016
        47.700          34.500
 116031300.420 8  90414109.08746  22080047.984                    22080051.926
        49.200          38.100
 122327569.391 5                  23278171.453
        32.900
 18  3 13 14 13 50.0000000  0 19R10R08R07G14G22R09G03R16R17R18R01R24
                                G19G25G12G32G24G17G01
                                  23472013.414

                  86225529.377 6  20702588.477                    20702590.453
                        41.400
                  95184363.988 5  22861594.078                    22861597.133
                        35.300
 121990135.352 5  95057300.28342  23213962.078                    23213965.754
        34.800          17.400
 123913039.367 6  96555604.06742  23579862.000                    23579864.074
        37.600          16.900
                  82637720.936 7  19896932.273                    19896932.676
                        44.800
 126119298.41915                  23999697.938
        32.600
                  85165191.327 6  20498274.969                    20498276.270
                        39.100
                  85130409.617 7  20453983.523                    20453984.738
                        42.400
                  86507939.968 7  20836092.813                    20836095.574
                        42.500
                  90220806.690 5  21699855.109                    21699858.418
                        32.500
                                  23470838.734

 112632497.761 8  87765670.47946  21433270.148                    21433271.336
        49.000          38.200
 129130682.84315                  24572758.867
        32.900
 113117203.501 8  88143200.95046  21525464.555                    21525468.066
        51.800          39.000
 116610803.268 7  90865529.07345  22190297.883                    22190303.699
        47.600          34.600
 114379202.485 8  89126642.80846  21765640.688                    21765646.082
        51.200          40.500
 116032625.157 8  90415141.34546  22080299.938                    22080303.711
        49.900          38.900
 122330315.572 5                  23278693.648
        34.300
 18  3 13 14 13 51.0000000  0 19R10R08R07G14G22R09G03R16R17R18R01R24
                                G19G25G12G32G24G17G01
                                  23471251.633

                  86226574.320 6  20702840.055                    20702841.473
                        41.600
                  95187938.842 5  22862452.102                    22862455.852
                        34.100
 121988207.282 5  95055797.90342  23213595.086                    23213598.391
        33.900          16.300
 123912027.462 6  96554815.57442  23579669.203                    23579671.008
        36.600          17.800
                  82636663.111 7  19896677.383                    19896678.398
                        44.400
 126116945.85315                  23999251.047
        31.800
                  85167761.212 6  20498893.422                    20498895.168
                        39.400
                  85131826.167 7  20454323.844                    20454325.578
                        42.100
                  86506068.604 7  20835642.375                    20835644.375
                        42.400
                  90218921.215 5  21699402.148                    21699404.898
                        31.900
                                  23471737.000

 112632344.081 8  87765550.75346  21433240.984                    21433242.461
        48.700          37.700
 129127103.74715                  24572078.078
        32.800
 113115160.316 8  88141608.84846  21525075.984                    21525078.949
        51.900          39.000
 116610632.403 7  90865395.92745  22190265.273                    22190271.695
        47.500          34.600
 114381769.154 8  89128642.81046  21766128.875                    21766135.055
        51.000          39.200
 116033950.499 8  90416174.06446  22080552.344                    22080556.039
        50.200          38.800
 122333062.387 5                  23279217.164
        31.900
 18  3 13 14 13 52.0000000  0 19R10R08R07G14G22R09G03R16R17R18R01R24
                                G19G25G12G32G24G17G01
                  97308489.74613  23470487.227                    23470490.105
                        22.100
                  86227619.973 6  20703090.875                    20703092.926
                        41.600
                  95191513.923 5  22863310.180                    22863314.379
                        35.100
 121986279.736 5  95054295.91242  23213227.508                    23213231.754
        33.700          15.600
 123911016.241 6  96554027.57442  23579476.977                    23579478.363
        36.200          17.800
                  82635605.853 7  19896422.797                    19896423.395
                        44.400
 126114593.70515                  23998803.055
        33.300
                  85170331.610 6  20499512.023                    20499513.852
                        39.200
                  85133243.388 7  20454664.305                    20454666.133
                        42.300
                  86504197.816 7  20835191.641                    20835193.832
                        42.400
                  90217036.294 5  21698949.109                    21698951.898
                        32.100
                                  23472634.766

 112632191.146 8  87765431.60846  21433211.805                    21433213.625
        48.300          37.900
 129123524.74415                  24571397.266
        33.800
 113113117.648 8  88140017.14946  21524686.977                    21524690.512
        51.700          39.000
 116610462.210 7  90865263.30545  22190233.047                    22190239.070
        46.000          32.900
 114384336.368 8  89130643.24946  21766616.961                    21766623.137
        50.300          38.800
 116035276.439 8  90417207.25046  22080804.789                    22080808.426
        50.000          37.900
 122335809.743 5                  23279738.719
        31.500
 18  3 13 14 13 53.0000000  0 19R10R08R07G14G22R09G03R16R17R18R01R24
                                G19G25G12G32G24G17G01
                  97305319.93113  23469723.047                    23469725.910
                        22.100
                  86228666.347 6  20703342.594                    20703344.285
                        41.600
                  95195089.354 5  22864168.813                    22864173.031
                        34.400
 121984352.601 5  95052794.21942  23212861.492                    23212864.988
        33.600          15.600
 123910005.535 6  96553240.00243  23579284.539                    23579286.293
        36.700          18.300
                  82634549.205 7  19896168.789                    19896168.766
                        44.500
 126112242.08415                  23998357.055
        34.600
                  85172902.500 6  20500131.188                    20500131.973
                        39.400
                  85134661.308 7  20455005.453                    20455006.602
                        42.300
                  86502327.578 7  20834741.672                    20834743.586
                        42.800
                  90215151.875 5  21698496.289                    21698498.352
                        32.100
                                  23473533.758

 112632038.920 8  87765313.01446  21433182.828                    21433184.375
        48.100          37.600
 129119945.92515                  24570716.273
        32.600
 113111075.517 8  88138425.88146  21524298.766                    21524301.617
        52.300          38.400
 116610292.716 7  90865131.23645  22190200.516                    22190206.707
        46.200          33.300
 114386904.131 8  89132644.10746  21767105.727                    21767112.027
        50.300          38.900
 116036602.966 8  90418240.88846  22081057.117                    22081061.102
        49.900          37.300
 122338557.673 5                  23280262.484
        34.400
 18  3 13 14 13 54.0000000  0 19R10R08R07G14G22R09G03R16R17R18R01R24
                                G19G25G12G32G24G17G01
                  97302150.752 3  23468958.188                    23468961.434
                        21.600
                  86229713.488 6  20703593.602                    20703595.289
                        40.900
                  95198665.068 5  22865028.289                    22865031.684
                        35.000
 121982426.127 5  95051293.05942  23212494.070                    23212498.414
        33.200          16.300
 123908995.388 6  96552452.87343  23579092.617                    23579094.074
        36.500          19.000
                  82633493.170 7  19895913.773                    19895914.750
                        44.500
 126109890.87615                  23997909.414
        35.100
                  85175473.928 6  20500750.531                    20500751.445
                        38.500
                  85136079.988 7  20455346.297                    20455348.156
                        42.100
                  86500457.944 7  20834290.328                    20834292.941
                        42.100
                  90213268.051 5  21698043.773                    21698045.535
                        31.700
                                  23474431.539

 112631887.572 8  87765195.07646  21433154.000                    21433155.559
        49.100          38.300
 129116367.35415                  24570035.055
        32.500
 113109034.044 8  88136835.12646  21523910.539                    21523913.430
        52.500          38.600
 116610123.931 7  90864999.72845  22190168.734                    22190174.555
        46.700          33.900
 114389472.491 8  89134645.41146  21767594.617                    21767600.660
        49.800          39.700
 116037930.183 8  90419275.08346  22081309.883                    22081313.539
        50.700          38.500
 122341306.150 5                  23280785.180
        33.800
 18  3 13 14 13 55.0000000  0 19R10R08R07G14G22R09G03R16R17R18R01R24
                                G19G25G12G32G24G17G01
                  97298981.767 3  23468193.305                    23468197.047
                        21.900
                  86230761.293 6  20703845.586                    20703847.363
                        41.000
                  95202241.037 5  22865888.102                    22865890.684
                        35.700
 121980499.980 5  95049792.13642  23212127.914                    23212132.039
        32.000          15.600
 123907985.844 5  96551666.20942  23578900.453                    23578902.004
        35.400          17.800
                  82632437.690 7  19895660.008                    19895660.621
                        44.900
 126107540.141 5  98265619.18652  23997461.383                    23997469.207
        34.100          17.400
                  85178045.830 6  20501368.883                    20501370.383
                        38.700
                  85137499.310 6  20455686.648                    20455688.746
                        41.700
                  86498588.847 7  20833840.852                    20833842.770
                        42.100
                  90211384.729 5  21697590.313                    21697592.734
                        31.300
                                  23475329.211

 112631736.896 8  87765077.66646  21433125.172                    21433126.730
        48.700          38.200
 129112788.869 5                  24569355.492
        33.700
 113106993.075 8  88135244.76146  21523521.992                    21523525.207
        51.300          38.500
 116609955.835 7  90864868.75145  22190136.453                    22190142.785
        46.400          34.400
 114392041.374 8  89136647.13446  21768083.281                    21768089.336
        50.400          39.400
 116039257.977 8  90420309.73446  22081562.320                    22081565.984
        50.700          38.400
 122344055.224 5                  23281308.102
        31.800
 18  3 13 14 13 56.0000000  0 19R10R08R07G14G22R09G03R16R17R18R01R24
                                G19G25G12G32G24G17G01
                  97295812.833 3  23467429.781                    23467432.840
                        21.400
                  86231809.903 6  20704097.719                    20704098.824
                        40.900
                  95205817.425 5  22866746.328                    22866749.633
                        34.300
 121978574.371 5  95048291.67242  23211760.938                    23211765.598
        33.200          13.900
 123906976.906 6  96550880.01942  23578708.906                    23578710.164
        37.400          16.300
                  82631382.841 7  19895405.781                    19895406.559
                        44.400
 126105189.800 5  98263787.74142  23997013.844                    23997021.934
        33.700          16.900
                  85180618.219 6  20501988.570                    20501989.215
                        39.200
                  85138919.346 6  20456027.750                    20456029.930
                        41.800
                  86496720.375 7  20833391.195                    20833392.852
                        42.700
                  90209502.026 5  21697137.141                    21697140.387
                        30.800
                                  23476226.344

 112631587.075 8  87764960.92046  21433096.930                    21433098.613
        48.600          38.800
 129109210.597 5                  24568673.234
        33.500
 113104952.670 8  88133654.84046  21523133.492                    21523136.813
        50.500          37.100
 116609788.438 7  90864738.31245  22190104.648                    22190110.871
        46.700          34.400
 114394610.823 8  89138649.29146  21768572.750                    21768578.348
        48.900          36.800
 116040586.404 8  90421344.87846  22081815.352                    22081819.035
        50.000          37.600
 122346804.885 5                  23281831.500
        33.600
 18  3 13 14 13 57.0000000  0 19R10R08R07G14G22R09G03R16R17R18R01R24
                                G19G25G12G32G24G17G01
                                  23466664.898

                  86232859.205 6  20704349.750                    20704350.395
                        41.400
                  95209393.989 5  22867605.102                    22867608.691
                        32.600
 121976649.293 5  95046791.64842  23211394.133                    23211399.070
        32.600          14.800
 123905968.517 6  96550094.27542  23578516.945                    23578518.676
        37.300          17.400
                  82630328.583 7  19895152.852                    19895152.527
                        44.200
 126102840.003 5  98261956.72442  23996566.883                    23996575.055
        33.900          17.400
                  85183191.075 6  20502607.820                    20502608.676
                        38.100
                  85140340.030 7  20456369.094                    20456370.480
                        42.200
                  86494852.425 7  20832940.805                    20832942.570
                        42.400
                  90207619.872 5  21696684.406                    21696687.246
                        31.200
                                  23477124.180

 112631437.948 8  87764844.71846  21433068.484                    21433069.750
        48.800          38.500
 129105632.432 5                  24567992.156
        33.900
 113102912.817 8  88132065.34646  21522745.039                    21522748.250
        49.900          36.100
 116609621.710 7  90864608.39645  22190073.133                    22190079.211
        46.800          33.400
 114397180.845 8  89140651.90546  21769061.711                    21769067.512
        49.400          37.700
 116041915.448 8  90422380.49646  22082068.109                    22082071.789
        50.300          38.200
 122349555.063 5                  23282354.625
        31.900
 18  3 13 14 13 58.0000000  0 19R10R08R07G14G22R09G03R16R17R18R01R24
                                G19G25G12G32G24G17G01
                                  23465900.609

                  86233909.290 6  20704601.719                    20704602.824
                        40.900
                  95212971.003 5  22868465.242                    22868467.934
                        32.600
 121974724.645 5  95045291.94442  23211028.070                    23211032.855
        31.800          14.800
 123904960.769 6  96549309.04742  23578324.297                    23578326.242
        36.000          16.900
                  82629274.970 7  19894898.852                    19894899.230
                        44.600
 126100490.726 5  98260126.17242  23996120.430                    23996127.813
        33.900          17.800
                  85185764.454 6  20503226.227                    20503227.703
                        38.700
                  85141761.521 7  20456711.078                    20456712.617
                        42.000
                  86492985.137 7  20832491.695                    20832492.809
                        42.400
                  90205738.353 5  21696232.922                    21696234.875
                        32.500
                                  23478021.766

 112631289.700 8  87764729.21646  21433040.188                    21433041.707
        48.300          38.200
 129102054.579 5                  24567311.070
        32.500
 113100873.663 8  88130476.39546  21522357.500                    21522360.641
        50.900          38.400
 116609455.787 7  90864479.10445  22190041.102                    22190047.379
        46.800          33.600
 114399751.535 8  89142655.03546  21769550.547                    21769556.355
        50.300          39.400
 116043245.222 8  90423416.67546  22082320.875                    22082324.820
        50.000          38.100
 122352305.922 5                  23282879.164
        32.600
 18  3 13 14 13 59.0000000  0 19R10R08R07G14G22R09G03R16R17R18R01R24
                                G19G25G12G32G24G17G01
                                  23465136.492

                  86234960.105 6  20704854.234                    20704854.973
                        41.200
                  95216548.289 5  22869323.742                    22869326.855
                        34.100
 121972800.650 5  95043792.71942  23210661.680                    23210666.781
        32.200          14.800
 123903953.762 5  96548524.38842  23578132.492                    23578134.992
        35.300          17.400
                  82628221.981 7  19894644.773                    19894645.211
                        44.400
 126098141.895 5  98258295.92442  23995673.320                    23995680.762
        34.000          16.900
                  85188338.317 6  20503845.891                    20503847.086
                        38.800
                  85143183.695 6  20457052.563                    20457054.824
                        41.900
                  86491118.446 7  20832041.172                    20832043.051
                        42.000
                  90203857.394 5  21695779.453                    21695781.965
                        32.200
                                  23478920.906

 112631142.229 8  87764614.30446  21433012.250                    21433013.426
        48.100          38.300
 129098476.893 5                  24566630.523
        31.300
 113098835.055 8  88128887.86846  21521969.445                    21521972.523
        50.400          38.000
 116609290.545 7  90864350.33945  22190009.492                    22190015.953
        46.700          32.900
 114402322.765 8  89144658.59846  21770039.922                    21770046.020
        50.200          39.300
 116044575.586 8  90424453.32346  22082574.469                    22082577.926
        50.200          38.300
 122355057.473 5                  23283402.102
        32.300
 18  3 13 14 14  0.0000000  0 19R10R08R07G14G22R09G03R16R17R18R01R24
                                G19G25G12G32G24G17G01
                                  23464372.492

                  86236011.673 6  20705106.469                    20705107.738
                        41.200
                  95220125.889 5  22870182.820                    22870185.863
                        34.500
 121970877.082 5  95042293.87542  23210296.234                    23210300.246
        33.100          16.300
 123902947.168 6  96547740.05242  23577941.727                    23577943.242
        36.000          16.900
                  82627169.581 7  19894391.391                    19894391.957
                        44.600
 126095793.593 5  98256466.08642  23995226.727                    23995233.629
        34.700          16.300
                  85190912.716 6  20504466.469                    20504467.566
                        38.800
                  85144606.600 6  20457394.555                    20457396.766
                        41.500
                  86489252.314 6  20831591.828                    20831594.039
                        41.800
                  90201976.977 5  21695326.625                    21695329.805
                        31.200
                                  23479817.180

 112630995.514 8  87764499.97846  21432983.953                    21432985.641
        48.600          38.400
 129094899.353 5                  24565949.859
        33.200
 113096796.983 8  88127299.76146  21521581.328                    21521584.770
        50.900          38.300
 116609126.016 7  90864222.12445  22189978.398                    22189984.465
        46.000          32.900
 114404894.546 8  89146662.58546  21770529.320                    21770535.566
        49.800          39.500
 116045906.582 8  90425490.46246  22082827.820                    22082831.281
        50.400          38.600
 122357809.464 5                  23283925.211
        32.400
 18  3 13 14 14  1.0000000  0 19R10R08R07G14G22R09G03R16R17R18R01R24
                                G19G25G12G32G24G17G01
                                  23463607.711

                  86237063.955 6  20705359.016                    20705360.137
                        41.300
                  95223703.732 5  22871042.500                    22871045.793
                        34.600
 121968953.973 5  95040795.33442  23209929.969                    23209934.637
        33.200          16.300
 123901941.256 6  96546956.23142  23577750.711                    23577751.730
        36.600          16.900
                  82626117.798 7  19894138.492                    19894138.840
                        44.600
 126093445.707 5  98254636.56342  23994779.641                    23994786.918
        34.600          15.600
                  85193487.607 6  20505085.461                    20505086.488
                        38.600
                  85146030.160 7  20457736.781                    20457738.426
                        42.100
                  86487386.748 6  20831142.969                    20831144.770
                        41.900
                  90200097.142 5  21694874.570                    21694877.320
                        31.100
                                  23480714.336

 112630849.576 8  87764386.25746  21432956.313                    21432957.703
        48.800          38.300
 129091322.008 5                  24565269.211
        33.000
 113094759.484 8  88125712.10546  21521193.836                    21521197.082
        50.900          38.600
 116608962.162 7  90864094.43845  22189947.078                    22189953.551
        45.400          33.200
 114407466.884 8  89148666.99546  21771018.648                    21771024.672
        50.000          39.200
 116047238.189 8  90426528.07146  22083080.883                    22083084.563
        50.200          38.700
 122360562.063 5                  23284449.797
        32.800
 18  3 13 14 14  2.0000000  0 19R10R08R07G14G22R09G03R16R17R18R01R24
                                G19G25G12G32G24G17G01
                                  23462842.227

                  86238116.931 6  20705611.969                    20705613.199
                        40.600
                  95227281.861 5  22871900.797                    22871904.598
                        34.900
 121967031.402 5  95039297.24542  23209563.906                    23209568.906
        32.200          16.900
 123900935.847 5  96546172.79442  23577559.047                    23577560.285
        35.800          17.400
                  82625066.589 7  19893885.227                    19893885.617
                        45.000
 126091098.286 5  98252807.34342  23994333.281                    23994340.770
        34.600          16.900
                  85196062.976 6  20505705.438                    20505706.594
                        38.900
                  85147454.398 6  20458079.070                    20458080.816
                        41.700
                  86485521.733 7  20830693.680                    20830695.750
                        42.200
                  90198217.813 5  21694422.359                    21694425.559
                        31.900
                                  23481613.297

 112630704.427 8  87764273.15346  21432928.852                    21432930.703
        48.100          38.300
 129087744.839 5                  24564587.789
        32.400
 113092722.559 8  88124124.89846  21520806.609                    21520809.680
        51.100          38.400
 116608798.991 7  90863967.28345  22189916.156                    22189922.352
        45.800          33.600
 114410039.731 8  89150671.80546  21771508.234                    21771514.039
        50.500          39.300
 116048570.417 8  90427566.15746  22083334.336                    22083338.320
        50.100          37.700
 122363315.279 5                  23284973.063
        32.300
 18  3 13 14 14  3.0000000  0 19R10R08R07G14G22R09G03R16R17R18R01R24
                                G19G25G12G32G24G17G01
                                  23462079.602

                  86239170.682 6  20705864.781                    20705866.340
                        40.900
                  95230860.362 5  22872761.625                    22872764.711
                        35.300
 121965109.326 5  95037799.51342  23209197.992                    23209202.859
        33.100          16.300
 123899931.135 5  96545389.90042  23577367.820                    23577369.527
        35.900          16.900
                  82624016.008 7  19893632.383                    19893632.598
                        44.500
 126088751.338 5  98250978.52042  23993886.031                    23993894.074
        33.800          15.600
                  85198638.902 6  20506325.008                    20506326.641
                        38.800
                  85148879.390 6  20458420.727                    20458423.203
                        41.300
                  86483657.359 6  20830244.523                    20830246.363
                        41.900
                  90196339.079 5  21693970.453                    21693973.746
                        30.600
                                  23482510.172

 112630560.114 7  87764160.72246  21432901.484                    21432902.613
        47.000          38.000
 129084167.882 5                  24563907.758
        33.500
 113090686.268 8  88122538.16946  21520418.891                    21520422.039
        51.000          38.600
 116608636.600 7  90863840.73145  22189885.336                    22189891.703
        45.700          33.100
 114412613.208 8  89152677.11546  21771998.281                    21772004.152
        50.900          39.100
 116049903.320 8  90428604.77846  22083588.063                    22083591.703
        50.300          38.200
 122366069.038 5                  23285497.719
        32.600
 18  3 13 14 14  4.0000000  0 19R10R08R07G14G22R09G03R16R17R18R01R24
                                G19G25G12G32G24G17G01
                                  23461314.398

                  86240225.154 6  20706117.984                    20706119.488
                        41.100
                  95234439.139 5  22873621.602                    22873623.766
                        35.000
 121963187.851 5  95036302.18842  23208832.586                    23208837.258
        33.400          15.600
 123898926.980 5  96544607.41642  23577175.633                    23577178.301
        35.900          16.900
                  82622966.035 7  19893379.508                    19893379.980
                        44.300
 126086404.951 5  98249150.16442  23993439.789                    23993447.281
        32.200          15.600
                  85201215.299 6  20506946.109                    20506946.742
                        38.900
                  85150305.097 6  20458764.039                    20458765.133
                        41.400
                  86481793.589 6  20829795.477                    20829797.570
                        41.900
                  90194460.912 4  21693519.289                    21693521.641
                        29.800
                                  23483408.578

 112630416.575 7  87764048.89446  21432874.234                    21432875.535
        46.500          38.000
 129080591.128 5                  24563227.203
        34.100
 113088650.520 8  88120951.86946  21520031.203                    21520034.605
        50.400          38.800
 116608474.896 7  90863714.72545  22189854.539                    22189860.762
        45.900          33.800
 114415187.246 8  89154682.87646  21772488.008                    21772494.336
        51.000          39.600
 116051236.850 8  90429643.88546  22083841.758                    22083845.457
        50.100          37.900
 122368823.389 5                  23286020.711
        31.600
 18  3 13 14 14  5.0000000  0 19R10R08R07G14G22R09G03R16R17R18R01R24
                                G19G25G12G32G24G17G01
                                  23460551.250

                  86241280.357 6  20706371.867                    20706372.766
                        40.800
                  95238018.244 5  22874481.703                    22874483.664
                        34.900
 121961266.771 5  95034805.27042  23208466.859                    23208471.098
        34.500          15.600
 123897923.371 6  96543825.37242  23576985.984                    23576986.848
        36.600          16.900
                  82621916.660 7  19893126.992                    19893127.391
                        44.500
 126084058.958 5  98247322.14442  23992992.773                    23993001.281
        32.800          15.600
                  85203792.171 6  20507565.977                    20507566.988
                        39.300
                  85151731.503 6  20459106.641                    20459108.410
                        41.500
                  86479930.392 6  20829346.039                    20829348.012
                        41.900
                  90192583.349 4  21693068.234                    21693069.953
                        29.900
                                  23484306.281

 112630273.796 7  87763937.65246  21432846.891                    21432848.383
        47.200          38.200
 129077014.465 5                  24562546.734
        34.600
 113086615.331 8  88119366.00446  21519643.719                    21519647.074
        50.400          38.600
 116608313.914 7  90863589.28345  22189823.914                    22189830.352
        46.400          34.100
 114417761.857 8  89156689.07646  21772977.773                    21772983.699
        50.400          39.600
 116052571.001 8  90430683.47846  22084095.719                    22084099.605
        50.200          38.200
 122371578.319 5                  23286544.664
        32.600
 18  3 13 14 14  6.0000000  0 19R10R08R07G14G22R09G03R16R17R18R01R24
                                G19G25G12G32G24G17G01
                                  23459786.922

                  86242336.269 6  20706624.867                    20706626.160
                        40.800
                  95241597.564 5  22875340.898                    22875343.547
                        35.100
 121959346.174 6  95033308.73742  23208101.641                    23208105.875
        36.300          14.800
 123896920.354 6  96543043.79842  23576795.125                    23576795.938
        37.100          17.800
                  82620867.874 7  19892874.195                    19892874.898
                        44.100
 126081713.426 5  98245494.46842  23992546.750                    23992554.539
        32.800          15.600
                  85206369.536 6  20508186.273                    20508187.523
                        39.400
                  85153158.610 6  20459449.633                    20459451.023
                        41.800
                  86478067.762 6  20828898.602                    20828900.332
                        41.900
                  90190706.309 5  21692616.680                    21692618.211
                        30.800
                                  23485206.117

 112630131.776 8  87763827.00946  21432819.898                    21432820.949
        48.100          38.600
 129073438.016 5                  24561865.453
        34.600
 113084580.714 8  88117780.59846  21519256.930                    21519260.086
        50.700          37.900
 116608153.600 7  90863464.37445  22189793.742                    22189799.891
        47.000          33.600
 114420337.020 8  89158695.69946  21773467.516                    21773473.973
        50.500          40.100
 116053905.764 8  90431723.55046  22084349.813                    22084353.652
        50.200          38.200
 122374333.928 5                  23287069.602
        33.300
 18  3 13 14 14  7.0000000  0 19R10R08R07G14G22R09G03R16R17R18R01R24
                                G19G25G12G32G24G17G01
                                  23459022.750

                  86243392.888 6  20706878.891                    20706879.398
                        40.400
                  95245177.226 5  22876199.867                    22876202.594
                        35.300
 121957426.079 6  95031812.53742  23207736.930                    23207740.215
        37.000          16.300
 123895917.933 6  96542262.71943  23576604.086                    23576605.074
        38.400          19.600
                  82619819.696 7  19892622.086                    19892622.531
                        44.200
 126079368.384 5  98243667.15942  23992100.859                    23992108.535
        34.800          16.900
                  85208947.386 6  20508806.344                    20508807.637
                        38.900
                  85154586.380 6  20459792.617                    20459794.387
                        41.500
                  86476205.712 7  20828449.875                    20828451.508
                        42.100
                  90188829.854 5  21692165.164                    21692167.020
                        30.800
                                  23486104.352

 112629990.509 8  87763716.93846  21432793.016                    21432794.723
        48.500          38.300
 129069861.772 5                  24561185.219
        34.800
 113082546.666 8  88116195.63546  21518869.867                    21518873.242
        50.800          37.500
 116607994.008 7  90863340.03245  22189763.180                    22189769.375
        46.800          33.100
 114422912.758 8  89160702.75946  21773957.875                    21773963.820
        50.800          40.200
 116055241.167 8  90432764.12446  22084603.922                    22084607.828
        50.200          38.200
 122377090.021 5                  23287594.984
        34.500
 18  3 13 14 14  8.0000000  0 19R10R08R07G14G22R09G03R16R17R18R01R24
                                G19G25G12G32G24G17G01
                                  23458257.813

                  86244450.297 6  20707133.094                    20707133.605
                        41.500
                  95248757.194 5  22877060.180                    22877062.402
                        34.500
 121955506.541 6  95030316.82142  23207370.953                    23207375.230
        36.400          16.300
 123894916.122 6  96541482.08343  23576412.750                    23576414.582
        37.700          19.000
                  82618772.125 7  19892370.203                    19892370.285
                        44.300
 126077023.845 5  98241840.23542  23991655.047                    23991661.949
        34.300          16.900
                  85211525.764 6  20509427.523                    20509428.387
                        38.900
                  85156014.851 6  20460135.664                    20460137.594
                        41.500
                  86474344.236 7  20828001.813                    20828002.863
                        42.400
                  90186953.968 5  21691714.031                    21691715.734
                        30.700
                                  23487002.859

 112629850.032 8  87763607.47246  21432766.031                    21432767.758
        48.400          38.300
 129066285.668 5                  24560505.570
        34.400
 113080513.183 8  88114611.10946  21518482.859                    21518485.973
        51.000          38.100
 116607835.115 7  90863216.22545  22189733.070                    22189739.199
        47.100          33.100
 114425489.051 8  89162710.25346  21774448.141                    21774453.902
        51.200          40.500
 116056577.185 8  90433805.17646  22084858.211                    22084862.156
        50.300          38.100
 122379846.716 5                  23288119.453
        34.000
 18  3 13 14 14  9.0000000  0 19R10R08R07G14G22R09G03R16R17R18R01R24
                                G19G25G12G32G24G17G01
                                  23457495.094

                  86245508.376 6  20707386.344                    20707387.637
                        41.300
                  95252337.412 5  22877919.734                    22877922.398
                        35.200
 121953587.448 6  95028821.43642  23207005.852                    23207009.953
        36.300          15.600
 123893914.814 6  96540701.85343  23576222.445                    23576224.301
        37.300          19.000
                  82617725.119 7  19892117.563                    19892118.094
                        44.200
 126074679.714 5  98240013.63442  23991209.328                    23991216.355
        33.700          15.600
                  85214104.596 6  20510047.711                    20510049.004
                        38.900
                  85157443.984 6  20460479.484                    20460480.570
                        41.500
                  86472483.327 7  20827552.922                    20827554.828
                        42.500
                  90185078.609 5  21691262.523                    21691265.340
                        31.400
                                  23487901.359

 112629710.293 8  87763498.57746  21432739.398                    21432741.117
        48.400          38.100
 129062709.695 5                  24559824.031
        33.800
 113078480.229 8  88113026.99546  21518095.586                    21518099.348
        51.200          37.600
 116607676.865 7  90863092.91245  22189702.438                    22189708.926
        46.600          33.700
 114428065.870 8  89164718.16246  21774938.922                    21774944.910
        51.400          40.400
 116057913.793 8  90434846.68246  22085112.391                    22085116.047
        50.700          38.100
 122382603.928 5                  23288644.469
        33.300
 18  3 13 14 14 10.0000000  0 18R10R08R07G14G22R09G03R16R17R18R01G19
                                G25G12G32G24G17G01
                                  23456731.813

                  86246567.170 6  20707641.289                    20707642.500
                        41.200
                  95255917.972 5  22878778.797                    22878782.422
                        34.900
 121951668.797 5  95027326.38042  23206640.844                    23206644.504
        35.500          15.600
 123892914.151 6  96539922.14143  23576032.555                    23576033.660
        37.100          18.600
                  82616678.703 7  19891866.023                    19891866.199
                        44.300
 126072336.076 5  98238187.41642  23990762.477                    23990770.133
        33.600          16.900
                  85216683.905 6  20510669.250                    20510670.027
                        39.000
                  85158873.849 6  20460822.992                    20460824.473
                        41.100
                  86470622.977 7  20827105.055                    20827107.180
                        42.100
                  90183203.797 5  21690811.453                    21690814.035
                        31.800
 112629571.306 8  87763390.28046  21432712.922                    21432714.453
        48.700          37.900
 129059133.930 5                  24559144.125
        33.600
 113076447.841 8  88111443.31746  21517708.984                    21517712.254
        51.300          38.000
 116607519.347 7  90862970.16845  22189672.906                    22189679.121
        46.600          33.100
 114430643.242 8  89166726.51246  21775429.461                    21775435.395
        51.100          40.200
 116059251.023 8  90435888.67846  22085366.930                    22085370.746
        50.300          38.000
 122385361.724 5                  23289168.242
        32.200
 18  3 13 14 14 11.0000000  0 18R10R08R07G14G22R09G03R16R17R18R01G19
                                G25G12G32G24G17G01
                                  23455968.281

                  86247626.718 6  20707895.570                    20707896.492
                        40.900
                  95259498.798 5  22879639.828                    22879642.566
                        34.800
 121949750.665 5  95025831.72542  23206275.648                    23206279.469
        35.900          16.300
 123891914.003 6  96539142.80242  23575842.750                    23575843.367
        37.300          17.800
                  82615632.908 7  19891613.828                    19891614.070
                        44.300
 126069992.862 5  98236361.54942  23990317.492                    23990324.309
        33.500          16.900
                  85219263.729 6  20511289.383                    20511290.820
                        38.800
                  85160304.420 6  20461166.297                    20461168.410
                        41.000
                  86468763.207 7  20826657.289                    20826658.766
                        42.000
                  90181329.572 5  21690361.664                    21690363.617
                        31.400
 112629433.108 8  87763282.60146  21432686.773                    21432688.469
        48.600          38.300
 129055558.321 5                  24558464.047
        33.300
 113074416.035 8  88109860.09846  21517322.742                    21517325.477
        51.400          37.800
 116607362.523 7  90862847.96845  22189642.914                    22189649.215
        46.000          33.100
 114433221.165 8  89168735.29146  21775919.531                    21775925.918
        51.000          40.500
 116060588.898 8  90436931.17546  22085621.508                    22085625.227
        50.300          38.000
 122388120.145 5                  23289694.086
        33.500
 18  3 13 14 14 12.0000000  0 18R10R08R07G14G22R09G03R16R17R18R01G19
                                G25G12G32G24G17G01
                                  23455203.633

                  86248686.987 6  20708149.875                    20708151.164
                        41.500
                  95263079.917 5  22880500.055                    22880503.184
                        34.800
 121947833.017 6  95024337.45842  23205910.664                    23205914.441
        36.200          15.600
 123890914.487 6  96538363.94242  23575652.461                    23575653.016
        37.500          16.900
                  82614587.691 7  19891362.086                    19891363.281
                        44.300
 126067650.128 5  98234536.04642  23989871.164                    23989878.477
        33.400          17.400
                  85221843.999 6  20511910.844                    20511912.297
                        39.300
                  85161735.625 6  20461510.641                    20461511.793
                        41.100
                  86466903.981 7  20826209.359                    20826211.262
                        42.100
                  90179455.903 5  21689909.953                    21689913.219
                        32.000
 112629295.642 8  87763175.48146  21432660.836                    21432662.227
        49.000          38.300
 129051982.883 5                  24557783.500
        33.900
 113072384.772 8  88108277.30046  21516936.055                    21516939.297
        51.000          37.700
 116607206.374 7  90862726.29445  22189613.250                    22189619.426
        46.400          32.400
 114435799.641 8  89170744.49246  21776410.063                    21776416.648
        51.000          40.000
 116061927.338 8  90437974.11746  22085876.086                    22085879.590
        50.100          37.600
 122390878.979 5                  23290218.859
        33.000
 18  3 13 14 14 13.0000000  0 18R10R08R07G14G22R09G03R16R17R18R01G19
                                G25G12G32G24G17G01
                                  23454440.258

                  86249747.972 6  20708405.078                    20708405.645
                        41.200
                  95266661.316 5  22881360.266                    22881362.754
                        35.100
 121945915.871 5  95022843.55942  23205546.203                    23205550.031
        35.100          16.300
 123889915.550 6  96537585.53842  23575462.289                    23575463.309
        37.900          16.300
                  82613543.093 7  19891110.242                    19891111.332
                        44.400
 126065307.807 5  98232710.88842  23989425.625                    23989432.668
        34.300          16.900
                  85224424.799 6  20512531.875                    20512532.730
                        38.600
                  85163167.545 6  20461854.266                    20461855.527
                        41.100
                  86465045.344 7  20825761.617                    20825763.492
                        42.100
                  90177582.804 5  21689459.328                    21689461.512
                        32.200
 112629158.957 8  87763068.97346  21432634.609                    21432635.957
        49.100          38.500
 129048407.586 5                  24557103.492
        34.400
 113070354.068 8  88106694.92846  21516549.727                    21516552.688
        51.100          37.800
 116607050.943 7  90862605.18945  22189583.563                    22189589.641
        46.700          33.600
 114438378.680 8  89172754.13046  21776900.984                    21776906.875
        51.200          40.000
 116063266.411 8  90439017.53846  22086131.148                    22086134.328
        50.300          38.600
 122393638.565 5                  23290742.625
        33.100
 18  3 13 14 14 14.0000000  0 18R10R08R07G14G22R09G03R16R17R18R01G19
                                G25G12G32G24G17G01
                                  23453676.852

                  86250809.725 6  20708659.445                    20708660.063
                        41.200
                  95270243.066 5  22882220.359                    22882222.676
                        35.300
 121943999.224 5  95021350.09042  23205181.578                    23205185.102
        35.700          16.300
 123888917.207 6  96536807.60342  23575272.242                    23575273.285
        38.700          16.300
                  82612499.118 7  19890859.727                    19890859.719
                        44.400
 126062966.102 5  98230886.19442  23988980.430                    23988987.117
        35.000          16.300
                  85227006.127 6  20513153.039                    20513154.457
                        38.900
                  85164600.195 6  20462198.563                    20462199.824
                        41.200
                  86463187.341 7  20825314.359                    20825315.898
                        42.200
                  90175710.278 5  21689009.594                    21689011.824
                        32.900
 112629023.048 8  87762963.06046  21432608.945                    21432610.352
        48.900          38.200
 129044832.533 5                  24556422.508
        34.000
 113068323.997 8  88105113.06346  21516163.539                    21516166.461
        51.100          37.900
 116606896.206 7  90862484.62245  22189554.078                    22189560.383
        47.000          32.400
 114440958.313 8  89174764.23246  21777391.953                    21777397.879
        51.300          40.100
 116064606.155 8  90440061.47546  22086386.367                    22086389.832
        50.000          38.100
 122396398.606 5                  23291268.992
        32.800
 18  3 13 14 14 15.0000000  0 18R10R08R07G14G22R09G03R16R17R18R01G19
                                G25G12G32G24G17G01
                                  23452912.227

                  86251872.096 6  20708914.523                    20708915.563
                        41.200
                  95273825.069 5  22883081.250                    22883084.094
                        35.800
 121942083.031 5  95019856.95942  23204816.867                    23204820.297
        35.700          16.900
 123887919.401 6  96536030.06942  23575082.883                    23575083.059
        38.900          17.400
                  82611455.719 7  19890608.094                    19890608.430
                        44.200
 126060624.843 5  98229061.85742  23988535.133                    23988541.820
        35.200          16.900
                  85229587.939 6  20513775.023                    20513776.238
                        39.200
                  85166033.554 6  20462543.203                    20462544.473
                        41.900
                  86461329.918 7  20824867.313                    20824868.617
                        43.000
                  90173838.332 5  21688558.516                    21688561.938
                        33.400
 112628887.913 8  87762857.72946  21432583.141                    21432584.633
        48.900          38.100
 129041257.646 5                  24555742.008
        33.100
 113066294.428 8  88103531.57846  21515777.148                    21515780.332
        50.900          38.000
 116606742.183 7  90862364.60245  22189524.695                    22189531.098
        46.600          32.400
 114443538.468 8  89176774.74646  21777883.258                    21777888.813
        50.500          39.300
 116065946.475 8  90441105.86246  22086641.000                    22086644.570
        50.200          38.100
 122399159.384 5                  23291793.992
        33.100
 18  3 13 14 14 16.0000000  0 19R10R08R07G14G22R09G03R16R17R18R01R24
                                G19G25G12G32G24G17G01
                                  23452149.445

                  86252935.196 6  20709169.953                    20709170.438
                        40.900
                  95277407.419 5  22883941.375                    22883944.313
                        34.900
 121940167.341 5  95018364.18742  23204453.117                    23204455.980
        35.400          17.400
 123886922.211 6  96535253.03342  23574892.906                    23574893.730
        38.800          17.800
                  82610412.921 7  19890357.156                    19890357.203
                        44.000
 126058283.915 5  98227237.74342  23988088.906                    23988096.531
        34.300          17.800
                  85232170.229 6  20514396.195                    20514397.688
                        38.900
                  85167467.567 6  20462888.141                    20462889.656
                        41.600
                  86459473.002 7  20824419.883                    20824421.488
                        42.400
                  90171966.938 5  21688108.742                    21688112.250
                        33.100
                                  23494194.047

 112628753.545 8  87762752.99246  21432557.492                    21432558.813
        48.300          37.800
 129037682.949 5                  24555062.195
        32.400
 113064265.443 8  88101950.55446  21515391.031                    21515394.418
        50.200          38.300
 116606588.857 7  90862245.11845  22189495.492                    22189501.754
        46.000          33.100
 114446119.180 8  89178785.70046  21778374.219                    21778380.301
        51.000          39.900
 116067287.445 8  90442150.76446  22086896.305                    22086899.949
        50.700          38.600
 122401920.602 5                  23292319.508
        33.800
 18  3 13 14 14 17.0000000  0 18R10R08R07G14G22R09G03R16R17R18R01G19
                                G25G12G32G24G17G01
                  97229307.15714  23451385.148                    23451390.992
                        24.900
                  86253999.124 6  20709425.367                    20709426.438
                        41.600
                  95280990.012 5  22884802.031                    22884804.648
                        35.400
 121938252.190 5  95016871.87942  23204088.008                    23204091.719
        35.800          17.800
 123885925.635 6  96534476.45842  23574703.289                    23574704.082
        37.500          17.800
                  82609370.744 7  19890105.766                    19890106.711
                        44.500
 126055943.616 5  98225414.12442  23987643.352                    23987651.102
        33.400          16.900
                  85234753.063 6  20515017.953                    20515018.820
                        39.300
                  85168902.349 6  20463232.203                    20463233.926
                        41.500
                  86457616.742 7  20823972.938                    20823974.254
                        42.800
                  90170096.089 5  21687659.844                    21687662.648
                        33.100
 112628620.021 8  87762648.91346  21432532.172                    21432533.543
        48.100          38.600
 129034108.346 5                  24554381.836
        32.300
 113062237.013 8  88100369.96346  21515005.008                    21515008.309
        49.700          37.500
 116606436.237 7  90862126.19045  22189466.500                    22189472.773
        45.800          34.000
 114448700.496 8  89180797.12146  21778865.211                    21778871.277
        49.800          38.200
 116068629.030 8  90443196.14446  22087151.609                    22087155.258
        50.300          39.100
 122404682.452 5                  23292845.820
        34.700
 18  3 13 14 14 18.0000000  0 18R10R08R07G14G22R09G03R16R17R18R01G19
                                G25G12G32G24G17G01
                  97226141.10513  23450622.195                    23450627.395
                        22.100
                  86255063.760 6  20709681.125                    20709682.066
                        41.500
                  95284572.891 5  22885662.969                    22885665.340
                        35.300
 121936337.510 6  95015379.94242  23203723.297                    23203727.168
        37.100          16.300
 123884929.702 6  96533700.40743  23574513.711                    23574514.453
        40.600          18.300
                  82608329.153 7  19889855.133                    19889855.633
                        44.200
 126053603.727 5  98223590.85742  23987197.914                    23987205.578
        32.300          16.300
                  85237336.373 6  20515640.336                    20515640.707
                        39.100
                  85170337.785 6  20463577.141                    20463578.914
                        41.900
                  86455760.995 7  20823525.078                    20823527.328
                        42.600
                  90168225.785 5  21687209.234                    21687213.078
                        34.200
 112628487.239 8  87762545.42146  21432506.844                    21432508.270
        48.400          38.600
 129030533.963 5                  24553701.047
        32.000
 113060209.192 8  88098789.85645  21514619.086                    21514622.246
        48.700          35.800
 116606284.304 7  90862007.79445  22189437.688                    22189444.059
        46.100          33.600
 114451282.305 8  89182808.93845  21779356.328                    21779362.520
        48.300          35.300
 116069971.277 8  90444242.04646  22087406.898                    22087410.813
        50.000          37.900
 122407444.837 5                  23293371.469
        35.600
 18  3 13 14 14 19.0000000  0 18R10R08R07G14G22R09G03R16R17R18R01G19
                                G25G12G32G24G17G01
                  97222974.71413  23449857.195                    23449863.801
                        21.400
                  86256129.096 6  20709936.328                    20709937.508
                        41.700
                  95288156.111 5  22886522.875                    22886525.660
                        35.900
 121934423.317 6  95013888.36042  23203359.406                    23203363.164
        36.300          16.900
 123883934.229 6  96532924.72443  23574324.195                    23574325.395
        38.600          19.000
                  82607288.146 7  19889604.523                    19889605.313
                        44.200
 126051264.233 5  98221767.91042  23986752.328                    23986760.441
        33.000          15.600
                  85239920.146 6  20516261.648                    20516263.020
                        39.100
                  85171773.900 6  20463921.844                    20463924.035
                        41.500
                  86453905.838 7  20823078.594                    20823080.598
                        42.100
                  90166356.051 5  21686759.586                    21686763.383
                        34.000
 112628355.175 8  87762442.51146  21432481.781                    21432483.238
        48.000          38.300
 129026959.833 5                  24553021.313
        35.900
 113058181.886 8  88097210.15045  21514233.211                    21514236.504
        48.700          35.400
 116606133.053 7  90861889.93845  22189409.328                    22189415.188
        46.300          34.000
 114453864.679 8  89184821.18846  21779847.609                    21779854.043
        48.700          36.900
 116071314.083 8  90445288.37846  22087662.703                    22087666.246
        50.300          38.300
 122410207.775 5                  23293896.836
        33.000
 18  3 13 14 14 20.0000000  0 18R10R08R07G14G22R09G03R16R17R18R01G19
                                G25G12G32G24G17G01
                  97219808.995 3  23449094.023                    23449100.336
                        22.100
                  86257195.140 6  20710192.195                    20710193.566
                        41.600
                  95291739.542 5  22887384.359                    22887386.359
                        35.600
 121932509.647 5  95012397.15342  23202995.328                    23202998.996
        34.900          16.300
 123882939.351 6  96532149.49142  23574134.461                    23574135.672
        38.700          17.800
                  82606247.733 7  19889354.258                    19889354.883
                        44.800
 126048925.193 5  98219945.28142  23986306.977                    23986315.758
        33.700          14.800
                  85242504.387 6  20516883.695                    20516885.293
                        39.500
                  85173210.716 7  20464267.664                    20464268.500
                        42.000
                  86452051.270 7  20822632.242                    20822633.637
                        42.700
                  90164486.884 5  21686308.852                    21686313.359
                        32.800
 112628223.899 8  87762340.23346  21432456.578                    21432458.344
        49.000          38.400
 129023385.775 5                  24552341.328
        34.200
 113056155.146 8  88095630.87946  21513847.898                    21513850.840
        50.700          37.400
 116605982.501 7  90861772.62545  22189380.328                    22189386.738
        46.600          33.900
 114456447.613 8  89186833.84846  21780339.453                    21780345.504
        50.100          39.800
 116072657.501 8  90446335.19646  22087918.297                    22087921.766
        50.300          38.600
 122412971.339 5                  23294422.016
        32.400
 18  3 13 14 14 21.0000000  0 18R10R08R07G14G22R09G03R16R17R18R01G19
                                G25G12G32G24G17G01
                  97216643.382 3  23448330.398                    23448336.086
                        22.300
                  86258261.914 6  20710448.211                    20710449.969
                        41.600
                  95295323.283 6  22888244.391                    22888247.727
                        36.000
 121930596.397 5  95010906.32542  23202630.453                    23202634.852
        33.700          16.300
 123881945.032 6  96531374.72842  23573945.766                    23573946.328
        37.500          17.800
                  82605207.896 7  19889104.195                    19889103.645
                        44.800
 126046586.688 5  98218123.09742  23985861.508                    23985870.156
        34.700          14.800
                  85245089.112 6  20517505.578                    20517506.336
                        38.900
                  85174648.201 6  20464612.953                    20464614.848
                        41.800
                  86450197.281 7  20822185.539                    20822187.172
                        42.800
                  90162618.256 5  21685859.992                    21685863.961
                        33.100
 112628093.406 8  87762238.56746  21432431.758                    21432433.375
        48.900          38.300
 129019811.894 5                  24551661.813
        34.500
 113054128.987 8  88094052.05446  21513461.891                    21513464.945
        51.100          37.400
 116605832.659 7  90861655.87845  22189352.125                    22189358.293
        46.700          34.400
 114459031.070 8  89188846.92646  21780831.414                    21780836.879
        50.500          39.700
 116074001.580 8  90447382.52146  22088173.711                    22088177.637
        50.200          38.400
 122415735.519 5                  23294947.516
        33.000
 18  3 13 14 14 22.0000000  0 18R10R08R07G14G22R09G03R16R17R18R01G19
                                G25G12G32G24G17G01
                  97213477.942 3  23447566.852                    23447572.957
                        22.700
                  86259329.418 7  20710704.258                    20710705.883
                        42.300
                  95298907.455 5  22889106.164                    22889108.500
                        35.800
 121928683.696 5  95009415.90042  23202266.891                    23202270.992
        34.600          16.300
 123880951.384 6  96530600.45042  23573755.594                    23573757.465
        37.600          17.800
                  82604168.719 7  19888853.586                    19888853.832
                        44.700
 126044248.663 5  98216301.26142  23985417.961                    23985425.859
        34.900          16.300
                  85247674.345 6  20518128.211                    20518128.883
                        39.000
                  85176086.409 7  20464958.734                    20464960.250
                        42.100
                  86448343.904 7  20821738.883                    20821740.699
                        42.900
                  90160750.220 5  21685409.773                    21685414.859
                        31.900
 112627963.731 8  87762137.52646  21432407.305                    21432408.637
        48.800          38.300
 129016238.234 5                  24550981.391
        34.500
 113052103.425 8  88092473.68446  21513076.695                    21513079.703
        51.400          37.500
 116605683.545 7  90861539.69645  22189323.742                    22189329.543
        47.200          34.100
 114461615.120 8  89190860.46546  21781322.977                    21781328.723
        50.200          39.400
 116075346.302 8  90448430.35346  22088429.883                    22088433.586
        49.900          37.700
 122418500.117 5                  23295474.883
        32.300
 18  3 13 14 14 23.0000000  0 18R10R08R07G14G22R09G03R16R17R18R01G19
                                G25G12G32G24G17G01
                  97210312.594 3  23446803.211                    23446809.398
                        22.100
                  86260397.556 6  20710960.672                    20710962.898
                        41.000
                  95302491.770 6  22889966.945                    22889969.262
                        36.000
 121926771.403 5  95007925.76942  23201902.992                    23201906.820
        33.900          15.600
 123879958.242 6  96529826.57942  23573567.594                    23573567.602
        37.700          16.900
                  82603130.043 7  19888603.656                    19888603.938
                        44.800
 126041911.004 5  98214479.73342  23984973.641                    23984980.527
        35.400          17.800
                  85250259.987 6  20518750.102                    20518750.848
                        39.200
                  85177525.266 7  20465304.703                    20465305.645
                        42.100
                  86446491.026 7  20821292.719                    20821294.398
                        43.000
                  90158882.693 5  21684960.867                    21684965.684
                        31.900
 112627834.714 8  87762036.99346  21432382.641                    21432384.059
        49.100          38.200
 129012664.678 5                  24550300.672
        34.500
 113050078.337 8  88090895.69046  21512691.391                    21512694.016
        51.400          37.300
 116605535.032 7  90861423.97645  22189295.469                    22189301.242
        47.000          33.600
 114464199.641 8  89192874.38346  21781814.680                    21781820.930
        50.300          39.400
 116076691.544 8  90449478.58546  22088686.055                    22088689.754
        50.400          38.100
 122421265.283 5                  23296000.531
        31.600
 18  3 13 14 14 24.0000000  0 18R10R08R07G14G22R09G03R16R17R18R01G19
                                G25G12G32G24G17G01
                  97207147.333 3  23446040.320                    23446046.668
                        22.100
                  86261466.408 6  20711217.922                    20711219.070
                        41.100
                  95306076.368 6  22890827.188                    22890830.063
                        36.500
 121924859.563 5  95006436.06742  23201538.344                    23201543.313
        33.600          16.300
 123878965.614 6  96529053.08143  23573379.375                    23573379.172
        37.100          18.300
                  82602091.977 7  19888353.477                    19888353.758
                        44.800
 126039573.818 5  98212658.54942  23984528.008                    23984536.180
        35.000          17.400
                  85252846.114 6  20519372.383                    20519373.566
                        39.000
                  85178964.794 7  20465649.609                    20465651.461
                        42.000
                  86444638.700 7  20820846.813                    20820848.285
                        42.800
                  90157015.688 5  21684512.852                    21684515.930
                        30.900
 112627706.463 8  87761937.04846  21432358.359                    21432359.840
        49.300          37.900
 129009091.187 5                  24549620.945
        33.800
 113048053.795 8  88089318.12446  21512306.148                    21512309.355
        51.400          37.200
 116605387.208 7  90861308.79445  22189267.375                    22189273.336
        46.600          33.500
 114466784.713 8  89194888.72646  21782306.422                    21782312.945
        50.500          39.200
 116078037.396 8  90450527.29646  22088942.109                    22088945.672
        50.600          38.000
 122424031.063 4                  23296526.727
        29.900
 18  3 13 14 14 25.0000000  0 18R10R08R07G14G22R09G03R16R17R18R01G19
                                G25G12G32G24G17G01
                  97203982.205 3  23445276.250                    23445282.570
                        22.100
                  86262535.999 6  20711474.563                    20711476.418
                        40.800
                  95309661.284 6  22891689.023                    22891690.652
                        36.100
 121922948.299 5  95004946.76342  23201175.547                    23201179.223
        35.100          14.800
 123877973.613 6  96528280.09842  23573190.141                    23573190.898
        36.500          17.800
                  82601054.516 7  19888103.594                    19888104.000
                        44.600
 126037237.054 5  98210837.66742  23984083.180                    23984091.191
        35.700          16.900
                  85255432.755 6  20519995.164                    20519996.434
                        38.900
                  85180405.051 7  20465995.805                    20465997.273
                        42.000
                  86442786.970 7  20820400.836                    20820402.859
                        42.400
                  90155149.315 5  21684064.648                    21684067.301
                        30.400
 112627578.995 8  87761837.72246  21432334.109                    21432336.043
        49.000          38.200
 129005518.013 5                  24548941.297
        34.100
 113046029.872 8  88087741.04346  21511920.609                    21511924.086
        50.700          37.200
 116605240.137 7  90861194.19345  22189239.109                    22189245.367
        47.300          33.900
 114469370.374 8  89196903.53146  21782798.266                    21782804.719
        50.100          39.500
 116079383.914 8  90451576.52246  22089198.086                    22089202.258
        50.500          38.600
 122426797.497 4                  23297051.852
        29.900
 18  3 13 14 14 26.0000000  0 18R10R08R07G14G22R09G03R16R17R18R01G19
                                G25G12G32G24G17G01
                  97200817.213 3  23444514.273                    23444519.477
                        21.900
                  86263606.350 6  20711731.555                    20711733.012
                        40.800
                  95313246.494 6  22892549.734                    22892551.793
                        36.400
 121921037.472 5  95003457.81742  23200811.688                    23200816.070
        34.800          15.600
 123876982.252 5  96527507.59042  23573000.789                    23573001.930
        35.900          17.400
                  82600017.686 7  19887854.078                    19887854.078
                        44.700
 126034900.814 5  98209017.20942  23983638.836                    23983646.844
        35.200          16.300
                  85258019.910 6  20520617.836                    20520618.918
                        38.600
                  85181846.009 6  20466342.273                    20466344.105
                        41.900
                  86440935.865 7  20819955.320                    20819956.648
                        42.600
                  90153283.479 4  21683615.813                    21683618.047
                        28.600
 112627452.332 8  87761739.01346  21432309.867                    21432311.133
        48.700          37.800
 129001945.038 5                  24548260.492
        34.100
 113044006.508 8  88086164.39446  21511535.992                    21511539.070
        50.900          36.900
 116605093.750 7  90861080.13545  22189211.188                    22189217.613
        46.900          33.400
 114471956.630 8  89198918.79846  21783290.461                    21783296.840
        49.800          38.900
 116080731.069 8  90452626.25046  22089454.680                    22089458.176
        50.300          38.100
 122429564.428 5                  23297578.141
        30.100
 18  3 13 14 14 27.0000000  0 18R10R08R07G14G22R09G03R16R17R18R01G19
                                G25G12G32G24G17G01
                  97197652.344 3  23443750.867                    23443756.129
                        21.600
                  86264677.370 6  20711988.641                    20711990.707
                        40.600
                  95316831.996 6  22893410.594                    22893413.031
                        36.700
 121919127.146 5  95001969.23642  23200448.508                    23200452.602
        35.300          16.900
 123875991.442 6  96526735.55642  23572812.773                    23572813.688
        36.900          17.800
                  82598981.432 7  19887604.563                    19887605.223
                        44.500
 126032565.057 5  98207197.13342  23983194.320                    23983201.707
        35.900          16.900
                  85260607.526 6  20521241.117                    20521241.746
                        38.300
                  85183287.659 6  20466688.555                    20466690.527
                        41.600
                  86439085.320 7  20819509.055                    20819510.316
                        42.300
                  90151418.158 4  21683166.406                    21683169.102
                        29.700
 112627326.414 8  87761640.88746  21432285.977                    21432287.492
        48.200          38.400
 128998372.113 5                  24547581.430
        34.500
 113041983.709 8  88084588.19846  21511150.836                    21511153.879
        50.500          37.900
 116604948.050 7  90860966.60845  22189183.469                    22189189.383
        46.400          33.300
 114474543.424 8  89200934.47746  21783783.117                    21783789.168
        49.800          39.500
 116082078.823 8  90453676.44346  22089711.109                    22089714.867
        50.100          38.100
 122432332.010 5                  23298105.211
        30.300
 18  3 13 14 14 28.0000000  0 18R10R08R07G14G22R09G03R16R17R18R01G19
                                G25G12G32G24G17G01
                  97194487.669 3  23442988.258                    23442993.656
                        22.300
                  86265749.181 6  20712245.867                    20712247.746
                        41.500
                  95320417.773 6  22894272.602                    22894274.813
                        36.000
 121917217.332 5  95000481.05542  23200084.852                    23200089.125
        35.700          17.400
 123875001.236 6  96525963.95342  23572624.570                    23572624.828
        37.600          16.900
                  82597945.773 7  19887355.406                    19887355.754
                        44.600
 126030229.760 6  98205377.43242  23982750.250                    23982757.547
        36.200          16.300
                  85263195.657 6  20521863.445                    20521864.559
                        38.900
                  85184729.987 6  20467034.516                    20467036.832
                        41.900
                  86437235.325 6  20819063.195                    20819065.324
                        41.900
                  90149553.396 5  21682717.742                    21682719.645
                        30.900
 112627201.292 8  87761543.37746  21432262.367                    21432263.539
        48.700          39.200
 128994799.421 5                  24546901.305
        34.500
 113039961.469 8  88083012.42146  21510766.492                    21510769.313
        50.900          37.800
 116604803.032 7  90860853.61345  22189156.094                    22189161.910
        46.300          34.100
 114477130.738 8  89202950.56246  21784275.539                    21784281.145
        49.100          38.100
 116083427.202 8  90454727.12146  22089967.734                    22089971.527
        49.700          37.800
 122435100.118 5                  23298632.672
        32.800
 18  3 13 14 14 29.0000000  0 18R10R08R07G14G22R09G03R16R17R18R01G19
                                G25G12G32G24G17G01
                  97191323.037 3  23442224.703                    23442229.527
                        21.600
                  86266821.691 6  20712504.133                    20712505.156
                        41.200
                  95324003.808 5  22895134.164                    22895136.637
                        34.900
 121915307.968 5  94998993.26042  23199721.359                    23199725.379
        35.700          17.400
 123874011.574 6  96525192.76942  23572436.633                    23572436.945
        36.800          16.900
                  82596910.725 7  19887106.453                    19887106.484
                        44.700
 126027894.929 5  98203558.07242  23982305.750                    23982313.027
        35.900          16.300
                  85265784.287 6  20522486.789                    20522488.293
                        38.600
                  85186172.994 6  20467382.109                    20467383.988
                        41.800
                  86435385.897 6  20818618.055                    20818619.844
                        41.700
                  90147689.197 4  21682270.375                    21682271.734
                        29.600
 112627076.885 8  87761446.42046  21432238.242                    21432239.879
        48.600          39.400
 128991226.834 5                  24546221.242
        33.800
 113037939.810 8  88081437.11146  21510381.500                    21510384.719
        50.800          39.400
 116604658.731 7  90860741.17345  22189128.039                    22189134.316
        46.200          32.300
 114479718.597 8  89204967.08246  21784768.195                    21784773.645
        48.200          36.300
 116084776.171 8  90455778.26146  22090224.188                    22090228.336
        50.000          37.900
 122437868.731 5                  23299159.820
        31.600
 18  3 13 14 14 30.0000000  0 18R10R08R07G14G22R09G03R16R17R18R01G19
                                G25G12G32G24G17G01
                  97188158.592 3  23441460.688                    23441466.891
                        22.100
                  86267894.933 6  20712761.438                    20712762.836
                        40.900
                  95327590.259 5  22895994.367                    22895997.309
                        34.900
 121913399.175 6  94997505.90442  23199357.945                    23199362.270
        36.100          17.400
 123873022.504 6  96524422.06842  23572247.953                    23572248.379
        37.300          17.400
                  82595876.279 7  19886857.688                    19886857.379
                        45.200
 126025560.540 5  98201739.05342  23981862.781                    23981868.871
        32.200          15.600
                  85268373.424 6  20523109.914                    20523111.422
                        38.500
                  85187616.716 7  20467728.758                    20467730.043
                        42.100
                  86433537.088 7  20818173.070                    20818175.129
                        42.400
                  90145825.560 5  21681820.930                    21681823.770
                        32.900
 112626953.277 8  87761350.07446  21432214.945                    21432216.426
        49.200          39.600
 128987654.564 5                  24545542.258
        33.000
 113035918.694 8  88079862.21146  21509996.992                    21510000.383
        50.900          39.200
 116604515.133 7  90860629.27745  22189101.102                    22189106.891
        45.800          33.400
 114482307.082 8  89206984.10146  21785260.680                    21785266.715
        48.800          37.100
 116086125.787 8  90456829.90646  22090481.203                    22090484.730
        50.100          37.900
 122440637.979 5                  23299687.703
        33.200
 18  3 13 14 14 31.0000000  0 18R10R08R07G14G22R09G03R16R17R18R01G19
                                G25G12G32G24G17G01
                  97184994.314 3  23440697.820                    23440703.281
                        22.100
                  86268968.919 6  20713018.922                    20713020.465
                        41.200
                  95331177.016 5  22896855.773                    22896859.141
                        35.600
 121911490.841 5  94996018.86442  23198994.641                    23198999.125
        35.700          17.400
 123872033.982 6  96523651.80043  23572059.594                    23572060.340
        39.300          18.600
                  82594842.438 7  19886608.023                    19886608.219
                        44.900
 126023226.695 5  98199920.48642  23981417.211                    23981425.004
        35.000          16.300
                  85270963.045 6  20523733.211                    20523734.297
                        40.000
                  85189061.168 6  20468075.891                    20468077.426
                        41.700
                  86431688.889 7  20817727.969                    20817729.145
                        44.000
                  90143962.519 5  21681373.328                    21681376.082
                        33.300
 112626830.458 8  87761254.35446  21432191.758                    21432193.422
        48.400          38.000
 128984082.395 5                  24544861.641
        33.100
 113033898.168 8  88078287.77546  21509612.352                    21509615.457
        50.300          37.200
 116604372.255 7  90860517.94745  22189073.758                    22189079.824
        45.000          32.800
 114484896.087 8  89209001.51346  21785753.031                    21785759.199
        48.500          36.900
 116087476.057 8  90457882.05846  22090738.211                    22090741.746
        50.300          38.200
 122443407.725 5                  23300213.977
        34.800
 18  3 13 14 14 32.0000000  0 18R10R08R07G14G22R09G03R16R17R18R01G19
                                G25G12G32G24G17G01
                  97181830.146 3  23439934.344                    23439940.520
                        22.300
                  86270043.621 6  20713277.492                    20713278.863
                        40.400
                  95334763.992 5  22897717.344                    22897720.563
                        34.400
 121909582.947 5  94994532.22042  23198631.805                    23198636.035
        35.800          16.900
 123871046.127 5  96522882.04543  23571871.383                    23571872.152
        35.700          18.600
                  82593809.181 7  19886359.313                    19886359.742
                        44.900
 126020893.322 5  98198102.28042  23980972.859                    23980980.609
        33.300          17.400
                  85273553.164 6  20524356.250                    20524358.180
                        39.200
                  85190506.298 7  20468422.609                    20468424.879
                        42.100
                  86429841.227 7  20817282.633                    20817284.012
                        43.200
                  90142100.044 4  21680925.430                    21680927.578
                        29.600
 112626708.399 8  87761159.23646  21432168.227                    21432169.785
        48.400          37.600
 128980510.363 5                  24544182.352
        32.400
 113031878.200 8  88076713.77745  21509227.805                    21509230.910
        49.200          35.000
 116604230.075 7  90860407.14945  22189046.766                    22189053.004
        46.000          32.300
 114487485.688 8  89211019.37945  21786245.992                    21786251.941
        48.200          35.700
 116088826.920 8  90458934.67346  22090995.305                    22090998.855
        50.200          37.800
 122446178.156 5                  23300742.305
        31.000
 18  3 13 14 14 33.0000000  0 18R10R08R07G14G22R09G03R16R17R18R01G19
                                G25G12G32G24G17G01
                  97178666.160 3  23439170.500                    23439176.840
                        22.100
                  86271119.067 6  20713535.984                    20713536.832
                        40.800
                  95338351.191 5  22898578.742                    22898581.891
                        31.300
 121907675.572 5  94993045.95442  23198268.648                    23198273.367
        34.400          15.600
 123870058.767 6  96522112.64543  23571683.227                    23571684.316
        37.300          18.300
                  82592776.508 7  19886110.813                    19886111.039
                        44.200
 126018560.326 5  98196284.39242  23980528.188                    23980536.602
        33.900          16.900
                  85276143.673 6  20524980.063                    20524981.203
                        36.500
                  85191952.106 7  20468770.273                    20468772.262
                        42.300
                  86427994.116 6  20816837.805                    20816839.785
                        40.100
                  90140238.089 5  21680478.664                    21680480.004
                        32.600
 112626587.055 8  87761064.66246  21432145.422                    21432146.770
        49.200          40.100
 128976938.557 5                  24543501.547
        33.900
 113029858.808 8  88075140.22746  21508843.672                    21508846.719
        50.300          36.100
 116604088.554 7  90860296.88645  22189019.898                    22189026.008
        46.300          32.400
 114490075.767 7  89213037.62645  21786738.469                    21786744.563
        47.500          34.300
 116090178.383 8  90459987.75746  22091252.445                    22091255.836
        50.500          38.500
 122448949.037 5                  23301268.953
        31.800
 18  3 13 14 14 34.0000000  0 18R10R08R07G14G22R09G03R16R17R18R01G19
                                G25G12G32G24G17G01
                  97175502.201 3  23438407.836                    23438413.305
                        22.700
                  86272195.154 6  20713794.180                    20713795.113
                        41.800
                  95341938.658 5  22899440.258                    22899443.434
                        33.100
 121905768.725 6  94991560.08842  23197906.625                    23197910.164
        36.700          17.400
 123869071.913 6  96521343.65042  23571496.992                    23571496.707
        37.400          16.900
                  82591744.411 7  19885862.508                    19885862.691
                        44.000
 126016227.777 5  98194466.82442  23980084.250                    23980093.285
        32.600          15.600
                  85278734.738 6  20525604.664                    20525605.605
                        38.200
                  85193398.555 7  20469117.625                    20469119.988
                        42.300
                  86426147.631 6  20816393.492                    20816394.996
                        41.500
                  90138376.744 5  21680029.344                    21680033.059
                        33.300
 112626466.464 8  87760970.65646  21432122.250                    21432123.809
        49.800          40.200
 128973366.880 5                  24542823.086
        34.800
 113027839.882 8  88073567.04146  21508459.711                    21508462.668
        51.000          36.600
 116603947.721 7  90860187.15745  22188992.758                    22188999.156
        46.400          30.400
 114492666.475 7  89215056.36845  21787231.844                    21787237.367
        45.400          30.500
 116091530.449 8  90461041.32346  22091509.711                    22091513.473
        51.000          38.300
 122451720.531 5                  23301796.164
        33.100
 18  3 13 14 14 35.0000000  0 18R10R08R07G14G22R09G03R16R17R18R01G19
                                G25G12G32G24G17G01
                  97172338.413 3  23437645.461                    23437650.609
                        21.400
                  86273271.986 6  20714052.172                    20714053.996
                        40.900
                  95345526.473 5  22900302.305                    22900305.602
                        31.900
 121903862.309 6  94990074.57042  23197543.672                    23197547.328
        36.600          17.400
 123868085.771 6  96520575.23743  23571308.523                    23571308.789
        37.600          18.300
                  82590712.931 7  19885614.414                    19885614.520
                        44.100
 126013895.629 5  98192649.54842  23979641.844                    23979649.348
        33.600          14.800
                  85281326.252 6  20526227.141                    20526228.656
                        36.900
                  85194845.682 6  20469464.914                    20469467.543
                        41.500
                  86424301.712 6  20815948.977                    20815950.148
                        40.800
                  90136515.938 5  21679581.703                    21679586.199
                        35.100
 112626346.625 8  87760877.24646  21432099.672                    21432101.246
        49.400          40.100
 128969795.281 5                  24542143.875
        35.700
 113025821.539 8  88071994.31146  21508075.406                    21508078.609
        51.700          37.900
 116603807.569 7  90860077.94345  22188966.414                    22188972.250
        47.000          31.400
 114495257.654 7  89217075.47245  21787725.117                    21787730.738
        46.100          32.100
 116092883.127 8  90462095.36746  22091767.461                    22091770.852
        50.800          37.700
 122454492.613 5                  23302322.641
        33.400
 18  3 13 14 14 36.0000000  0 18R10R08R07G14G22R09G03R16R17R18R01G19
                                G25G12G32G24G17G01
                  97169174.636 4  23436882.867                    23436887.539
                        24.200
                  86274349.549 6  20714311.617                    20714312.699
                        40.300
                  95349114.521 5  22901164.227                    22901167.141
                        35.200
 121901956.405 5  94988589.46042  23197181.125                    23197184.867
        35.500          16.900
 123867100.126 6  96519807.22743  23571120.891                    23571120.910
        38.800          18.300
                  82589681.997 7  19885365.422                    19885366.066
                        44.700
 126011563.934 6  98190832.62142  23979198.086                    23979205.262
        37.100          14.800
                  85283918.294 6  20526851.648                    20526852.820
                        39.300
                  85196293.531 6  20469813.461                    20469815.430
                        41.000
                  86422456.345 7  20815504.656                    20815505.805
                        43.400
                  90134655.756 5  21679134.852                    21679139.199
                        33.800
 112626227.561 7  87760784.46646  21432077.031                    21432078.551
        47.300          37.900
 128966223.920 5                  24541464.078
        33.100
 113023803.792 8  88070422.04245  21507691.563                    21507694.598
        49.100          34.600
 116603668.072 7  90859969.26445  22188939.828                    22188945.871
        46.500          31.200
 114497849.443 7  89219095.04945  21788217.938                    21788224.195
        45.900          31.600
 116094236.422 8  90463149.89046  22092024.758                    22092028.246
        50.900          38.200
 122457265.164 5                  23302851.117
        35.500
 18  3 13 14 14 37.0000000  0 18R10R08R07G14G22R09G03R16R17R18R01G19
                                G25G12G32G24G17G01
                  97166011.063 3  23436119.945                    23436125.125
                        21.100
                  86275427.864 6  20714570.180                    20714571.961
                        40.400
                  95352702.994 5  22902025.867                    22902029.246
                        34.600
 121900050.953 6  94987104.67142  23196819.359                    23196822.160
        36.800          16.300
 123866115.071 6  96519039.69543  23570933.375                    23570933.945
        37.500          18.300
                  82588651.672 6  19885118.359                    19885117.715
                        39.900
 126009232.864 6  98189016.22442  23978755.305                    23978762.219
        36.400          16.300
                  85286510.739 6  20527475.734                    20527476.785
                        38.200
                  85197742.073 6  20470161.758                    20470162.969
                        40.500
                  86420611.491 6  20815059.727                    20815060.887
                        41.800
                  90132796.039 5  21678687.984                    21678692.160
                        31.600
 112626109.264 7  87760692.28546  21432054.781                    21432056.578
        47.900          38.300
 128962652.94614                  24540784.750
        25.300
 113021786.755 7  88068850.31244  21507307.797                    21507310.297
        43.900          26.100
 116603529.293 7  90859861.15045  22188913.656                    22188919.336
        47.400          33.400
 114500441.710 6  89221114.99243  21788712.563                    21788717.465
        37.700          22.200
 116095590.316 8  90464204.86046  22092282.109                    22092285.770
        50.200          37.700
 122460038.269 5                  23303380.297
        30.800
 18  3 13 14 14 38.0000000  0 18R10R08R07G14G22R09G03R16R17R18R01G19
                                G25G12G32G24G17G01
                                  23435356.516

                  86276506.917 6  20714829.281                    20714830.703
                        41.400
                  95356291.672 5  22902887.516                    22902891.367
                        34.200
 121898145.966 6  94985620.29942  23196455.766                    23196459.957
        37.400          16.300
 123865130.602 6  96518272.57042  23570745.688                    23570746.641
        39.500          17.400
                  82587622.003 7  19884870.055                    19884869.930
                        42.700
 126006902.212 5  98187200.13142  23978310.898                    23978318.484
        35.900          15.600
                  85289103.734 6  20528099.484                    20528100.570
                        40.300
                  85199191.294 6  20470509.781                    20470511.434
                        41.100
                  86418767.271 7  20814615.578                    20814617.582
                        44.000
                  90130936.916 5  21678239.859                    21678244.543
                        34.700
 112625991.816 7  87760600.76046  21432032.273                    21432033.828
        47.700          38.600
 128959081.602 5                  24540104.070
        32.300
 113019770.161 7  88067278.94944  21506924.078                    21506926.500
        46.800          28.300
 116603391.280 8  90859753.61345  22188887.211                    22188893.277
        48.300          35.400
 114503034.571 7  89223135.42044  21789204.563                    21789210.875
        43.300          27.000
 116096944.826 8  90465260.31246  22092540.141                    22092543.508
        51.300          38.000
 122462812.028 5                  23303907.609
        34.900
 18  3 13 14 14 39.0000000  0 18R10R08R07G14G22R09G03R16R17R18R01G19
                                G25G12G32G24G17G01
                                  23434592.156

                  86277586.618 6  20715089.070                    20715089.695
                        40.900
                  95359880.574 5  22903750.484                    22903753.398
                        32.800
 121896241.599 6  94984136.36842  23196093.133                    23196097.387
        36.300          17.400
 123864146.796 6  96517505.96542  23570558.938                    23570559.414
        38.900          17.400
                  82586592.954 7  19884622.727                    19884622.613
                        43.800
 126004571.828 5  98185384.28142  23977867.203                    23977874.902
        34.100          16.900
                  85291697.237 6  20528723.445                    20528725.133
                        40.000
                  85200641.274 6  20470858.102                    20470859.352
                        41.200
                  86416923.632 7  20814171.352                    20814173.109
                        43.600
                  90129078.366 5  21677793.563                    21677798.008
                        34.100
 112625875.070 8  87760509.77046  21432009.844                    21432011.570
        49.200          39.900
 128955510.843 5                  24539424.563
        30.300
 113017753.963 7  88065707.88043  21506540.406                    21506543.426
        45.600          23.300
 116603253.847 7  90859646.51945  22188861.000                    22188867.383
        46.400          31.400
 114505628.67315                  21789698.102
        34.000
 116098300.058 8  90466316.33046  22092798.047                    22092801.434
        50.400          37.900
 122465586.362 5                  23304436.461
        35.400
 18  3 13 14 14 40.0000000  0 18R10R08R07G14G22R09G03R16R17R18R01G19
                                G25G12G32G24G17G01
                                  23433829.719

                  86278667.116 7  20715348.422                    20715349.020
                        42.200
                  95363469.881 6  22904611.375                    22904614.984
                        38.200
 121894337.721 6  94982652.86142  23195731.234                    23195734.773
        37.500          16.300
 123863163.579 6  96516739.82143  23570371.594                    23570372.145
        38.100          19.000
                  82585564.469 7  19884374.609                    19884374.570
                        44.200
 126002242.167 6  98183568.96443  23977424.031                    23977431.551
        37.400          19.000
                  85294291.262 6  20529348.031                    20529349.313
                        36.300
                  85202091.933 6  20471206.828                    20471208.211
                        41.700
                  86415080.597 6  20813727.625                    20813729.086
                        40.100
                  90127220.361 5  21677346.156                    21677350.355
                        33.600
 112625759.144 7  87760419.42245  21431987.852                    21431989.016
        47.500          35.800
 128951940.307 5                  24538746.070
        35.600
 113015738.407 7  88064137.31745  21506156.828                    21506159.422
        47.400          31.600
 116603117.290 7  90859540.10845  22188835.375                    22188841.164
        47.400          33.800
 114508222.10817                  21790192.406
        44.500
 116099655.867 8  90467372.81246  22093056.055                    22093059.461
        51.700          39.500
 122468361.335 5                  23304963.531
        34.600
 18  3 13 14 14 41.0000000  0 17R10R08R07G14G22R09G03R16R17R18R01G19
                                G12G32G24G17G01
                                  23433067.859

                  86279748.299 6  20715607.383                    20715608.477
                        38.700
                  95367059.501 5  22905474.617                    22905477.008
                        33.400
 121892434.190 5  94981169.52742  23195369.320                    23195372.660
        34.100          16.900
 123862180.882 6  96515974.10442  23570185.047                    23570185.820
        37.800          17.400
                  82584536.647 7  19884127.539                    19884127.238
                        45.300
 125999912.906 6  98181753.97242  23976981.398                    23976987.500
        39.800          17.400
                                  20529972.289

                  85203543.247 7  20471555.469                    20471557.852
                        43.100
                                  20813284.281

                  90125362.975 5  21676899.594                    21676904.066
                        34.600
 112625644.258 7  87760329.87544  21431966.172                    21431967.770
        45.300          28.300
 113013723.546 8  88062567.31746  21505772.625                    21505776.238
        48.300          37.100
 116602981.358 7  90859434.18245  22188809.188                    22188815.094
        47.700          31.900
 114510816.446 6                  21790685.273
        41.900
 116101012.351 8  90468429.82045  22093313.773                    22093317.918
        49.100          35.200
 122471136.929 5                  23305491.852
        33.700
 18  3 13 14 14 42.0000000  0 14R08R07G14G22R09G03R17R01G19G12G32G24
                                G17G01
                  86280830.287 6  20715868.070                    20715868.555
                        41.300
                  95370649.471 5  22906337.242                    22906339.125
                        31.900
 121890531.376 5  94979686.82142  23195005.266                    23195010.539
        34.400          16.900
 123861199.009 6  96515208.98443  23569997.375                    23569998.430
        38.200          18.600
                  82583509.409 7  19883879.891                    19883880.027
                        43.700
 125997584.254 6  98179939.46643  23976538.344                    23976545.152
        39.200          18.300
                  85204995.343 6  20471904.656                    20471906.227
                        40.900
                  90123506.146 5  21676453.203                    21676457.492
                        34.800
 112625529.836 7  87760240.71343  21431944.180                    21431946.055
        42.400          22.000
 113011709.312 8  88060997.78746  21505389.617                    21505393.035
        51.400          38.100
 116602846.166 7  90859328.85245  22188783.797                    22188789.695
        46.700          33.600
 114513411.563 8  89231250.37256  21791179.422                    21791185.270
        48.400          37.500
 116102369.448 7  90469487.29344  22093572.367                    22093575.953
        42.000          24.200
 122473912.97615                  23306020.195
        34.000
 18  3 13 14 14 43.0000000  0 15R08R07G14G22R09G03R17R01G19G25G12G32
                                G24G17G01
                  86281912.932 6  20716127.438                    20716128.426
                        40.700
                  95374239.688 5  22907199.688                    22907202.254
                        34.200
 121888629.065 6  94978204.50042  23194645.047                    23194648.551
        37.800          16.300
 123860217.417 6  96514444.06343  23569811.234                    23569811.336
        38.400          19.000
                  82582482.743 7  19883632.445                    19883632.695
                        43.600
 125995255.938 5  98178125.15943  23976095.539                    23976102.000
        35.900          18.600
                  85206448.140 6  20472253.313                    20472255.668
                        41.600
                  90121649.944 5  21676006.164                    21676011.266
                        34.100
 112625416.151 7  87760152.13844  21431922.484                    21431924.066
        43.500          27.200
 128941230.60815                  24536706.148
        32.000
 113009695.588 8  88059428.65546  21505006.875                    21505009.887
        52.100          39.600
 116602711.649 7  90859224.04845  22188757.984                    22188764.039
        46.800          32.700
 114516007.251 7  89233272.97345  21791673.539                    21791679.508
        47.500          34.800
 116103727.191 7  90470545.32245  22093830.383                    22093834.699
        45.800          30.400
 122476689.674 5                  23306549.258
        34.100
 18  3 13 14 14 44.0000000  0 15R08R07G14G22R09G03R17R01G19G25G12G32
                                G24G17G01
                  86282996.261 6  20716386.930                    20716388.691
                        41.100
                  95377830.162 5  22908061.352                    22908064.355
                        32.300
 121886727.142 5  94976722.51742  23194282.641                    23194286.637
        35.500          16.300
 123859236.502 6  96513679.66443  23569623.844                    23569624.957
        38.300          18.300
                  82581456.709 7  19883385.250                    19883385.316
                        45.200
 125992928.083 5  98176311.22342  23975651.797                    23975659.000
        35.900          17.400
                  85207901.606 7  20472602.328                    20472604.238
                        42.300
                  90119794.188 5  21675560.391                    21675564.848
                        33.300
 112625303.354 7  87760064.21844  21431901.086                    21431902.598
        43.900          29.300
 128937660.807 5                  24536027.047
        33.300
 113007682.370 8  88057859.90146  21504623.875                    21504626.230
        52.300          39.700
 116602577.802 7  90859119.76745  22188732.313                    22188738.543
        47.000          32.600
 114518603.463 7  89235296.01145  21792167.195                    21792173.500
        47.800          33.900
 116105085.429 7  90471603.71345  22094088.781                    22094092.926
        47.000          31.900
 122479466.814 5                  23307078.203
        34.400
 18  3 13 14 14 45.0000000  0 17R08R07G14G22R09G03R16R17R18R01G19G25
                                G12G32G24G17G01
                  86284080.260 6  20716647.469                    20716648.539
                        39.400
                  95381420.904 5  22908923.945                    22908925.965
                        35.400
 121884825.661 6  94975240.80742  23193922.109                    23193925.180
        36.700          16.300
 123858256.131 6  96512915.77442  23569437.516                    23569438.316
        36.800          17.400
                  82580431.221 7  19883138.289                    19883138.625
                        44.800
 125990600.716 6  98174497.70143  23975208.891                    23975216.172
        36.400          18.600
                  85307268.87115  20532470.625                    20532472.852
                        34.200
                  85209355.737 7  20472952.211                    20472953.773
                        42.300
                  86405874.45616  20811509.594                    20811511.422
                        40.000
                  90117939.030 5  21675113.820                    21675118.266
                        32.000
 112625191.279 7  87759976.85144  21431880.227                    21431881.555
        43.400          28.600
 128934091.004 5                  24535348.305
        34.700
 113005669.734 8  88056291.60446  21504240.898                    21504243.793
        52.800          39.800
 116602444.689 7  90859016.02745  22188707.008                    22188713.293
        46.400          32.600
 114521200.224 7  89237319.47545  21792661.617                    21792667.832
        46.900          31.900
 116106444.337 7  90472662.62444  22094347.852                    22094351.340
        44.700          28.400
 122482244.518 5                  23307606.266
        33.700
 18  3 13 14 14 46.0000000  0 17R08R07G14G22R09G03R16R17R18R01G19G25
                                G12G32G24G17G01
                  86285165.013 6  20716907.430                    20716909.637
                        39.700
                  95385011.977 5  22909787.430                    22909789.055
                        35.100
 121882924.671 6  94973759.52042  23193559.289                    23193563.262
        37.900          16.300
 123857276.512 5  96512152.47242  23569251.203                    23569251.676
        34.300          16.900
                  82579406.358 7  19882891.742                    19882892.020
                        45.100
 125988273.813 6  98172684.51643  23974765.039                    23974773.332
        36.100          19.000
                  85309865.863 5  20533096.219                    20533098.047
                        35.300
                  85210810.583 6  20473301.508                    20473303.191
                        41.600
                  86404034.953 6  20811066.109                    20811068.402
                        40.600
                  90116084.547 5  21674666.961                    21674672.875
                        33.100
 112625080.046 7  87759890.16044  21431858.992                    21431860.551
        43.000          28.200
 128930521.409 6                  24534669.063
        36.800
 113003657.657 8  88054723.73146  21503857.773                    21503860.813
        52.900          40.000
 116602312.235 7  90858912.83145  22188681.375                    22188687.773
        44.400          31.600
 114523797.545 7  89239343.36245  21793156.469                    21793162.148
        45.700          31.000
 116107803.913 7  90473722.05644  22094606.867                    22094610.223
        44.300          26.900
 122485023.038 4                  23308133.930
        29.900
 18  3 13 14 14 47.0000000  0 17R10R08R07G14G22R09G03R16R17R18R01G19
                                G12G32G24G17G01
                                  23428488.844

                  86286250.584 6  20717167.977                    20717169.578
                        41.000
                  95388603.224 5  22910649.078                    22910651.363
                        34.800
 121881024.102 5  94972278.64242  23193198.289                    23193201.613
        34.400          16.300
 123856297.311 6  96511389.44543  23569063.688                    23569065.238
        39.400          19.300
                  82578382.054 7  19882644.633                    19882645.445
                        44.100
 125985947.348 6  98170871.69443  23974322.719                    23974330.391
        36.300          18.300
                  85312463.312 5  20533721.281                    20533723.996
                        34.400
                  85212266.129 6  20473650.453                    20473653.660
                        39.100
                  86402196.053 6  20810624.164                    20810625.430
                        36.400
                  90114230.520 5  21674222.297                    21674225.566
                        34.900
 112624969.631 6  87759804.11643  21431837.914                    21431839.445
        41.800          22.600
 113001646.130 8  88053156.30445  21503475.000                    21503477.863
        49.600          34.600
 116602180.478 7  90858810.20545  22188656.500                    22188663.066
        45.000          34.600
 114526395.469 7  89241367.69644  21793650.547                    21793655.727
        43.000          25.300
 116109164.185 7  90474782.00243  22094864.734                    22094868.824
        42.000          23.300
 122487801.837 6  95445089.57954  23308662.070                    23308666.301
        38.800          26.700
 18  3 13 14 14 48.0000000  0 16R10R08R07G14G22R09G03R16R17R01G19G25
                                G12G32G17G01
                  97131223.88713  23427728.672                    23427733.723
                        23.800
                  86287336.834 6  20717429.773                    20717431.035
                        40.300
                  95392194.974 4  22911510.461                    22911512.938
                        29.400
 121879124.19916                  23192836.992
        39.700
 123855318.798 6  96510626.94443  23568878.461                    23568879.391
        40.200          20.600
                  82577358.405 7  19882398.359                    19882398.699
                        43.500
 125983621.436 6  98169059.32142  23973880.375                    23973887.629
        38.800          17.400
                                  20534348.500

                  85213722.390 6  20474000.625                    20474002.809
                        40.600
                  90112376.979 5  21673775.922                    21673780.160
                        35.700
 112624859.917 6  87759718.67743  21431816.891                    21431818.785
        40.600          21.300
 128923383.72815                  24533310.336
        35.100
 112999635.230 8  88051589.39345  21503092.344                    21503095.645
        48.200          33.600
 116602049.461 7  90858708.12045  22188631.406                    22188637.656
        45.400          31.800
 116110525.002 7  90475842.32445  22095124.016                    22095127.699
        44.900          30.400
 122490581.462 6                  23309192.375
        36.800
 18  3 13 14 14 49.0000000  0 17R10R08R07G14G22R09G03R16R17R01G19G25
                                G12G32G24G17G01
                  97128061.37613  23426964.313                    23426971.238
                        22.700
                  86288423.800 6  20717690.586                    20717691.656
                        40.700
                  95395786.896 5  22912374.320                    22912376.031
                        35.700
 121877224.791 6  94969318.29653  23192475.539                    23192479.004
        40.300          18.300
 123854340.837 6  96509864.90143  23568692.609                    23568692.938
        38.600          20.900
                  82576335.369 7  19882152.703                    19882152.742
                        43.400
 125981295.942 6  98167247.22943  23973437.422                    23973445.418
        39.900          18.600
                                  20534973.125

                  85215179.336 6  20474350.797                    20474353.066
                        40.500
                  90110524.078 5  21673329.641                    21673333.922
                        34.400
 112624750.919 6  87759633.79743  21431796.313                    21431797.945
        41.700          20.900
 128919814.766 5                  24532630.961
        33.600
 112997624.905 8  88050022.92245  21502709.703                    21502712.965
        48.500          34.400
 116601919.113 7  90858606.54845  22188607.320                    22188613.336
        46.300          32.700
 114531592.74716                  21794639.234
        41.600
 116111886.393 7  90476903.11244  22095383.047                    22095386.531
        46.200          29.000
 122493361.55215                  23309721.898
        35.400
 18  3 13 14 14 50.0000000  0 16R10R08R07G14G22R09G03R17R01G19G25G12
                                G32G24G17G01
                  97124899.664 4  23426202.289                    23426208.363
                        26.200
                  86289511.495 6  20717951.516                    20717952.207
                        38.300
                  95399379.113 5  22913237.742                    22913239.617
                        33.900
 121875325.876 6  94967838.59242  23192114.125                    23192117.578
        38.700          16.300
 123853363.89716                  23568506.406
        37.800
                  82575312.904 7  19881906.297                    19881906.172
                        45.300
 125978970.864 6  98165435.46243  23972995.820                    23973002.566
        39.100          19.600
                  85216636.954 6  20474701.453                    20474702.746
                        41.600
                  90108671.749 5  21672885.977                    21672888.156
                        33.500
 112624642.845 7  87759549.59643  21431775.352                    21431777.016
        42.000          22.800
 128916246.005 6                  24531952.875
        36.300
 112995615.093 8  88048456.82946  21502326.922                    21502330.195
        51.500          38.300
 116601789.452 7  90858505.53545  22188582.445                    22188588.305
        46.700          31.800
 114534192.334 8  89247448.20556  21795133.641                    21795139.680
        48.900          41.400
 116113248.421 7  90477964.45244  22095641.898                    22095646.047
        42.600          26.400
 122496142.149 5                  23310250.781
        35.000
 18  3 13 14 14 51.0000000  0 16R10R08R07G14G22R09G03R17R01G19G25G12
                                G32G24G17G01
                                  23425440.641

                  86290599.860 6  20718213.102                    20718213.965
                        41.800
                  95402971.501 5  22914099.719                    22914102.180
                        34.700
 121873427.386 6  94966359.12942  23191752.234                    23191756.059
        38.100          15.600
 123852386.438 6  96508342.07852  23568319.281                    23568321.246
        39.000          17.800
                  82574291.059 7  19881660.125                    19881660.328
                        44.800
 125976646.272 5  98163624.14243  23972552.391                    23972560.441
        35.800          19.600
                  85218095.249 7  20475051.617                    20475053.645
                        42.500
                  90106819.950 4  21672439.703                    21672443.051
                        29.300
 112624535.418 7  87759465.87044  21431755.398                    21431756.395
        43.200          27.900
 128912677.18116                  24531273.305
        36.300
 112993605.876 8  88046891.22846  21501945.055                    21501948.113
        51.800          39.800
 116601660.517 7  90858405.06145  22188557.742                    22188563.699
        46.200          34.000
 114536792.388 8  89249474.22146  21795628.289                    21795634.504
        50.200          38.700
 116114610.978 7  90479026.21645  22095901.617                    22095905.211
        47.200          31.200
 122498923.72916                  23310779.039
        38.000
 18  3 13 14 14 52.0000000  0 15R08R07G14G22R09G03R17R01G19G25G12G32
                                G24G17G01
                  86291688.972 6  20718474.297                    20718476.176
                        40.700
                  95406564.346 5  22914962.734                    22914965.426
                        34.100
 121871529.549 6  94964880.21342  23191390.961                    23191394.703
        37.900          15.600
 123851410.303 5  96507581.50342  23568134.078                    23568135.652
        35.000          16.300
                  82573269.823 7  19881413.570                    19881414.855
                        45.100
 125974322.334 5  98161813.33643  23972110.406                    23972118.313
        35.100          19.000
                  85219554.281 7  20475402.414                    20475404.816
                        42.300
                  90104968.756 4  21671994.969                    21671997.234
                        27.600
 112624428.842 7  87759382.80144  21431735.180                    21431736.504
        42.900          29.600
 128909108.80616                  24530595.156
        36.400
 112991597.271 8  88045326.06046  21501562.734                    21501565.977
        51.700          38.700
 116601532.294 7  90858305.13845  22188533.305                    22188539.191
        46.800          34.700
 114539393.129 8  89251500.71546  21796123.891                    21796129.422
        51.000          41.300
 116115974.347 7  90480088.61145  22096161.359                    22096164.758
        47.900          32.400
 122501704.970 5                  23311308.719
        34.300
 18  3 13 14 14 53.0000000  0 17R08R07G14G22R09G03R16R17R18R01G19G25
                                G12G32G24G17G01
                  86292778.842 6  20718735.438                    20718737.570
                        40.400
                  95410157.367 5  22915825.492                    22915828.934
                        33.400
 121869632.108 6  94963401.59242  23191029.766                    23191033.605
        36.900          14.800
 123850434.715 5  96506821.30842  23567947.734                    23567949.637
        32.400          15.600
                  82572249.155 7  19881168.328                    19881168.414
                        44.900
 125971998.724 6  98160002.70643  23971668.469                    23971676.176
        36.500          18.300
                  85328058.05715  20537475.031                    20537477.129
                        34.700
                  85221013.933 6  20475753.586                    20475755.266
                        41.600
                  86391175.26317  20807969.289                    20807971.082
                        42.700
                  90103118.109 4  21671550.539                    21671552.141
                        27.500
 112624322.948 6  87759300.31243  21431714.477                    21431715.984
        38.600          21.100
 128905540.35015                  24529914.211
        33.300
 112989589.237 8  88043761.36646  21501180.578                    21501183.945
        50.700          37.700
 116601404.749 7  90858205.74445  22188508.734                    22188515.184
        45.200          32.100
 114541994.304 8  89253527.61546  21796618.719                    21796624.063
        51.400          40.800
 116117337.86716                  22096420.391
        37.000
 122504487.493 5                  23311838.250
        33.600
 18  3 13 14 14 54.0000000  0 17R08R07G14G22R09G03R16R17R18R01G19G25
                                G12G32G24G17G01
                  86293869.421 6  20718997.563                    20718999.047
                        41.100
                  95413750.744 5  22916688.938                    22916691.668
                        34.900
 121867735.008 6  94961923.33342  23190668.766                    23190672.703
        37.300          14.800
 123849459.593 5  96506061.44042  23567762.523                    23567764.469
        33.100          16.300
                  82571229.097 7  19880923.070                    19880922.969
                        44.600
 125969675.425 5  98158192.30642  23971226.406                    23971233.699
        35.800          17.400
                  85330659.151 5  20538100.719                    20538103.270
                        35.100
                  85222474.329 7  20476103.828                    20476105.789
                        43.500
                  86389340.91616  20807527.461                    20807529.020
                        39.700
                  90101268.047 5  21671104.516                    21671106.574
                        30.700
 112624217.804 7  87759218.36845  21431694.992                    21431696.340
        44.900          30.500
 128901972.26315                  24529236.234
        33.700
 112987581.684 8  88042197.04146  21500798.672                    21500801.340
        52.100          37.700
 116601277.868 7  90858106.87145  22188484.836                    22188491.270
        46.100          33.600
 114544596.092 8  89255555.00446  21797113.461                    21797119.434
        51.100          41.000
 116118702.24217                  22096680.469
        47.000
 122507270.334 5                  23312367.430
        32.400
 18  3 13 14 14 55.0000000  0 17R08R07G14G22R09G03R16R17R18R01G19G25
                                G12G32G24G17G01
                  86294960.782 7  20719260.375                    20719261.289
                        42.600
                  95417344.442 5  22917552.930                    22917554.531
                        33.800
 121865838.504 6  94960445.60442  23190307.820                    23190312.219
        37.100          15.600
 123848485.170 5  96505302.10242  23567576.461                    23567578.719
        34.600          16.300
                  82570209.659 7  19880677.156                    19880677.852
                        44.700
 125967352.819 6  98156382.50642  23970784.813                    23970791.930
        36.000          15.600
                  85333260.02116  20538727.195                    20538728.688
                        40.200
                  85223935.447 7  20476455.055                    20476457.266
                        43.200
                  86387506.05317  20807085.828                    20807087.109
                        44.800
                  90099418.545 4  21670659.625                    21670661.781
                        29.400
 112624113.380 8  87759136.98246  21431674.484                    21431676.105
        48.000          37.000
 128898404.216 5                  24528556.711
        32.000
 112985574.793 8  88040633.22246  21500417.086                    21500419.461
        52.100          37.600
 116601151.731 7  90858008.58445  22188461.016                    22188467.172
        46.300          33.200
 114547198.398 8  89257582.78046  21797608.758                    21797614.715
        50.200          40.500
 116120066.906 8                  22096940.391
        48.500
 122510053.856 5                  23312897.758
        32.000
 18  3 13 14 14 56.0000000  0 17R08R07G14G22R09G03R16R17R18R01G19G25
                                G12G32G24G17G01
                  86296052.836 7  20719522.820                    20719523.352
                        42.300
                  95420938.421 5  22918415.008                    22918417.332
                        35.000
 121863942.598 6  94958968.30242  23189947.828                    23189951.516
        38.000          16.300
 123847511.218 6  96504543.14042  23567391.828                    23567393.508
        36.500          16.900
                  82569190.831 7  19880432.063                    19880432.684
                        44.900
 125965030.610 6  98154572.98142  23970342.969                    23970350.285
        37.100          13.900
                  85335861.810 6  20539353.352                    20539354.824
                        38.400
                  85225397.245 7  20476806.586                    20476808.309
                        43.000
                  86385672.330 7  20806644.000                    20806646.195
                        42.500
                  90097569.615 4  21670214.711                    21670216.816
                        29.100
 112624009.896 7  87759056.32745  21431655.305                    21431656.367
        47.400          34.900
 128894836.437 5                  24527877.578
        34.600
 112983568.407 8  88039069.79646  21500034.695                    21500037.613
        52.200          38.400
 116601026.266 7  90857910.82845  22188436.969                    22188443.512
        45.800          33.600
 114549801.239 8  89259610.96646  21798103.945                    21798110.090
        50.100          40.400
 116121432.677 7                  22097199.664
        47.300
 122512837.937 5                  23313426.828
        33.900
 18  3 13 14 14 57.0000000  0 18R10R08R07G14G22R09G03R16R17R18R01G19
                                G25G12G32G24G17G01
                                  23420865.891

                  86297145.575 6  20719785.063                    20719785.484
                        41.500
                  95424532.601 5  22919278.922                    22919281.176
                        31.900
 121862047.015 6  94957491.23342  23189586.594                    23189590.105
        39.400          16.900
 123846537.895 6  96503784.74742  23567207.188                    23567208.098
        38.300          16.300
                  82568172.576 7  19880186.633                    19880187.484
                        45.100
 125962708.872 5  98152763.73642  23969900.531                    23969908.434
        35.700          15.600
                  85338464.081 5  20539979.578                    20539980.848
                        34.500
                  85226859.683 7  20477157.398                    20477159.801
                        42.900
                  86383839.219 6  20806202.992                    20806204.180
                        39.100
                  90095721.154 5  21669770.484                    21669772.754
                        31.800
 112623907.186 7  87758976.30545  21431635.789                    21431637.184
        46.200          30.500
 128891268.781 5                  24527198.906
        32.300
 112981562.597 8  88037506.81846  21499653.070                    21499656.203
        51.000          38.200
 116600901.487 7  90857813.60345  22188413.219                    22188419.480
        45.200          33.500
 114552404.580 8  89261639.53446  21798599.617                    21798605.410
        50.900          40.400
 116122798.990 7                  22097460.320
        47.500
 122515622.584 5                  23313956.789
        31.500
 18  3 13 14 14 58.0000000  0 18R10R08R07G14G22R09G03R16R17R18R01G19
                                G25G12G32G24G17G01
                                  23420102.461

                  86298239.067 6  20720046.883                    20720048.051
                        41.800
                  95428127.057 5  22920142.516                    22920143.852
                        32.300
 121860152.009 6  94956014.60442  23189227.289                    23189229.617
        38.800          16.900
 123845565.249 6  96503026.88842  23567021.953                    23567023.203
        37.500          15.600
                  82567154.902 7  19879941.750                    19879942.031
                        45.100
 125960387.589 5  98150954.88642  23969458.492                    23969466.816
        35.400          16.300
                  85341066.800 5  20540606.109                    20540607.836
                        34.600
                  85228322.813 7  20477509.391                    20477510.707
                        42.400
                  86382006.682 6  20805761.492                    20805762.801
                        39.200
                  90093873.243 5  21669325.828                    21669327.910
                        32.200
 112623805.191 7  87758896.84245  21431616.188                    21431617.480
        46.300          30.800
 128887701.313 5                  24526520.289
        33.300
 112979557.344 8  88035944.26546  21499271.578                    21499274.773
        50.300          38.000
 116600777.416 7  90857716.92245  22188389.578                    22188395.941
        45.100          33.100
 114555008.488 8  89263668.54846  21799095.195                    21799101.004
        51.100          40.200
 116124165.962 7                  22097720.234
        47.500
 122518407.716 5                  23314486.445
        31.300
 18  3 13 14 14 59.0000000  0 18R10R08R07G14G22R09G03R16R17R18R01G19
                                G25G12G32G24G17G01
                                  23419340.734

                  86299333.274 6  20720310.156                    20720310.793
                        41.500
                  95431721.866 5  22921005.727                    22921007.852
                        34.700
 121858257.528 6  94954538.40642  23188865.898                    23188868.902
        38.200          17.400
 123844593.115 6  96502269.40142  23566837.070                    23566837.918
        36.900          16.300
                  82566137.826 7  19879696.922                    19879697.117
                        44.700
 125958066.766 5  98149146.43642  23969016.820                    23969024.883
        32.800          15.600
                  85343670.011 5  20541232.742                    20541234.164
                        34.900
                  85229786.651 7  20477861.359                    20477862.543
                        42.400
                  86380174.725 6  20805320.000                    20805321.543
                        40.200
                  90092026.004 5  21668881.352                    21668884.676
                        33.700
 112623703.949 7  87758817.98145  21431597.055                    21431598.453
        46.400          31.300
 128884134.084 5                  24525841.898
        34.800
 112977552.665 8  88034382.16646  21498890.102                    21498893.184
        50.200          38.100
 116600654.021 7  90857620.77445  22188366.211                    22188372.805
        45.000          33.400
 114557612.961 8  89265698.00146  21799590.672                    21799596.762
        50.700          40.300
 116125533.544 8                  22097980.273
        48.300
 122521193.440 5                  23315015.680
        31.900
 18  3 13 14 15  0.0000000  0 18R10R08R07G14G22R09G03R16R17R18R01G19
                                G25G12G32G24G17G01
                                  23418578.695

                  86300428.227 6  20720573.156                    20720573.469
                        41.700
                  95435316.988 5  22921868.398                    22921871.113
                        33.300
 121856363.524 6  94953062.54042  23188506.320                    23188508.945
        37.500          17.800
 123843621.546 5  96501512.30142  23566652.969                    23566653.434
        35.700          16.300
                  82565121.374 7  19879451.469                    19879451.934
                        44.700
 125955746.496 5  98147338.50642  23968575.688                    23968583.324
        31.900          15.600
                  85346273.758 5  20541859.016                    20541860.668
                        35.500
                  85231251.175 7  20478212.438                    20478214.508
                        42.100
                  86378343.364 6  20804878.852                    20804880.293
                        40.700
                  90090179.346 5  21668436.914                    21668440.711
                        33.800
 112623603.513 7  87758739.74044  21431577.859                    21431579.301
        45.800          29.700
 128880566.937 5                  24525162.867
        31.900
 112975548.566 8  88032820.53746  21498508.891                    21498511.859
        50.400          38.400
 116600531.350 7  90857525.18745  22188342.852                    22188348.992
        44.600          33.600
 114560218.008 8  89267727.90946  21800086.000                    21800092.359
        50.700          40.400
 116126901.778 8  90488615.41156  22098240.430                    22098244.551
        48.600          36.100
 122523979.732 5                  23315545.852
        30.800
 18  3 13 14 15  1.0000000  0 18R10R08R07G14G22R09G03R16R17R18R01G19
                                G25G12G32G24G17G01
                  97090126.26413  23417815.758                    23417821.695
                        22.100
                  86301523.774 6  20720835.727                    20720837.016
                        41.600
                  95438912.345 5  22922732.648                    22922735.102
                        32.800
 121854469.933 6  94951586.98842  23188145.344                    23188148.676
        36.900          16.900
 123842650.548 5  96500755.65742  23566467.320                    23566468.473
        35.400          16.300
                  82564105.489 7  19879207.703                    19879207.844
                        44.400
 125953426.592 5  98145530.82542  23968135.055                    23968141.703
        33.700          14.800
                  85348877.952 5  20542486.695                    20542487.570
                        34.800
                  85232716.369 7  20478565.055                    20478566.711
                        42.600
                  86376512.511 6  20804438.008                    20804439.355
                        40.700
                  90088333.232 5  21667993.258                    21667997.242
                        34.500
 112623503.782 7  87758662.04345  21431558.969                    21431560.465
        45.800          31.600
 128877000.031 5                  24524483.563
        31.200
 112973544.983 8  88031259.31146  21498127.602                    21498130.738
        50.500          38.200
 116600409.347 7  90857430.12645  22188319.516                    22188326.180
        44.900          33.100
 114562823.562 8  89269758.21846  21800581.734                    21800588.266
        50.200          40.500
 116128270.573 8  90489682.01945  22098501.320                    22098504.828
        48.600          35.600
 122526766.575 4                  23316075.945
        29.600
 18  3 13 14 15  2.0000000  0 18R10R08R07G14G22R09G03R16R17R18R01G19
                                G25G12G32G24G17G01
                  97086966.09014  23417054.297                    23417059.570
                        25.700
                  86302620.067 6  20721098.953                    20721100.273
                        41.400
                  95442508.018 5  22923595.898                    22923598.230
                        35.800
 121852576.900 5  94950111.90142  23187784.609                    23187788.313
        35.500          17.800
 123841680.183 6  96499999.49642  23566282.375                    23566283.555
        36.500          15.600
                  82563090.245 7  19878962.930                    19878963.289
                        44.400
 125951107.164 5  98143723.50642  23967693.492                    23967700.543
        34.400          16.900
                  85351482.728 5  20543113.242                    20543114.508
                        35.300
                  85234182.271 7  20478917.234                    20478918.969
                        43.000
                  86374682.306 6  20803997.477                    20803998.703
                        40.700
                  90086487.706 5  21667549.352                    21667553.934
                        35.500
 112623404.879 7  87758584.98545  21431540.094                    21431541.379
        46.200          31.700
 128873433.306 5                  24523805.133
        33.600
 112971542.003 8  88029698.55946  21497746.313                    21497750.203
        49.600          36.900
 116600288.085 7  90857335.63545  22188296.133                    22188302.918
        44.800          33.100
 114565429.712 8  89271788.98346  21801077.711                    21801083.805
        50.800          40.700
 116129640.029 8  90490749.12445  22098761.406                    22098765.348
        48.600          35.700
 122529554.119 5                  23316605.836
        31.000
 18  3 13 14 15  3.0000000  0 18R10R08R07G14G22R09G03R16R17R18R01G19
                                G25G12G32G24G17G01
                  97083805.54214  23416291.305                    23416297.051
                        25.300
                  86303717.068 6  20721362.813                    20721363.234
                        41.200
                  95446103.968 5  22924460.438                    22924462.250
                        35.900
 121850684.305 6  94948637.16842  23187423.773                    23187428.145
        36.100          15.600
 123840710.372 6  96499243.78242  23566098.320                    23566099.316
        37.500          16.300
                  82562075.567 7  19878718.727                    19878719.188
                        44.300
 125948788.228 5  98141916.52542  23967252.313                    23967259.363
        34.300          16.900
                  85354087.957 5  20543740.539                    20543741.852
                        35.300
                  85235648.859 7  20479269.477                    20479271.004
                        43.200
                  86372852.651 6  20803556.313                    20803557.465
                        40.300
                  90084642.687 5  21667105.656                    21667109.824
                        35.600
 112623306.706 7  87758508.48745  21431521.430                    21431522.418
        46.300          32.500
 128869866.707 5                  24523126.992
        34.600
 112969539.582 8  88028138.24846  21497365.313                    21497368.668
        49.500          37.200
 116600167.491 7  90857241.68045  22188273.516                    22188279.734
        45.500          33.900
 114568036.382 8  89273820.14946  21801574.094                    21801579.879
        50.800          40.600
 116131010.075 8  90491816.69246  22099022.250                    22099025.953
        49.000          36.900
 122532342.125 5                  23317136.602
        33.100
 18  3 13 14 15  4.0000000  0 18R10R08R07G14G22R09G03R16R17R18R01G19
                                G25G12G32G24G17G01
                  97080645.554 3  23415528.938                    23415534.895
                        22.800
                  86304814.814 6  20721626.438                    20721627.371
                        40.900
                  95449700.206 5  22925323.570                    22925326.227
                        33.600
 121848792.207 6  94947162.81642  23187064.273                    23187067.961
        36.300          16.900
 123839741.032 6  96498488.47542  23565913.516                    23565914.984
        37.700          17.400
                  82561061.500 7  19878474.523                    19878474.652
                        44.800
 125946469.824 6  98140110.00842  23966811.633                    23966818.402
        36.300          16.900
                  85356693.657 5  20544368.414                    20544369.219
                        35.900
                  85237116.141 7  20479621.797                    20479624.043
                        42.400
                  86371023.563 6  20803115.227                    20803117.238
                        41.000
                  90082798.271 5  21666661.766                    21666666.656
                        34.600
 112623209.293 7  87758432.59245  21431502.695                    21431504.305
        46.700          33.800
 128866300.392 5                  24522448.375
        32.600
 112967537.719 8  88026578.35546  21496984.086                    21496986.969
        51.100          38.000
 116600047.597 7  90857148.26545  22188250.797                    22188256.957
        45.400          33.200
 114570643.626 8  89275851.77046  21802070.336                    21802076.383
        50.100          39.800
 116132380.754 8  90492884.75846  22099283.344                    22099286.930
        49.300          37.200
 122535130.726 5                  23317668.266
        33.900
 18  3 13 14 15  5.0000000  0 18R10R08R07G14G22R09G03R16R17R18R01G19
                                G25G12G32G24G17G01
                  97077485.754 4  23414767.133                    23414772.547
                        24.500
                  86305913.261 6  20721889.688                    20721890.949
                        40.800
                  95453296.720 5  22926187.602                    22926189.316
                        34.600
 121846900.676 6  94945688.89842  23186704.672                    23186708.223
        36.000          16.900
 123838772.451 6  96497733.77342  23565729.125                    23565730.730
        36.100          17.800
                  82560048.036 7  19878230.898                    19878230.625
                        44.600
 125944151.842 6  98138303.76642  23966370.180                    23966376.805
        36.700          16.300
                  85359299.848 5  20544994.039                    20544996.051
                        34.400
                  85238584.129 7  20479974.625                    20479976.723
                        42.300
                  86369195.094 6  20802676.375                    20802676.711
                        39.500
                  90080954.385 5  21666219.227                    21666223.074
                        35.800
 112623112.678 7  87758357.30245  21431484.375                    21431485.875
        47.000          34.100
 128862734.098 5                  24521769.625
        33.900
 112965536.460 8  88025018.93046  21496603.672                    21496606.543
        51.900          38.000
 116599928.384 7  90857055.36045  22188228.172                    22188234.266
        46.300          34.400
 114573251.386 8  89277883.79446  21802566.617                    21802572.715
        49.900          39.200
 116133752.058 8  90493953.29545  22099544.391                    22099547.805
        48.300          35.100
 122537919.883 5                  23318199.477
        34.100
 18  3 13 14 15  6.0000000  0 18R10R08R07G14G22R09G03R16R17R18R01G19
                                G25G12G32G24G17G01
                  97074325.992 3  23414006.141                    23414010.516
                        23.000
                  86307012.408 6  20722153.500                    20722155.012
                        41.500
                  95456893.535 5  22927051.945                    22927053.523
                        33.600
 121845009.604 6  94944215.33942  23186344.273                    23186348.270
        37.000          16.300
 123837804.373 6  96496979.49143  23565545.359                    23565546.480
        38.600          18.600
                  82559035.169 7  19877986.656                    19877987.086
                        44.700
 125941834.277 5  98136497.81742  23965929.211                    23965935.984
        33.100          15.600
                  85361906.553 5  20545621.469                    20545623.555
                        35.600
                  85240052.772 7  20480328.055                    20480329.508
                        42.400
                  86367367.250 6  20802235.734                    20802236.078
                        40.200
                  90079111.086 5  21665776.414                    21665780.176
                        35.000
 112623016.792 7  87758282.57645  21431466.344                    21431467.426
        46.500          33.000
 128859168.064 5                  24521090.242
        34.500
 112963535.752 8  88023459.93846  21496222.836                    21496225.848
        51.400          37.300
 116599809.890 7  90856963.02745  22188205.641                    22188212.340
        46.800          35.200
 114575859.724 8  89279916.27746  21803063.109                    21803068.875
        50.000          39.600
 116135123.957 8  90495022.30946  22099805.242                    22099809.207
        49.500          37.000
 122540709.584 5                  23318730.438
        35.000
 18  3 13 14 15  7.0000000  0 18R10R08R07G14G22R09G03R16R17R18R01G19
                                G25G12G32G24G17G01
                  97071166.503 4  23413243.859                    23413249.047
                        25.900
                  86308112.293 7  20722418.164                    20722418.777
                        42.100
                  95460490.653 5  22927915.672                    22927917.234
                        34.600
 121843119.033 6  94942742.16042  23185984.789                    23185988.367
        37.100          16.900
 123836836.921 6  96496225.66643  23565361.250                    23565362.363
        39.000          18.300
                  82558022.906 7  19877742.516                    19877743.672
                        44.800
 125939517.223 5  98134692.33542  23965487.063                    23965495.383
        33.200          15.600
                  85364513.697 5  20546249.977                    20546250.973
                        35.600
                  85241522.140 6  20480680.719                    20480682.500
                        41.800
                  86365539.928 6  20801795.805                    20801796.633
                        40.900
                  90077268.355 5  21665333.406                    21665337.094
                        33.800
 112622921.653 7  87758208.43445  21431447.977                    21431449.188
        45.800          32.300
 128855602.145 5                  24520412.320
        34.300
 112961535.603 8  88021901.37946  21495842.000                    21495845.320
        50.900          37.600
 116599692.078 7  90856871.22645  22188183.367                    22188189.293
        46.700          35.100
 114578468.588 8  89281949.16746  21803559.469                    21803565.309
        50.200          39.900
 116136496.492 8  90496091.81946  22100066.234                    22100070.016
        49.500          36.900
 122543499.944 5                  23319262.313
        34.600
 18  3 13 14 15  8.0000000  0 18R10R08R07G14G22R09G03R16R17R18R01G19
                                G25G12G32G24G17G01
                  97068007.063 3  23412481.273                    23412487.051
                        23.500
                  86309212.914 7  20722682.531                    20722683.086
                        42.200
                  95464088.041 5  22928779.508                    22928781.414
                        35.000
 121841228.985 6  94941269.38642  23185625.375                    23185628.699
        36.000          17.400
 123835869.987 6  96495472.20243  23565177.602                    23565178.480
        39.200          18.300
                  82557011.245 7  19877499.688                    19877500.176
                        44.800
 125937200.573 5  98132887.17342  23965046.523                    23965054.465
        34.500          14.800
                  85367121.312 6  20546876.836                    20546878.824
                        36.400
                  85242992.191 7  20481034.008                    20481035.609
                        42.000
                  86363713.157 6  20801354.516                    20801356.453
                        41.300
                  90075426.137 5  21664889.977                    21664893.664
                        32.900
 112622827.288 7  87758134.89445  21431429.625                    21431431.324
        45.800          32.000
 128852036.452 5                  24519734.609
        34.000
 112959535.991 8  88020343.24446  21495461.625                    21495464.793
        50.400          37.800
 116599574.947 7  90856779.96545  22188160.844                    22188166.969
        46.100          34.600
 114581078.000 8  89283982.47246  21804055.508                    21804061.711
        50.000          39.400
 116137869.620 8  90497161.80046  22100327.344                    22100331.281
        49.800          37.500
 122546290.740 5                  23319793.172
        34.400
 18  3 13 14 15  9.0000000  0 18R10R08R07G14G22R09G03R16R17R18R01G19
                                G25G12G32G24G17G01
                  97064847.757 3  23411719.328                    23411723.902
                        22.100
                  86310314.252 6  20722947.156                    20722947.719
                        41.900
                  95467685.710 5  22929641.766                    22929645.406
                        35.100
 121839339.372 5  94939796.95342  23185266.172                    23185269.191
        35.400          17.800
 123834903.687 6  96494719.19642  23564993.867                    23564994.434
        39.700          17.400
                  82556000.158 7  19877255.734                    19877256.410
                        44.700
 125934884.392 5  98131082.39542  23964606.086                    23964613.488
        35.800          15.600
                  85369729.402 6  20547505.617                    20547506.227
                        36.800
                  85244462.944 7  20481387.211                    20481388.797
                        42.000
                  86361886.930 6  20800916.172                    20800916.160
                        41.600
                  90073584.486 5  21664447.102                    21664450.262
                        31.700
 112622733.706 7  87758061.97345  21431412.078                    21431413.438
        45.700          31.900
 128848470.895 5                  24519056.266
        33.500
 112957536.952 8  88018785.54946  21495081.297                    21495084.199
        50.600          37.200
 116599458.528 7  90856689.25945  22188139.102                    22188145.215
        46.300          35.200
 114583687.950 8  89286016.20246  21804552.336                    21804558.445
        50.000          39.400
 116139243.355 8  90498232.26046  22100589.172                    22100592.566
        50.000          37.000
 122549082.175 5                  23320324.484
        33.900
 18  3 13 14 15 10.0000000  0 18R10R08R07G14G22R09G03R16R17R18R01G19
                                G25G12G32G24G17G01
                  97061688.632 3  23410957.227                    23410962.551
                        23.500
                  86311416.297 6  20723211.789                    20723212.195
                        41.000
                  95471283.675 6  22930506.586                    22930509.754
                        36.200
 121837450.238 5  94938324.92642  23184906.680                    23184909.516
        35.400          17.800
 123833938.004 6  96493966.67643  23564810.344                    23564810.633
        39.500          18.600
                  82554989.718 7  19877012.352                    19877012.695
                        44.700
 125932568.768 5  98129278.03442  23964165.711                    23964173.074
        35.600          17.800
                  85372337.963 5  20548133.750                    20548134.301
                        34.900
                  85245934.397 6  20481740.391                    20481742.461
                        41.700
                  86360061.262 6  20800475.281                    20800477.051
                        39.300
                  90071743.423 5  21664002.664                    21664006.898
                        33.300
 112622640.956 7  87757989.70545  21431394.719                    21431395.824
        46.800          34.100
 128844905.490 5                  24518376.977
        34.000
 112955538.479 8  88017228.29246  21494700.969                    21494704.105
        50.000          36.600
 116599342.763 7  90856599.04445  22188116.867                    22188123.211
        46.500          33.800
 114586298.473 8  89288050.37146  21805049.172                    21805055.188
        48.200          36.400
 116140617.759 8  90499303.22646  22100850.469                    22100853.977
        49.500          36.700
 122551874.133 6                  23320855.875
        36.600
 18  3 13 14 15 11.0000000  0 18R10R08R07G14G22R09G03R16R17R18R01G19
                                G25G12G32G24G17G01
                  97058529.507 4  23410195.133                    23410200.285
                        25.200
                  86312519.087 6  20723476.016                    20723476.879
                        41.400
                  95474881.893 5  22931371.406                    22931373.984
                        34.500
 121835561.631 5  94936853.26843  23184547.031                    23184550.309
        34.800          18.600
 123832972.861 6  96493214.61243  23564626.180                    23564627.266
        38.500          18.600
                  82553979.861 7  19876769.563                    19876769.883
                        44.900
 125930253.579 5  98127473.97143  23963725.602                    23963732.297
        35.800          18.300
                  85374947.074 6  20548761.625                    20548761.898
                        36.900
                  85247406.513 7  20482095.086                    20482096.098
                        42.200
                  86358236.257 6  20800035.711                    20800037.680
                        41.100
                  90069902.929 5  21663560.289                    21663564.492
                        33.800
 112622548.931 7  87757917.99845  21431377.086                    21431378.438
        46.900          33.200
 128841340.319 5                  24517698.148
        34.300
 112953540.640 8  88015671.53546  21494320.438                    21494324.363
        51.200          37.700
 116599227.768 7  90856509.43245  22188094.953                    22188101.031
        47.100          35.400
 114588909.607 8  89290085.01146  21805546.211                    21805552.012
        49.900          39.400
 116141992.773 8  90500374.67446  22101112.148                    22101116.074
        49.600          36.800
 122554666.673 5                  23321387.531
        35.900
 18  3 13 14 15 12.0000000  0 18R10R08R07G14G22R09G03R16R17R18R01G19
                                G25G12G32G24G17G01
                  97055370.655 4  23409432.961                    23409438.199
                        24.600
                  86313622.585 6  20723740.617                    20723741.891
                        41.500
                  95478480.485 5  22932235.492                    22932237.914
                        34.900
 121833673.560 5  94935382.00143  23184187.969                    23184191.383
        34.700          18.600
 123832008.301 6  96492463.04642  23564442.430                    23564443.242
        38.200          17.800
                  82552970.585 7  19876526.758                    19876526.684
                        44.700
 125927938.887 5  98125670.28842  23963285.461                    23963292.348
        35.300          17.400
                  85377556.647 6  20549389.492                    20549390.027
                        37.100
                  85248879.308 7  20482448.227                    20482450.008
                        42.100
                  86356411.803 6  20799596.320                    20799598.117
                        41.400
                  90068063.004 5  21663117.422                    21663121.387
                        33.300
 112622457.679 7  87757846.90045  21431359.547                    21431360.723
        46.800          33.000
 128837775.280 5                  24517020.578
        35.300
 112951543.338 8  88014115.18846  21493940.734                    21493943.773
        51.100          38.100
 116599113.453 7  90856420.36245  22188073.242                    22188079.816
        46.700          35.000
 114591521.271 8  89292120.06646  21806043.352                    21806049.383
        50.300          39.200
 116143368.392 8  90501446.58646  22101374.094                    22101377.590
        50.300          37.200
 122557459.834 5                  23321918.875
        35.500
 18  3 13 14 15 13.0000000  0 18R10R08R07G14G22R09G03R16R17R18R01G19
                                G25G12G32G24G17G01
                  97052211.831 3  23408671.461                    23408676.547
                        21.600
                  86314726.746 6  20724006.344                    20724006.977
                        41.300
                  95482079.282 5  22933099.938                    22933102.707
                        35.800
 121831785.842 5  94933911.03143  23183827.969                    23183831.758
        34.200          18.300
 123831044.365 6  96491711.93143  23564259.328                    23564260.020
        38.700          19.300
                  82551961.919 7  19876283.641                    19876284.023
                        44.600
 125925624.593 5  98123866.93742  23962844.297                    23962851.609
        34.600          17.400
                  85380166.669 6  20550016.828                    20550018.582
                        36.600
                  85250352.794 7  20482802.359                    20482804.086
                        42.000
                  86354587.953 6  20799157.227                    20799158.684
                        41.200
                  90066223.626 5  21662675.680                    21662678.609
                        33.300
 112622367.166 7  87757776.37145  21431342.133                    21431343.832
        46.100          32.000
 128834210.452 5                  24516342.125
        34.800
 112949546.563 8  88012559.25946  21493560.773                    21493564.336
        51.000          38.000
 116598999.796 7  90856331.79245  22188051.359                    22188057.219
        46.400          34.100
 114594133.470 8  89294155.53946  21806540.273                    21806546.211
        50.400          39.200
 116144744.606 8  90502518.97546  22101635.922                    22101639.848
        50.200          37.600
 122560253.531 5                  23322450.922
        35.800
 18  3 13 14 15 14.0000000  0 18R10R08R07G14G22R09G03R16R17R18R01G19
                                G25G12G32G24G17G01
                  97049053.155 3  23407910.695                    23407914.332
                        22.800
                  86315831.667 6  20724271.438                    20724272.840
                        41.500
                  95485678.334 5  22933965.242                    22933966.594
                        35.800
 121829898.760 5  94932440.59443  23183468.734                    23183472.750
        34.000          18.600
 123830080.868 6  96490961.15043  23564076.578                    23564076.875
        38.800          18.600
                  82550953.820 7  19876040.813                    19876041.648
                        44.800
 125923310.728 5  98122063.95042  23962403.930                    23962411.313
        35.600          16.900
                  85382777.165 6  20550645.281                    20550647.004
                        36.500
                  85251826.980 7  20483155.734                    20483158.164
                        42.100
                  86352764.669 6  20798718.617                    20798719.461
                        40.700
                  90064384.819 5  21662233.555                    21662236.492
                        32.100
 112622277.406 7  87757706.43145  21431325.453                    21431326.711
        46.000          32.000
 128830645.713 5                  24515662.844
        35.000
 112947550.342 8  88011003.76146  21493180.992                    21493184.422
        51.900          38.300
 116598886.807 7  90856243.74045  22188029.539                    22188036.375
        46.500          34.000
 114596746.206 8  89296191.43746  21807037.266                    21807043.406
        50.300          39.600
 116146121.440 8  90503591.85446  22101897.859                    22101901.480
        50.700          37.700
 122563047.708 5                  23322983.078
        35.700
 18  3 13 14 15 15.0000000  0 18R10R08R07G14G22R09G03R16R17R18R01G19
                                G25G12G32G24G17G01
                  97045894.649 3  23407149.656                    23407152.918
                        21.900
                  86316937.259 6  20724536.922                    20724537.570
                        41.100
                  95489277.710 6  22934829.383                    22934831.488
                        36.300
 121828012.069 5  94930970.46442  23183110.414                    23183113.949
        32.800          17.400
 123829117.998 6  96490210.82743  23563892.586                    23563893.844
        38.100          19.600
                  82549946.316 7  19875798.664                    19875798.797
                        44.700
 125920997.391 6  98120261.37742  23961963.938                    23961971.164
        36.000          17.400
                  85385388.147 5  20551274.328                    20551275.109
                        35.800
                  85253301.831 7  20483511.133                    20483512.836
                        42.200
                  86350941.981 6  20798278.586                    20798280.137
                        40.500
                  90062546.561 5  21661790.969                    21661793.930
                        32.500
 112622188.435 7  87757637.10045  21431308.266                    21431309.738
        45.100          32.500
 128827081.222 5                  24514985.273
        35.000
 112945554.707 8  88009448.72546  21492801.141                    21492804.434
        51.000          37.900
 116598774.563 7  90856156.26545  22188008.750                    22188015.145
        46.500          34.000
 114599359.493 8  89298227.75846  21807534.586                    21807540.895
        49.800          38.600
 116147498.878 8  90504665.20446  22102160.266                    22102163.699
        49.700          36.900
 122565842.493 6                  23323514.406
        37.300
 18  3 13 14 15 16.0000000  0 18R10R08R07G14G22R09G03R16R17R18R01G19
                                G25G12G32G24G17G01
                  97042736.210 3  23406386.828                    23406391.055
                        22.100
                  86318043.640 6  20724802.586                    20724803.742
                        41.400
                  95492877.321 6  22935693.398                    22935695.887
                        36.200
 121826125.925 5  94929500.74742  23182751.453                    23182754.906
        33.400          17.400
 123828155.814 6  96489461.07843  23563709.438                    23563710.078
        38.300          20.100
                  82548939.440 7  19875556.102                    19875556.645
                        44.700
 125918684.496 6  98118459.11643  23961524.086                    23961530.859
        36.900          19.000
                  85387999.605 5  20551902.695                    20551903.719
                        34.900
                  85254777.337 7  20483865.625                    20483867.422
                        42.200
                  86349119.814 6  20797840.117                    20797841.195
                        40.000
                  90060708.856 5  21661349.742                    21661352.047
                        32.600
 112622100.229 7  87757568.37145  21431291.953                    21431293.086
        45.900          32.500
 128823516.880 5                  24514306.258
        35.100
 112943559.616 8  88007894.10646  21492421.625                    21492424.977
        51.300          37.900
 116598662.940 7  90856069.27545  22187987.375                    22187993.578
        46.900          33.500
 114601973.295 8  89300264.48446  21808032.219                    21808038.227
        49.900          39.200
 116148876.921 8  90505739.02046  22102422.234                    22102425.875
        49.600          36.000
 122568637.832 6                  23324046.531
        37.600
 18  3 13 14 15 17.0000000  0 18R10R08R07G14G22R09G03R16R17R18R01G19
                                G25G12G32G24G17G01
                  97039577.950 3  23405625.289                    23405629.391
                        22.100
                  86319150.744 6  20725068.445                    20725069.605
                        41.200
                  95496477.314 5  22936558.617                    22936560.695
                        35.600
 121824240.202 5  94928031.35343  23182393.070                    23182395.984
        33.600          18.300
 123827194.129 6  96488711.70543  23563527.055                    23563527.496
        38.500          20.100
                  82547933.151 7  19875313.633                    19875314.262
                        44.800
 125916372.136 6  98116657.25143  23961083.602                    23961091.387
        37.600          18.600
                  85390611.534 5  20552531.570                    20552532.051
                        34.800
                  85256253.544 6  20484220.164                    20484222.227
                        41.900
                  86347298.237 6  20797401.727                    20797403.227
                        40.200
                  90058871.706 5  21660908.000                    21660910.055
                        31.000
 112622012.786 7  87757500.22645  21431275.313                    21431276.352
        46.300          33.300
 128819952.697 5                  24513628.633
        34.800
 112941565.107 8  88006339.94246  21492041.883                    21492045.262
        51.500          38.000
 116598552.093 7  90855982.90145  22187966.297                    22187972.391
        46.000          32.300
 114604587.662 8  89302301.65546  21808529.594                    21808535.441
        49.800          38.800
 116150255.610 8  90506813.34045  22102684.602                    22102688.352
        49.800          35.400
 122571433.735 6                  23324578.742
        38.000
 18  3 13 14 15 18.0000000  0 18R10R08R07G14G22R09G03R16R17R18R01G19
                                G25G12G32G24G17G01
                  97036419.810 3  23404861.461                    23404867.406
                        21.600
                  86320258.533 6  20725334.219                    20725335.156
                        40.400
                  95500077.544 5  22937422.898                    22937425.254
                        35.800
 121822355.003 5  94926562.32542  23182033.969                    23182037.250
        33.800          17.800
 123826233.029 6  96487962.80143  23563343.742                    23563343.996
        39.500          20.400
                  82546927.466 7  19875071.352                    19875072.176
                        44.800
 125914060.182 6  98114855.71143  23960643.875                    23960650.594
        37.100          18.300
                  85393223.961 5  20553159.656                    20553161.031
                        35.400
                  85257730.458 7  20484574.102                    20484576.922
                        42.200
                  86345477.263 6  20796963.539                    20796964.355
                        40.000
                  90057035.128 5  21660465.813                    21660467.934
                        31.200
 112621926.117 7  87757432.69045  21431258.594                    21431259.895
        46.700          33.300
 128816388.741 5                  24512950.508
        34.600
 112939571.150 8  88004786.21046  21491662.516                    21491665.648
        51.200          37.600
 116598441.896 7  90855897.02445  22187945.477                    22187951.582
        45.000          32.000
 114607202.574 8  89304339.24646  21809027.469                    21809033.391
        49.900          38.600
 116151634.901 8  90507888.13245  22102946.938                    22102950.980
        49.600          35.900
 122574230.239 6                  23325111.570
        37.900
 18  3 13 14 15 19.0000000  0 18R10R08R07G14G22R09G03R16R17R18R01G19
                                G25G12G32G24G17G01
                  97033261.807 3  23404100.422                    23404106.113
                        23.300
                  86321367.061 6  20725600.461                    20725601.609
                        40.900
                  95503678.071 5  22938287.727                    22938289.824
                        33.600
 121820470.375 5  94925093.76842  23181674.227                    23181678.574
        33.300          17.400
 123825272.547 6  96487214.37443  23563161.438                    23563161.402
        38.700          20.600
                  82545922.392 7  19874829.094                    19874830.047
                        44.700
 125911748.745 5  98113054.57542  23960203.875                    23960211.145
        35.600          17.400
                  85395836.909 6  20553789.188                    20553790.422
                        38.300
                  85259208.079 6  20484929.648                    20484932.012
                        41.600
                  86343656.885 6  20796525.164                    20796525.949
                        41.300
                  90055199.089 5  21660024.461                    21660026.121
                        30.000
 112621840.210 7  87757365.75245  21431242.297                    21431243.586
        44.400          31.300
 128812824.854 5                  24512272.391
        32.200
 112937577.775 8  88003232.93446  21491283.258                    21491286.332
        50.900          37.700
 116598332.448 7  90855811.75545  22187924.523                    22187930.570
        45.700          34.200
 114609818.030 8  89306377.26846  21809524.766                    21809530.770
        49.500          37.700
 116153014.813 8  90508963.39846  22103209.664                    22103213.160
        49.800          37.400
 122577027.313 6                  23325643.445
        37.200
 18  3 13 14 15 20.0000000  0 18R10R08R07G14G22R09G03R16R17R18R01G19
                                G25G12G32G24G17G01
                  97030103.968 3  23403338.719                    23403344.402
                        21.900
                  86322476.311 6  20725867.375                    20725868.609
                        40.600
                  95507278.830 5  22939151.930                    22939154.719
                        33.300
 121818586.170 5  94923625.57242  23181316.344                    23181319.980
        33.600          17.400
 123824312.635 6  96486466.37543  23562978.367                    23562978.953
        38.400          19.900
                  82544917.914 7  19874587.719                    19874588.301
                        44.900
 125909437.763 6  98111253.84342  23959764.836                    23959771.371
        36.100          17.400
                  85398450.290 6  20554417.953                    20554419.293
                        38.200
                  85260686.372 6  20485285.234                    20485287.078
                        41.800
                  86341837.028 6  20796086.547                    20796087.406
                        41.500
                  90053363.657 5  21659582.648                    21659585.121
                        30.400
 112621755.090 7  87757299.43145  21431226.344                    21431227.707
        44.900          31.900
 128809261.233 5                  24511593.742
        34.000
 112935584.986 8  88001680.11046  21490903.828                    21490906.871
        51.000          37.600
 116598223.699 7  90855727.04445  22187903.703                    22187910.148
        45.400          32.700
 114612434.050 8  89308415.73346  21810022.375                    21810028.559
        49.800          38.300
 116154395.354 8  90510039.15846  22103472.391                    22103475.945
        50.200          37.200
 122579824.920 6                  23326175.930
        36.100
 18  3 13 14 15 21.0000000  0 18R10R08R07G14G22R09G03R16R17R18R01G19
                                G25G12G32G24G17G01
                                  23402576.969

                  86323586.253 6  20726133.922                    20726134.402
                        40.600
                  95510879.932 5  22940016.680                    22940020.090
                        33.000
 121816702.499 5  94922157.78242  23180958.688                    23180961.902
        33.000          17.400
 123823353.274 6  96485718.80943  23562795.766                    23562796.242
        39.500          20.400
                  82543914.023 7  19874345.516                    19874346.457
                        44.700
 125907127.197 5  98109453.42742  23959324.672                    23959331.805
        35.700          17.800
                  85401064.207 6  20555046.648                    20555048.266
                        38.100
                  85262165.335 7  20485640.633                    20485641.824
                        42.100
                  86340017.752 6  20795647.859                    20795649.215
                        40.600
                  90051528.749 5  21659140.969                    21659144.043
                        30.800
 112621670.753 7  87757233.72245  21431210.352                    21431211.391
        45.700          32.400
 128805697.748 5                  24510915.359
        33.300
 112933592.743 8  88000127.71246  21490524.828                    21490527.918
        51.200          37.700
 116598115.633 7  90855642.86445  22187883.422                    22187889.301
        46.000          33.600
 114615050.594 8  89310454.59846  21810520.305                    21810526.633
        49.800          37.600
 116155776.501 8  90511115.39846  22103734.945                    22103738.758
        49.700          36.800
 122582623.040 6                  23326707.852
        37.300
 18  3 13 14 15 22.0000000  0 18R10R08R07G14G22R09G03R16R17R18R01G19
                                G25G12G32G24G17G01
                                  23401815.625

                  86324696.985 6  20726401.000                    20726401.066
                        40.400
                  95514481.338 5  22940881.445                    22940884.629
                        32.100
 121814819.312 5  94920690.41142  23180599.055                    23180603.305
        32.900          17.400
 123822394.600 6  96484971.79843  23562613.609                    23562614.289
        39.000          19.900
                  82542910.753 7  19874104.383                    19874104.984
                        44.500
 125904817.168 5  98107653.39742  23958885.234                    23958892.246
        35.500          17.400
                  85403678.594 6  20555676.602                    20555677.773
                        36.700
                  85263645.065 7  20485995.680                    20485997.750
                        42.000
                  86338199.095 6  20795209.828                    20795211.293
                        40.000
                  90049694.475 5  21658700.438                    21658702.809
                        31.000
 112621587.229 7  87757168.64645  21431194.656                    21431195.293
        45.800          32.000
 128802134.532 5                  24510237.211
        31.800
 112931601.081 8  87998575.77046  21490146.039                    21490148.809
        51.500          37.700
 116598008.242 7  90855559.19845  22187862.977                    22187868.965
        46.000          33.200
 114617667.711 8  89312493.91646  21811018.227                    21811024.598
        48.200          36.600
 116157158.288 8  90512192.13146  22103998.367                    22104001.680
        49.700          37.000
 122585421.816 6                  23327240.805
        37.200
 18  3 13 14 15 23.0000000  0 18R10R08R07G14G22R09G03R16R17R18R01G19
                                G25G12G32G24G17G01
                                  23401054.047

                  86325808.396 6  20726666.859                    20726668.047
                        40.800
                  95518083.035 5  22941747.594                    22941749.824
                        33.800
 121812936.604 5  94919223.43342  23180242.016                    23180244.887
        32.500          16.300
 123821436.472 6  96484225.21543  23562430.875                    23562431.820
        39.200          19.300
                  82541908.085 7  19873862.523                    19873863.430
                        44.800
 125902507.609 5  98105853.73442  23958445.688                    23958452.285
        34.400          17.800
                  85406293.502 6  20556307.172                    20556306.559
                        36.800
                  85265125.452 6  20486351.641                    20486353.543
                        41.800
                  86336381.026 6  20794772.336                    20794773.391
                        40.000
                  90047860.743 5  21658259.266                    21658261.820
                        31.400
 112621504.441 7  87757104.12745  21431178.508                    21431179.438
        46.000          32.700
 128798571.489 5                  24509559.555
        33.700
 112929610.021 8  87997024.30346  21489766.969                    21489770.617
        52.300          37.600
 116597901.581 7  90855476.09745  22187842.469                    22187848.691
        46.700          33.400
 114620285.394 8  89314533.67346  21811516.586                    21811522.289
        49.000          37.100
 116158540.673 8  90513269.31746  22104260.695                    22104264.531
        49.200          36.200
 122588221.158 6                  23327773.039
        36.500
 18  3 13 14 15 24.0000000  0 18R10R08R07G14G22R09G03R16R17R18R01G19
                                G25G12G32G24G17G01
                                  23400294.836

                  86326920.574 6  20726933.758                    20726934.910
                        40.400
                  95521685.007 5  22942612.773                    22942615.238
                        33.300
 121811054.450 5  94917756.76842  23179883.023                    23179886.723
        31.000          14.800
 123820478.918 6  96483479.03742  23562248.961                    23562249.785
        39.000          17.800
                  82540906.013 7  19873621.602                    19873622.168
                        44.600
 125900198.530 5  98104054.43342  23958006.039                    23958012.980
        33.700          17.800
                  85408908.954 6  20556935.125                    20556936.500
                        36.500
                  85266606.494 6  20486707.672                    20486709.906
                        41.600
                  86334563.599 6  20794334.875                    20794335.883
                        39.800
                  90046027.563 5  21657818.969                    21657820.910
                        31.700
 112621422.392 7  87757040.19145  21431163.102                    21431164.074
        44.000          31.700
 128795008.612 5                  24508881.984
        34.500
 112927619.490 8  87995473.23746  21489388.352                    21489391.457
        52.000          37.500
 116597795.608 7  90855393.52145  22187822.352                    22187828.508
        46.700          32.700
 114622903.584 8  89316573.82546  21812014.781                    21812021.109
        48.700          36.500
 116159923.631 8  90514346.96146  22104524.430                    22104527.660
        49.600          36.800
 122591021.050 6                  23328306.195
        36.100
 18  3 13 14 15 25.0000000  0 18R10R08R07G14G22R09G03R16R17R18R01G19
                                G25G12G32G24G17G01
                                  23399531.242

                  86328033.459 6  20727201.313                    20727202.902
                        41.000
                  95525287.235 5  22943478.523                    22943479.918
                        34.200
 121809172.767 5  94916290.53242  23179524.492                    23179528.578
        35.700          15.600
 123819521.923 6  96482733.29642  23562066.633                    23562067.188
        36.500          17.800
                  82539904.574 7  19873380.500                    19873381.293
                        44.400
 125897889.895 5  98102255.53942  23957567.164                    23957573.945
        33.400          17.400
                  85411524.793 5  20557565.297                    20557565.957
                        35.800
                  85268088.258 6  20487063.563                    20487065.387
                        41.400
                  86332746.715 6  20793896.594                    20793898.379
                        40.200
                  90044194.988 5  21657377.461                    21657380.805
                        31.800
 112621341.087 7  87756976.82145  21431147.555                    21431148.441
        43.900          31.600
 128791445.858 5                  24508203.117
        33.400
 112925629.587 8  87993922.64346  21489009.453                    21489012.383
        51.100          37.800
 116597690.363 7  90855311.49245  22187802.492                    22187808.547
        46.100          32.600
 114625522.393 8  89318614.44746  21812513.336                    21812519.219
        50.300          39.500
 116161307.266 8  90515425.12946  22104787.336                    22104791.156
        49.500          36.400
 122593821.475 6                  23328838.805
        36.000
 18  3 13 14 15 26.0000000  0 18R10R08R07G14G22R09G03R16R17R18R01G19
                                G25G12G32G24G17G01
                                  23398769.234

                  86329147.008 6  20727468.703                    20727469.590
                        40.400
                  95528889.725 5  22944343.781                    22944345.160
                        32.900
 121807291.569 5  94914824.64742  23179167.156                    23179170.977
        35.800          16.900
 123818565.684 6  96481988.17043  23561885.117                    23561885.566
        36.800          18.300
                  82538903.727 7  19873139.758                    19873139.875
                        44.600
 125895581.756 5  98100456.99542  23957127.469                    23957134.590
        35.500          16.900
                  85414141.147 6  20558194.891                    20558196.359
                        36.100
                  85269570.716 6  20487419.883                    20487421.941
                        41.000
                  86330930.479 6  20793459.461                    20793460.332
                        40.400
                  90042362.991 5  21656936.758                    21656940.023
                        31.400
 112621260.610 7  87756914.09145  21431131.945                    21431133.230
        46.800          35.900
 128787883.339 5                  24507525.242
        33.700
 112923640.217 8  87992372.47846  21488631.109                    21488634.281
        50.900          37.300
 116597585.820 7  90855230.03145  22187782.594                    22187788.730
        46.400          32.700
 114628141.722 8  89320655.47046  21813011.906                    21813017.887
        50.200          40.000
 116162691.541 8  90516503.79746  22105051.008                    22105054.656
        50.800          39.200
 122596622.505 6                  23329371.828
        36.300
 18  3 13 14 15 27.0000000  0 18R10R08R07G14G22R09G03R16R17R18R01G19
                                G25G12G32G24G17G01
                  97008008.18613  23398007.727                    23398013.883
                        21.100
                  86330261.324 6  20727735.820                    20727737.027
                        41.200
                  95532492.545 5  22945209.813                    22945210.379
                        34.600
 121805410.858 6  94913359.11442  23178808.938                    23178812.660
        36.600          15.600
 123817609.720 6  96481243.28942  23561703.070                    23561703.715
        36.500          16.900
                  82537903.464 7  19872898.742                    19872899.125
                        44.600
 125893274.140 6  98098658.88042  23956688.570                    23956695.316
        36.100          17.800
                  85416757.903 5  20558823.727                    20558825.125
                        34.400
                  85271053.873 7  20487776.930                    20487777.164
                        42.200
                  86329114.803 6  20793022.016                    20793023.043
                        39.400
                  90040531.563 5  21656496.727                    21656499.777
                        32.400
 112621180.938 7  87756852.00345  21431116.523                    21431117.852
        46.600          34.100
 128784320.985 5                  24506847.281
        32.300
 112921651.431 8  87990822.77746  21488252.359                    21488255.672
        50.700          37.200
 116597481.965 7  90855149.11045  22187762.445                    22187768.824
        46.200          33.400
 114630761.581 8  89322696.90546  21813510.172                    21813516.211
        50.100          39.300
 116164076.398 8  90517582.91546  22105314.336                    22105318.332
        50.000          37.600
 122599424.103 6                  23329905.852
        37.200
 18  3 13 14 15 28.0000000  0 18R10R08R07G14G22R09G03R16R17R18R01G19
                                G25G12G32G24G17G01
                  97004851.56714  23397246.461                    23397253.203
                        25.200
                  86331376.371 6  20728004.352                    20728005.047
                        41.400
                  95536095.697 6  22946073.805                    22946076.625
                        36.800
 121803530.729 5  94911894.03042  23178450.922                    23178455.008
        35.000          16.300
 123816654.532 6  96480499.00942  23561520.789                    23561522.063
        36.700          17.400
                  82536903.821 7  19872658.234                    19872659.105
                        44.600
 125890966.935 5  98096861.12342  23956248.969                    23956256.289
        35.500          16.900
                  85419375.158 5  20559454.992                    20559455.602
                        35.500
                  85272537.724 6  20488132.695                    20488134.695
                        41.700
                  86327299.707 6  20792584.945                    20792586.074
                        39.600
                  90038700.672 5  21656055.188                    21656059.207
                        32.500
 112621101.987 7  87756790.48045  21431101.570                    21431103.336
        46.500          33.500
 128780758.797 6                  24506170.289
        36.300
 112919663.188 8  87989273.50946  21487873.820                    21487877.652
        50.300          37.200
 116597378.807 7  90855068.72945  22187742.789                    22187749.090
        45.800          33.400
 114633381.998 8  89324738.81446  21814009.125                    21814015.211
        49.300          39.200
 116165461.874 8  90518662.51646  22105578.070                    22105581.520
        51.500          39.000
 122602226.306 6                  23330438.914
        36.000
 18  3 13 14 15 29.0000000  0 18R10R08R07G14G22R09G03R16R17R18R01G19
                                G25G12G32G24G17G01
                  97001694.31614  23396485.711                    23396491.715
                        25.800
                  86332492.147 6  20728272.148                    20728272.871
                        40.900
                  95539699.029 6  22946939.969                    22946941.957
                        36.000
 121801650.966 5  94910429.27542  23178092.688                    23178097.391
        35.500          15.600
 123815699.962 6  96479755.17142  23561339.422                    23561340.719
        36.900          16.900
                  82535904.797 7  19872417.414                    19872418.066
                        44.700
 125888660.192 5  98095063.65842  23955810.172                    23955817.234
        35.200          17.400
                  85421992.897 6  20560084.133                    20560085.590
                        36.100
                  85274022.253 6  20488489.555                    20488491.270
                        41.700
                  86325485.147 6  20792148.180                    20792148.742
                        39.800
                  90036870.373 5  21655615.352                    21655618.883
                        31.900
 112621023.836 7  87756729.58545  21431087.320                    21431088.117
        47.400          34.500
 128777196.715 5                  24505491.688
        33.400
 112917675.521 8  87987724.68146  21487495.484                    21487499.172
        50.000          37.100
 116597276.314 7  90854988.86445  22187723.320                    22187729.391
        45.500          32.700
 114636002.967 8  89326781.14946  21814507.789                    21814514.012
        50.200          39.000
 116166847.961 8  90519742.59246  22105841.836                    22105845.555
        51.000          38.100
 122605029.088 5                  23330972.008
        35.400
 18  3 13 14 15 30.0000000  0 18R10R08R07G14G22R09G03R16R17R18R01G19
                                G25G12G32G24G17G01
                  96998537.808 3  23395724.195                    23395730.289
                        22.800
                  86333608.632 6  20728540.203                    20728541.070
                        40.400
                  95543302.736 5  22947804.859                    22947807.449
                        33.300
 121799771.795 6  94908964.97242  23177735.695                    23177740.305
        37.100          17.400
 123814745.866 6  96479011.69542  23561157.398                    23561158.641
        36.200          17.800
                  82534906.383 7  19872176.664                    19872177.461
                        44.500
 125886353.935 5  98093266.55142  23955371.953                    23955378.738
        34.500          16.900
                  85424611.076 6  20560714.328                    20560715.320
                        36.000
                  85275507.430 6  20488846.109                    20488847.852
                        41.900
                  86323671.162 6  20791711.094                    20791712.234
                        40.200
                  90035040.574 5  21655174.672                    21655179.172
                        32.900
 112620946.411 7  87756669.26045  21431072.203                    21431073.418
        47.800          34.500
 128773634.891 5                  24504814.461
        34.900
 112915688.424 8  87986176.29846  21487117.922                    21487120.926
        50.500          37.800
 116597174.512 7  90854909.56445  22187704.086                    22187710.363
        46.200          32.400
 114638624.494 8  89328823.89646  21815006.570                    21815012.871
        50.300          39.400
 116168234.656 8  90520823.15246  22106105.750                    22106109.566
        50.000          36.800
 122607832.304 5                  23331505.422
        33.400
