     2.11           OBSERVATION DATA    M (MIXED)           RINEX VERSION / TYPE
teqc  2018Mar15                         20180319 14:17:32UTCPGM / RUN BY / DATE
Linux 2.6.32-573.12.1.x86_64|x86_64|gcc -static|Linux 64|=+ COMMENT
END OF STATIC MODE OBSERVATION                              COMMENT
BIT 2 OF LLI FLAGS DATA COLLECTED UNDER A/S CONDITION       COMMENT
-Unknown-                                                   MARKER NAME
4625                                                        MARKER NUMBER
-Unknown-           -Unknown-                               OBSERVER / AGENCY
5127468778          TRIMBLE             4.63                REC # / TYPE / VERS
47477114                            NONE                    ANT # / TYPE
  6266234.6428        0.0000  1185522.1970                  APPROX POSITION XYZ
        0.0000        0.0000        0.0000                  ANTENNA: DELTA H/E/N
     1     1                                                WAVELENGTH FACT L1/2
     7    L1    L2    C1    P1    P2    S1    S2            # / TYPES OF OBSERV
    18                                                      LEAP SECONDS
 SNR is mapped to RINEX snr flag value [0-9]                COMMENT
  L1 & L2: min(max(int(snr_dBHz/6), 0), 9)                  COMMENT
  2018     3    13    12    37    3.0000000     GPS         TIME OF FIRST OBS
                                                            END OF HEADER
 18  3 13 12 37  3.0000000  0 15G10R17R07G11R15G15R06R24R16R23G17G19
                                G24G28G01
 116755444.115 7  90978387.10743  22217843.484                    22217850.305
        42.100          22.000
                  89781896.971 4  21571579.227                    21571580.738
                        29.300
                  83833778.425 5  20135385.898                    20135388.188
                        30.200
 117673392.521 7  91693583.32043  22392507.281                    22392510.035
        43.300          22.300
                  86039754.188 3  20701501.617                    20701504.449
                        23.200
 121030803.584 7  94309768.07843  23031404.617                    23031409.121
        44.100          22.800
                  89633552.562 3  21596512.695                    21596513.391
                        22.500
                  84456647.692 3  20306337.125                    20306338.832
                        22.300
                  81316888.543 4  19572034.680                    19572035.039
                        28.600
                                  22213464.141

 120078028.865 7  93567333.25944  22850095.742                    22850098.984
        46.500          26.200
 125708719.509 6  97954847.10842  23921571.438                    23921575.191
        37.100          17.800
 111472284.153 7  86861513.88444  21212466.039                    21212472.598
        44.700          25.400
 117598820.725 7  91635456.53443  22378315.523                    22378319.031
        43.000          22.200
 119129545.837 6  92828309.75243  22669614.953                    22669622.438
        41.400          21.800
 18  3 13 12 37  4.0000000  0 15G10R17R07G11R15G15R06R24R16R23G17G19
                                G24G28G01
 116756665.964 7  90979339.20343  22218075.977                    22218083.164
        43.300          22.500
                  89779436.087 6  21570987.977                    21570989.324
                        36.200
                  83833969.109 6  20135431.328                    20135433.668
                        36.500
 117673964.864 7  91694029.31244  22392616.398                    22392619.105
        44.600          24.700
                  86042612.253 5  20702189.328                    20702192.270
                        31.000
 121034442.563 7  94312603.65044  23032097.172                    23032101.340
        45.600          27.400
                  89636776.483 4  21597289.820                    21597290.453
                        27.000
                  84457214.481 4  20306474.063                    20306475.133
                        28.000
                  81315829.388 5  19571779.273                    19571780.316
                        35.400
                                  22214246.148

 120075865.540 7  93565647.54645  22849684.070                    22849687.227
        47.900          32.100
 125705262.403 6  97952153.28142  23920914.328                    23920916.977
        39.500          17.800
 111471047.777 7  86860550.47545  21212230.883                    21212237.129
        46.000          31.600
 117601564.446 7  91637594.50544  22378837.531                    22378840.543
        44.100          28.300
 119128202.063 7  92827262.65643  22669359.508                    22669367.148
        42.600          23.000
 18  3 13 12 37  5.0000000  0 15G10R17R07G11R15G15R06R24R16R23G17G19
                                G24G28G01
 116757888.690 7  90980291.98743  22218309.125                    22218315.402
        44.100          22.200
                  89776975.800 5  21570396.773                    21570398.363
                        35.900
                  83834160.658 6  20135477.250                    20135479.840
                        36.700
 117674538.160 7  91694476.04544  22392725.180                    22392728.375
        44.500          24.700
                  86045470.869 5  20702876.063                    20702880.066
                        32.000
 121038082.075 7  94315439.62544  23032790.094                    23032793.570
        45.700          26.600
                  89640000.952 4  21598066.781                    21598067.477
                        27.400
                  84457782.150 4  20306610.156                    20306611.613
                        28.100
                  81314771.012 5  19571524.227                    19571526.000
                        35.200
                                  22215030.016

 120073702.853 7  93563962.33745  22849272.703                    22849275.934
        47.900          31.400
 125701805.749 6  97949459.78742  23920256.375                    23920259.492
        40.300          17.800
 111469812.156 7  86859587.65745  21211995.977                    21212001.855
        46.400          31.900
 117604308.740 7  91639732.92644  22379359.586                    22379363.098
        44.400          28.600
 119126859.122 7  92826216.21844  22669104.063                    22669111.367
        42.500          25.200
 18  3 13 12 37  6.0000000  0 15G10R17R07G11R15G15R06R24R16R23G17G19
                                G24G28G01
 116759112.206 7  90981245.37543  22218542.125                    22218548.730
        43.600          22.600
                  89774516.040 5  21569805.945                    21569807.523
                        35.600
                  83834353.032 6  20135523.953                    20135525.672
                        36.500
 117675112.288 7  91694923.43844  22392833.820                    22392837.488
        44.400          25.800
                  86048329.978 5  20703565.102                    20703567.723
                        32.200
 121041722.032 7  94318275.94744  23033482.719                    23033486.418
        45.200          27.900
                  89643225.914 4  21598844.070                    21598844.426
                        27.700
                  84458350.676 4  20306746.594                    20306747.949
                        28.000
                  81313713.279 5  19571269.648                    19571271.578
                        35.400
                                  22215813.109

 120071540.694 7  93562277.54545  22848861.461                    22848864.426
        47.000          31.800
 125698349.467 6  97946766.58343  23919599.477                    23919601.777
        39.600          18.300
 111468577.249 7  86858625.40445  21211761.156                    21211767.285
        46.100          31.700
 117607053.540 7  91641871.73244  22379882.328                    22379885.203
        44.100          28.100
 119125516.936 6  92825170.35244  22668848.781                    22668856.184
        41.700          25.200
 18  3 13 12 37  7.0000000  0 15G10R17R07G11R15G15R06R24R16R23G17G19
                                G24G28G01
 116760336.560 7  90982199.41644  22218774.672                    22218781.164
        45.400          26.400
                  89772056.818 6  21569215.813                    21569216.457
                        36.300
                  83834546.243 6  20135571.531                    20135572.422
                        37.300
 117675687.303 7  91695371.52144  22392944.211                    22392947.117
        44.300          26.800
                  86051189.607 5  20704253.461                    20704256.188
                        32.700
 121045362.505 7  94321112.67744  23034175.781                    23034179.133
        45.600          28.700
                  89646451.381 4  21599621.156                    21599621.613
                        29.900
                  84458920.049 4  20306884.195                    20306884.633
                        29.600
                  81312656.244 6  19571014.977                    19571016.496
                        36.100
                                  22216595.727

 120069379.135 7  93560593.21345  22848449.641                    22848452.793
        47.200          31.600
 125694893.547 6  97944073.66243  23918941.594                    23918944.012
        39.800          18.600
 111467343.072 7  86857663.71945  21211526.609                    21211532.023
        46.000          31.600
 117609798.880 7  91644010.95444  22380404.820                    22380407.785
        44.400          29.800
 119124175.531 7  92824125.08644  22668593.008                    22668600.227
        42.000          25.700
 18  3 13 12 37  8.0000000  0 15G10R17R07G11R15G15R06R24R16R23G17G19
                                G24G28G01
 116761561.703 7  90983154.07445  22219008.281                    22219014.816
        47.300          30.400
                  89769598.111 6  21568625.000                    21568625.898
                        38.200
                  83834740.258 6  20135616.352                    20135618.859
                        38.000
 117676263.202 7  91695820.24844  22393053.414                    22393056.285
        45.400          26.500
                  86054049.766 5  20704940.180                    20704944.582
                        34.000
 121049003.468 7  94323949.79444  23034868.672                    23034871.906
        46.700          29.600
                  89649677.412 5  21600397.727                    21600398.535
                        31.000
                  84459490.251 5  20307020.602                    20307021.512
                        30.100
                  81311599.965 6  19570760.805                    19570762.813
                        37.600
                                  22217377.234

 120067218.137 7  93558909.32245  22848038.242                    22848041.742
        47.000          31.600
 125691438.084 6  97941381.10943  23918283.469                    23918286.215
        41.300          19.900
 111466109.663 7  86856702.63745  21211291.500                    21211297.578
        47.200          31.500
 117612544.742 7  91646150.58645  22380927.078                    22380930.121
        45.200          31.000
 119122834.889 7  92823080.44044  22668337.844                    22668345.551
        43.400          27.000
 18  3 13 12 37  9.0000000  0 15G10R17R07G11R15G15R06R24R16R23G17G19
                                G24G28G01
 116762787.690 7  90984109.38344  22219241.258                    22219247.707
        47.600          29.600
                  89767140.042 6  21568034.367                    21568035.340
                        38.300
                  83834935.218 6  20135663.391                    20135665.926
                        39.500
 117676840.043 7  91696269.72944  22393162.984                    22393166.094
        45.000          25.100
                  86056910.513 5  20705628.352                    20705632.633
                        35.100
 121052644.973 7  94326787.34145  23035561.656                    23035565.008
        47.100          30.200
                  89652903.930 5  21601175.195                    21601176.141
                        30.900
                  84460061.354 5  20307157.859                    20307158.582
                        31.300
                  81310544.390 6  19570507.164                    19570508.520
                        37.900
                                  22218160.148

 120065057.784 7  93557225.93945  22847627.406                    22847630.465
        47.600          31.400
 125687983.040 6  97938688.85943  23917626.117                    23917628.539
        41.500          20.600
 111464877.034 8  86855742.14245  21211056.625                    21211062.551
        48.400          33.700
 117615291.234 7  91648290.71544  22381449.898                    22381452.902
        45.100          29.300
 119121495.148 7  92822036.49144  22668083.266                    22668090.395
        42.500          26.200
 18  3 13 12 37 10.0000000  0 15G10R17R07G11R15G15R06R24R16R23G17G19
                                G24G28G01
 116764014.488 8  90985065.31645  22219474.852                    22219480.973
        49.200          32.200
                  89764682.495 6  21567443.680                    21567444.695
                        38.700
                  83835130.880 6  20135710.539                    20135713.023
                        38.700
 117677417.723 7  91696719.87744  22393272.758                    22393276.594
        43.800          26.500
                  86059771.707 5  20706318.227                    20706320.746
                        34.000
 121056286.943 7  94329625.23745  23036254.188                    23036258.059
        46.100          30.100
                  89656130.914 5  21601953.094                    21601953.914
                        30.900
                  84460633.277 5  20307296.430                    20307296.500
                        31.700
                  81309489.473 6  19570252.813                    19570254.551
                        36.100
                                  22218944.516

 120062897.950 8  93555542.95345  22847216.484                    22847219.766
        48.000          31.700
 125684528.330 6  97935996.85943  23916968.508                    23916971.461
        40.600          21.100
 111463645.123 7  86854782.20644  21210822.086                    21210828.691
        46.800          29.700
 117618038.200 7  91650431.20345  22381972.453                    22381975.742
        45.900          30.700
 119120156.037 7  92820993.02644  22667828.273                    22667835.477
        43.600          26.800
 18  3 13 12 37 11.0000000  0 15G10R17R07G11R15G15R06R24R16R23G17G19
                                G24G28G01
 116765242.100 8  90986021.89445  22219708.344                    22219714.770
        49.100          30.900
                  89762225.540 6  21566853.242                    21566854.672
                        39.000
                  83835327.420 6  20135757.383                    20135759.824
                        39.600
 117677996.299 7  91697170.70844  22393382.953                    22393386.410
        43.800          26.300
                  86062633.438 5  20707007.336                    20707009.551
                        34.300
 121059929.386 7  94332463.48945  23036947.586                    23036951.129
        47.300          31.600
                  89659358.484 5  21602730.477                    21602731.570
                        30.800
                  84461206.071 5  20307433.336                    20307433.914
                        31.600
                  81308435.330 6  19569999.805                    19570000.547
                        36.200
                                  22219727.469

 120060738.716 8  93553860.41745  22846805.281                    22846808.340
        48.100          32.100
 125681074.022 6  97933305.17143  23916310.688                    23916314.215
        39.400          21.700
 111462413.896 7  86853822.82244  21210587.961                    21210594.457
        45.300          28.900
 117620785.717 7  91652572.10444  22382495.789                    22382499.059
        44.800          29.700
 119118817.762 7  92819950.22944  22667573.445                    22667580.543
        43.400          26.700
 18  3 13 12 37 12.0000000  0 15G10R17R07G11R15G15R06R24R16R23G17G19
                                G24G28G01
 116766470.519 7  90986979.11844  22219942.070                    22219948.316
        47.700          29.200
                  89759769.080 6  21566262.656                    21566263.734
                        38.900
                  83835524.787 6  20135804.781                    20135807.379
                        39.800
 117678575.768 7  91697622.23044  22393493.367                    22393496.566
        45.000          26.800
                  86065495.735 5  20707694.758                    20707698.938
                        34.300
 121063572.306 7  94335302.13745  23037640.672                    23037643.910
        47.000          30.800
                  89662586.528 4  21603508.844                    21603510.016
                        29.800
                  84461779.737 5  20307571.422                    20307572.035
                        32.500
                  81307381.864 6  19569746.125                    19569747.441
                        37.400
                                  22220511.109

 120058580.055 8  93552178.33745  22846394.656                    22846397.727
        48.800          31.700
 125677620.141 6  97930613.81843  23915652.836                    23915656.727
        39.000          21.100
 111461183.394 7  86852864.01244  21210353.633                    21210360.156
        44.500          28.900
 117623533.798 7  91654713.46244  22383018.453                    22383021.586
        44.800          29.600
 119117480.304 7  92818908.05644  22667318.797                    22667326.414
        42.500          26.500
 18  3 13 12 37 13.0000000  0 15G10R17R07G11R15G15R06R24R16R23G17G19
                                G24G28G01
 116767699.801 7  90987937.03044  22220176.141                    22220182.273
        47.100          28.700
                  89757313.234 6  21565673.117                    21565674.168
                        39.000
                  83835723.041 6  20135853.273                    20135855.094
                        39.600
 117679156.161 7  91698074.48244  22393603.516                    22393606.875
        45.000          26.500
                  86068358.620 5  20708383.109                    20708386.887
                        34.900
 121067215.780 7  94338141.20745  23038333.586                    23038337.402
        47.200          30.200
                  89665815.103 4  21604286.828                    21604286.871
                        29.600
                  84462354.312 5  20307709.297                    20307710.109
                        32.800
                  81306329.147 6  19569492.133                    19569494.102
                        37.500
                                  22221295.133

 120056422.039 8  93550496.75445  22845984.320                    22845987.008
        49.300          32.100
 125674166.634 6  97927922.77843  23914996.227                    23914999.203
        39.500          20.900
 111459953.753 7  86851905.85044  21210120.227                    21210126.230
        44.600          29.100
 117626282.445 7  91656855.26045  22383541.352                    22383544.734
        45.200          30.200
 119116143.646 7  92817866.50044  22667064.594                    22667071.902
        42.800          25.800
 18  3 13 12 37 14.0000000  0 15G10R17R07G11R15G15R06R24R16R23G17G19
                                G24G28G01
 116768929.957 7  90988895.60544  22220409.883                    22220416.734
        47.100          29.500
                  89754857.938 6  21565083.164                    21565084.180
                        38.600
                  83835922.146 6  20135900.984                    20135902.938
                        38.500
 117679737.479 7  91698527.44444  22393714.305                    22393717.902
        44.300          25.600
                  86071221.990 5  20709073.078                    20709076.273
                        35.300
 121070859.813 7  94340980.71545  23039027.117                    23039031.074
        47.000          30.300
                  89669044.188 4  21605065.336                    21605065.426
                        29.900
                  84462929.751 5  20307846.664                    20307848.473
                        31.900
                  81305277.156 6  19569239.391                    19569240.449
                        37.000
                                  22222077.047

 120054264.617 8  93548815.64845  22845573.469                    22845576.598
        48.500          32.000
 125670713.560 6  97925232.08543  23914339.695                    23914342.559
        40.400          20.900
 111458724.858 7  86850948.26844  21209886.180                    21209892.488
        44.800          29.100
 117629031.653 7  91658997.50945  22384064.805                    22384067.926
        45.200          30.500
 119114807.757 7  92816825.55144  22666810.953                    22666817.457
        43.900          28.600
 18  3 13 12 37 15.0000000  0 15G10R17R07G11R15G15R06R24R16R23G17G19
                                G24G28G01
 116770160.943 7  90989854.79745  22220644.172                    22220650.961
        47.500          31.100
                  89752403.238 6  21564493.492                    21564494.563
                        38.900
                  83836122.120 6  20135948.508                    20135951.176
                        38.800
 117680319.704 7  91698981.12444  22393824.898                    22393828.434
        44.600          25.600
                  86074085.949 5  20709762.063                    20709766.035
                        34.500
 121074504.324 8  94343820.58545  23039720.664                    23039724.695
        48.000          32.300
                  89672273.848 4  21605843.086                    21605843.555
                        29.600
                  84463506.048 5  20307986.078                    20307987.410
                        32.400
                  81304225.889 6  19568986.594                    19568987.723
                        36.400
                                  22222861.305

 120052107.811 8  93547135.02345  22845162.813                    22845166.141
        48.300          31.800
 125667260.943 6  97922541.76843  23913682.883                    23913685.270
        40.000          20.100
 111457496.754 7  86849991.28444  21209652.266                    21209658.098
        43.900          26.700
 117631781.418 7  91661140.19344  22384587.469                    22384591.574
        45.000          29.700
 119113472.758 7  92815785.30244  22666556.797                    22666563.738
        43.600          26.500
 18  3 13 12 37 16.0000000  0 15G10R17R07G11R15G15R06R24R16R23G17G19
                                G24G28G01
 116771392.683 7  90990814.57045  22220878.828                    22220885.129
        47.700          31.700
                  89749949.045 6  21563903.297                    21563904.852
                        39.300
                  83836322.893 6  20135996.516                    20135999.332
                        39.100
 117680902.751 7  91699435.44244  22393935.992                    22393939.492
        44.500          26.100
                  86076950.414 5  20710449.477                    20710454.559
                        33.900
 121078149.282 8  94346660.80745  23040413.938                    23040418.363
        48.000          32.000
                  89675503.997 5  21606621.555                    21606621.523
                        30.700
                  84464083.185 5  20308124.820                    20308126.051
                        31.600
                  81303175.313 6  19568733.047                    19568734.570
                        36.800
                                  22223644.414

 120049951.528 8  93545454.80545  22844752.984                    22844755.844
        48.700          32.200
 125663808.686 6  97919851.72043  23913025.609                    23913028.570
        39.900          19.000
 111456269.306 7  86849034.81344  21209418.992                    21209424.551
        44.100          27.600
 117634531.685 7  91663283.26045  22385110.906                    22385114.395
        45.100          30.000
 119112138.462 7  92814745.60644  22666302.961                    22666310.207
        43.700          28.400
 18  3 13 12 37 17.0000000  0 15G10R17R07G11R15G15R06R24R16R23G17G19
                                G24G28G01
 116772625.163 7  90991774.93444  22221113.531                    22221119.664
        47.500          29.100
                  89747495.435 6  21563313.367                    21563315.539
                        39.900
                  83836524.521 6  20136045.477                    20136048.000
                        39.300
 117681486.675 7  91699890.45144  22394046.789                    22394050.176
        43.600          25.400
                  86079815.408 5  20711139.609                    20711143.613
                        35.000
 121081794.752 7  94349501.42145  23041107.523                    23041112.223
        47.800          30.800
                  89678734.646 4  21607398.727                    21607399.895
                        29.300
                  84464661.157 5  20308264.586                    20308264.715
                        31.900
                  81302125.434 6  19568479.930                    19568481.262
                        37.900
                                  22224429.797

 120047795.822 8  93543775.03745  22844342.625                    22844346.016
        48.800          31.500
 125660356.788 6  97917161.94243  23912368.844                    23912371.555
        40.300          19.600
 111455042.564 7  86848078.90945  21209185.406                    21209191.516
        45.700          30.000
 117637282.517 7  91665426.76645  22385634.578                    22385638.059
        45.300          30.500
 119110804.962 7  92813706.52044  22666049.086                    22666055.766
        44.300          26.700
 18  3 13 12 37 18.0000000  0 15G10R17R07G11R15G15R06R24R16R23G17G19
                                G24G28G01
 116773858.520 7  90992735.99544  22221348.523                    22221354.531
        46.800          29.000
                  89745042.335 6  21562724.930                    21562726.172
                        40.600
                  83836726.911 6  20136094.148                    20136096.004
                        40.000
 117682071.479 7  91700346.15044  22394158.914                    22394161.828
        43.900          26.700
                  86082680.879 5  20711830.117                    20711833.465
                        35.200
 121085440.709 7  94352342.41245  23041801.195                    23041806.191
        47.000          30.700
                  89681965.770 5  21608177.484                    21608177.938
                        30.300
                  84465240.023 5  20308403.305                    20308404.238
                        31.900
                  81301076.238 6  19568228.727                    19568229.695
                        37.800
                                  22225212.914

 120045640.683 8  93542095.72245  22843932.328                    22843935.676
        48.400          31.800
 125656905.312 6  97914472.46443  23911711.945                    23911714.824
        39.700          19.600
 111453816.561 7  86847123.60144  21208951.570                    21208958.301
        46.300          29.900
 117640033.861 7  91667570.65945  22386158.344                    22386161.473
        46.000          30.800
 119109472.224 7  92812668.00744  22665795.883                    22665802.363
        44.600          27.300
 18  3 13 12 37 19.0000000  0 15G10R17R07G11R15G15R06R24R16R23G17G19
                                G24G28G01
 116775092.719 7  90993697.72644  22221582.859                    22221589.105
        47.500          29.100
                  89742589.813 6  21562135.422                    21562136.785
                        40.800
                  83836930.148 6  20136142.828                    20136145.270
                        39.800
 117682657.193 7  91700802.54244  22394270.078                    22394273.027
        43.900          25.600
                  86085546.931 5  20712519.078                    20712521.895
                        35.100
 121089087.152 7  94355183.78645  23042495.102                    23042499.887
        46.900          30.500
                  89685197.399 4  21608956.797                    21608956.660
                        29.700
                  84465819.718 5  20308543.070                    20308543.496
                        32.800
                  81300027.743 6  19567975.891                    19567976.906
                        38.000
                                  22225997.484

 120043486.149 8  93540416.87145  22843522.398                    22843525.629
        48.400          32.000
 125653454.227 6  97911783.27543  23911054.469                    23911057.676
        38.900          19.300
 111452591.317 7  86846168.88145  21208718.695                    21208724.934
        46.300          30.200
 117642785.742 7  91669714.96845  22386681.656                    22386684.738
        46.300          30.800
 119108140.264 7  92811630.11244  22665542.109                    22665549.000
        43.900          27.400
 18  3 13 12 37 20.0000000  0 15G10R17R07G11R15G15R06R24R16R23G17G19
                                G24G28G01
 116776327.767 7  90994660.11444  22221817.789                    22221824.059
        47.500          29.700
                  89740137.854 6  21561546.227                    21561547.949
                        40.500
                  83837134.229 6  20136192.172                    20136193.758
                        39.500
 117683243.821 7  91701259.64944  22394381.406                    22394384.781
        43.700          24.500
                  86088413.557 5  20713208.344                    20713212.055
                        34.500
 121092734.117 7  94358025.56744  23043189.523                    23043193.770
        46.600          29.800
                  89688429.563 4  21609734.984                    21609735.504
                        29.700
                  84466400.320 5  20308682.289                    20308682.688
                        33.000
                  81298979.993 6  19567723.148                    19567725.094
                        38.000
                                  22226781.742

 120041332.201 8  93538738.47545  22843112.688                    22843115.848
        48.600          32.100
 125650003.545 6  97909094.41243  23910398.141                    23910401.008
        38.900          19.600
 111451366.818 7  86845214.73445  21208486.102                    21208491.680
        46.400          31.300
 117645538.201 7  91671859.73545  22387205.703                    22387209.016
        46.100          30.500
 119106809.137 7  92810592.86344  22665288.289                    22665295.500
        43.900          27.000
 18  3 13 12 37 21.0000000  0 15G10R17R07G11R15G15R06R24R16R23G17G19
                                G24G28G01
 116777563.602 7  90995623.10444  22222052.789                    22222059.148
        47.800          29.300
                  89737686.455 6  21560956.172                    21560958.539
                        40.100
                  83837339.159 6  20136240.586                    20136243.207
                        39.800
 117683831.329 7  91701717.45744  22394493.438                    22394496.387
        43.800          24.900
                  86091280.674 5  20713899.023                    20713902.070
                        35.200
 121096381.566 7  94360867.72644  23043883.664                    23043888.160
        46.200          29.500
                  89691662.247 4  21610514.852                    21610514.520
                        28.900
                  84466981.764 5  20308821.289                    20308823.098
                        32.600
                  81297932.960 6  19567472.453                    19567473.141
                        38.200
                                  22227566.578

 120039178.823 8  93537060.51845  22842702.469                    22842706.156
        48.300          31.300
 125646553.227 6  97906405.87143  23909741.836                    23909744.730
        39.600          20.900
 111450143.072 7  86844261.16245  21208253.195                    21208258.980
        46.300          31.100
 117648291.179 7  91674004.91845  22387729.305                    22387732.926
        45.900          31.100
 119105478.781 7  92809556.22544  22665035.156                    22665042.781
        43.400          28.200
 18  3 13 12 37 22.0000000  0 15G10R17R07G11R15G15R06R24R16R23G17G19
                                G24G28G01
 116778800.199 7  90996586.68244  22222288.422                    22222294.871
        45.300          24.400
                  89735235.554 6  21560368.094                    21560369.699
                        40.000
                  83837544.917 6  20136290.734                    20136292.824
                        38.300
 117684419.675 7  91702175.91244  22394605.930                    22394608.047
        43.800          25.100
                  86094148.238 5  20714589.852                    20714592.398
                        35.400
 121100029.442 7  94363710.24144  23044578.086                    23044582.313
        46.100          29.300
                  89694895.381 5  21611293.461                    21611293.727
                        31.900
                  84467564.058 5  20308961.750                    20308962.488
                        32.800
                  81296886.585 6  19567220.758                    19567221.227
                        38.800
                                  22228351.039

 120037025.968 8  93535382.95745  22842292.734                    22842295.980
        48.400          31.200
 125643103.271 6  97903717.62643  23909086.109                    23909088.184
        40.600          21.700
 111448919.997 8  86843308.09745  21208020.750                    21208026.059
        48.000          33.000
 117651044.634 7  91676150.46844  22388253.258                    22388256.688
        45.800          29.300
 119104149.106 7  92808520.11144  22664781.898                    22664789.441
        44.100          28.300
 18  3 13 12 37 23.0000000  0 15G10R17R07G11R15G15R06R24R16R23G17G19
                                G24G28G01
 116780037.705 6  90997550.96343  22222523.672                    22222530.133
        39.000          19.300
                  89732785.229 6  21559779.219                    21559781.047
                        39.700
                  83837751.484 6  20136339.953                    20136341.898
                        39.100
 117685008.844 7  91702635.02444  22394717.930                    22394720.516
        44.600          27.300
                  86097016.324 5  20715278.727                    20715282.418
                        34.900
 121103677.793 7  94366553.10345  23045272.758                    23045276.262
        47.000          30.100
                  89698128.962 5  21612072.578                    21612073.066
                        33.800
                  84468147.104 5  20309102.406                    20309102.867
                        31.900
                  81295840.863 6  19566967.680                    19566969.813
                        38.500
                                  22229135.359

 120034873.647 8  93533705.82345  22841883.523                    22841886.762
        49.300          32.500
 125639653.721 6  97901029.67543  23908429.250                    23908431.629
        40.300          21.800
 111447697.652 8  86842355.58146  21207787.789                    21207793.484
        50.100          38.700
 117653798.584 7  91678296.40644  22388777.445                    22388780.875
        45.300          29.400
 119102820.180 7  92807484.58144  22664529.367                    22664536.730
        42.500          27.900
 18  3 13 12 37 24.0000000  0 15G10R17R07G11R15G15R06R24R16R23G17G19
                                G24G28G01
 116781275.911 7  90998515.81443  22222759.930                    22222765.730
        45.600          22.000
                  89730335.393 6  21559191.281                    21559192.711
                        40.100
                  83837958.762 6  20136389.961                    20136392.043
                        39.200
 117685598.872 7  91703094.77144  22394830.305                    22394832.738
        46.000          24.700
                  86099884.917 6  20715968.766                    20715972.832
                        36.000
 121107326.591 7  94369396.31745  23045967.227                    23045970.723
        47.200          30.400
                  89701363.027 5  21612852.188                    21612852.492
                        34.300
                  84468731.015 5  20309242.000                    20309243.223
                        32.200
                  81294795.848 6  19566716.102                    19566717.820
                        38.500
                                  22229920.914

 120032721.878 8  93532029.11045  22841474.555                    22841477.305
        49.100          33.400
 125636204.487 6  97898341.95843  23907772.883                    23907775.699
        39.700          22.000
 111446476.015 8  86841403.64746  21207555.133                    21207561.480
        50.300          39.200
 117656553.082 7  91680442.78244  22389301.609                    22389304.957
        45.400          29.100
 119101492.022 6  92806449.65944  22664276.320                    22664284.422
        41.700          26.600
 18  3 13 12 37 25.0000000  0 15G10R17R07G11R15G15R06R24R16R23G17G19
                                G24G28G01
 116782514.885 7  90999481.28744  22222995.422                    22223001.688
        47.100          28.500
                  89727886.097 6  21558602.375                    21558603.875
                        39.900
                  83838166.955 6  20136439.758                    20136442.039
                        39.100
 117686189.792 7  91703555.22944  22394942.492                    22394945.211
        45.400          26.500
                  86102754.039 5  20716659.781                    20716662.891
                        35.700
 121110975.869 7  94372239.91244  23046661.313                    23046664.641
        47.100          29.600
                  89704597.600 5  21613631.016                    21613631.758
                        33.400
                  84469315.819 5  20309383.172                    20309383.352
                        32.800
                  81293751.568 6  19566465.516                    19566467.344
                        38.300
                                  22230706.578

 120030570.672 8  93530352.84245  22841064.453                    22841068.164
        48.500          33.200
 125632755.696 6  97895654.56243  23907116.375                    23907119.191
        40.400          21.800
 111445255.100 8  86840452.29646  21207322.883                    21207329.203
        50.100          38.500
 117659308.090 7  91682589.54844  22389825.813                    22389829.324
        45.000          29.500
 119100164.705 6  92805415.41044  22664023.961                    22664031.855
        41.600          25.700
 18  3 13 12 37 26.0000000  0 15G10R17R07G11R15G15R06R24R16R23G17G19
                                G24G28G01
 116783754.648 7  91000447.33944  22223230.781                    22223237.449
        46.000          27.200
                  89725437.343 6  21558014.445                    21558015.496
                        39.400
                  83838375.960 6  20136490.422                    20136491.949
                        39.100
 117686781.578 7  91704016.36944  22395055.297                    22395057.805
        45.300          27.300
                  86105623.645 5  20717350.172                    20717353.582
                        35.800
 121114625.636 7  94375083.88144  23047355.875                    23047359.184
        47.400          28.500
                  89707832.697 5  21614410.977                    21614411.000
                        34.300
                  84469901.437 5  20309524.320                    20309524.516
                        33.400
                  81292707.976 6  19566213.805                    19566215.371
                        38.100
                                  22231491.227

 120028420.063 8  93528677.03845  22840655.711                    22840658.395
        49.000          33.100
 125629307.249 6  97892967.44743  23906460.430                    23906462.824
        40.900          22.600
 111444034.894 8  86839501.50346  21207090.453                    21207097.035
        49.600          37.900
 117662063.633 7  91684736.72244  22390350.242                    22390353.656
        45.100          29.800
 119098838.098 7  92804381.67344  22663771.570                    22663779.223
        42.200          28.700
 18  3 13 12 37 27.0000000  0 15G10R17R07G11R15G15R06R24R16R23G17G19
                                G24G28G01
 116784995.217 7  91001414.00444  22223467.672                    22223473.645
        46.000          24.700
                  89722989.169 6  21557425.977                    21557427.090
                        39.900
                  83838585.776 6  20136540.633                    20136542.137
                        39.400
 117687374.233 7  91704478.20044  22395168.031                    22395170.773
        45.500          27.400
                  86108493.758 5  20718040.094                    20718044.000
                        35.800
 121118275.868 7  94377928.22544  23048050.594                    23048053.840
        47.200          29.100
                  89711068.306 5  21615190.414                    21615190.738
                        34.400
                  84470487.879 5  20309665.188                    20309665.734
                        33.300
                  81291665.083 6  19565962.586                    19565965.102
                        37.700
                                  22232275.820

 120026270.009 8  93527001.68545  22840246.406                    22840249.441
        48.600          33.700
 125625859.193 6  97890280.66743  23905804.250                    23905806.543
        40.000          22.000
 111442815.379 8  86838551.23946  21206858.422                    21206864.668
        50.200          37.900
 117664819.696 7  91686884.30345  22390874.727                    22390878.137
        45.300          30.000
 119097512.300 6  92803348.57944  22663518.789                    22663526.805
        41.300          25.800
 18  3 13 12 37 28.0000000  0 15G10R17R07G11R15G15R06R24R16R23G17G19
                                G24G28G01
 116786236.530 7  91002381.25644  22223703.633                    22223709.582
        46.300          25.900
                  89720541.467 6  21556837.672                    21556838.742
                        39.600
                  83838796.302 6  20136590.992                    20136593.285
                        39.000
 117687967.676 7  91704940.62744  22395281.141                    22395283.656
        45.700          27.900
                  86111364.347 5  20718730.914                    20718734.512
                        35.500
 121121926.488 7  94380772.87544  23048745.305                    23048748.426
        47.000          29.000
                  89714304.319 5  21615968.781                    21615970.629
                        33.800
                  84471075.091 5  20309805.563                    20309806.809
                        33.400
                  81290622.779 6  19565712.586                    19565713.398
                        38.100
                                  22233060.813

 120024120.428 8  93525326.69045  22839837.094                    22839840.402
        48.500          33.100
 125622411.450 6  97887594.12443  23905147.211                    23905151.035
        39.400          21.700
 111441596.528 8  86837601.50246  21206626.781                    21206632.828
        50.700          37.500
 117667576.206 7  91689032.22845  22391399.805                    22391402.559
        44.600          30.200
 119096187.147 6  92802315.97744  22663267.195                    22663274.621
        41.400          26.000
 18  3 13 12 37 29.0000000  0 15G10R17R07G11R15G15R06R24R16R23G17G19
                                G24G28G01
 116787478.678 7  91003349.15544  22223940.180                    22223946.340
        46.300          25.300
                  89718094.344 6  21556250.023                    21556251.352
                        39.400
                  83839007.722 6  20136641.539                    20136644.191
                        38.800
 117688562.063 7  91705403.78644  22395394.086                    22395396.813
        45.600          26.700
                  86114235.466 5  20719422.563                    20719425.543
                        35.500
 121125577.663 7  94383617.95644  23049440.125                    23049443.137
        46.900          29.700
                  89717540.874 5  21616749.273                    21616749.980
                        33.600
                  84471663.188 5  20309947.469                    20309948.156
                        33.600
                  81289581.229 6  19565461.102                    19565463.398
                        38.300
                                  22233845.375

 120021971.481 8  93523652.19045  22839428.164                    22839431.555
        48.400          32.700
 125618964.115 6  97884907.90443  23904491.672                    23904494.480
        40.400          21.500
 111440378.489 8  86836652.38646  21206395.047                    21206400.746
        50.900          37.700
 117670333.287 7  91691180.59144  22391924.211                    22391927.164
        45.100          29.500
 119094862.843 7  92801284.05844  22663015.172                    22663022.520
        42.400          27.700
 18  3 13 12 37 30.0000000  0 15G10R17R07G11R15G15R06R24R16R23G17G19
                                G24G28G01
 116788721.665 7  91004317.72644  22224176.313                    22224182.684
        47.900          28.800
                  89715647.735 6  21555662.539                    21555663.570
                        39.300
                  83839220.005 6  20136692.898                    20136695.270
                        39.800
 117689157.286 7  91705867.59244  22395507.008                    22395510.023
        45.400          26.800
                  86117107.112 5  20720112.695                    20720116.531
                        35.900
 121129229.297 7  94386463.39344  23050134.602                    23050138.008
        46.300          29.800
                  89720777.947 5  21617528.578                    21617529.891
                        33.700
                  84472252.158 5  20310089.188                    20310090.164
                        32.700
                  81288540.347 6  19565211.047                    19565212.402
                        37.900
                                  22234631.523

 120019823.100 8  93521978.13045  22839019.852                    22839022.977
        48.400          33.600
 125615517.163 6  97882221.98743  23903835.578                    23903838.457
        39.100          21.100
 111439161.165 8  86835703.81946  21206163.938                    21206169.086
        51.200          38.400
 117673090.890 7  91693329.37844  22392448.719                    22392452.488
        44.900          28.900
 119093539.300 7  92800252.74144  22662763.547                    22662770.559
        42.400          27.100
 18  3 13 12 37 31.0000000  0 15G10R17R07G11R15G15R06R24R16R23G17G19
                                G24G28G01
 116789965.363 7  91005286.84944  22224413.000                    22224419.469
        47.500          26.900
                  89713201.692 6  21555074.781                    21555076.090
                        38.800
                  83839433.056 6  20136743.813                    20136746.258
                        39.700
 117689753.403 7  91706332.08744  22395620.195                    22395623.355
        44.600          26.400
                  86119979.274 5  20720803.656                    20720807.770
                        35.200
 121132881.406 7  94389309.19244  23050829.039                    23050833.258
        46.600          29.300
                  89724015.517 5  21618309.164                    21618310.160
                        34.500
                  84472841.978 5  20310230.453                    20310232.129
                        33.400
                  81287500.166 6  19564960.594                    19564962.063
                        38.200
                                  22235416.523

 120017675.269 7  93520304.49245  22838610.828                    22838614.449
        47.800          34.000
 125612070.582 6  97879536.33843  23903180.875                    23903182.797
        40.500          21.100
 111437944.579 8  86834755.82846  21205932.109                    21205937.965
        51.300          38.300
 117675849.004 7  91695478.55844  22392973.664                    22392976.750
        44.900          28.000
 119092216.502 7  92799221.99944  22662511.672                    22662518.871
        42.200          27.500
 18  3 13 12 37 32.0000000  0 15G10R17R07G11R15G15R06R24R16R23G17G19
                                G24G28G01
 116791209.843 7  91006256.58744  22224650.172                    22224656.539
        47.700          26.900
                  89710756.174 6  21554486.813                    21554488.141
                        39.300
                  83839646.896 6  20136795.406                    20136797.621
                        39.700
 117690350.323 7  91706797.21444  22395733.898                    22395737.168
        45.200          26.200
                  86122851.920 5  20721494.664                    20721498.098
                        34.900
 121136533.959 7  94392155.35144  23051524.398                    23051528.078
        46.700          29.300
                  89727253.551 5  21619089.875                    21619090.336
                        34.300
                  84473432.593 5  20310372.563                    20310373.398
                        32.900
                  81286460.665 6  19564711.008                    19564711.781
                        38.300
                                  22236201.508

 120015527.955 7  93518631.25945  22838202.273                    22838205.422
        46.800          33.300
 125608624.399 6  97876850.97543  23902524.602                    23902526.750
        41.000          20.600
 111436728.686 8  86833808.37246  21205700.289                    21205706.402
        50.400          38.600
 117678607.620 7  91697628.12744  22393498.320                    22393501.945
        44.400          28.300
 119090894.464 6  92798191.83344  22662259.664                    22662267.602
        41.800          27.200
 18  3 13 12 37 33.0000000  0 15G10R17R07G11R15G15R06R24R16R23G17G19
                                G24G28G01
 116792455.142 7  91007226.93244  22224886.719                    22224893.063
        47.000          27.500
                  89708311.204 6  21553899.266                    21553900.648
                        39.800
                  83839861.601 6  20136847.383                    20136849.113
                        39.900
 117690948.135 7  91707263.04344  22395847.969                    22395850.969
        45.500          24.800
                  86125725.095 5  20722186.836                    20722190.305
                        35.600
 121140186.976 7  94395001.85645  23052219.609                    23052223.625
        46.600          30.400
                  89730492.093 5  21619869.891                    21619870.891
                        33.800
                  84474024.051 5  20310515.836                    20310516.246
                        32.500
                  81285421.883 6  19564460.133                    19564462.059
                        38.900
                                  22236987.898

 120013381.234 7  93516958.48745  22837793.359                    22837797.016
        46.800          32.700
 125605178.541 6  97874165.87443  23901868.867                    23901870.926
        40.700          21.800
 111435513.523 8  86832861.48346  21205468.961                    21205474.973
        49.400          37.300
 117681366.745 7  91699778.09344  22394023.188                    22394026.770
        43.700          29.200
 119089573.199 7  92797162.26944  22662008.250                    22662016.215
        42.400          27.200
 18  3 13 12 37 34.0000000  0 15G10R17R07G11R15G15R06R24R16R23G17G19
                                G24G28G01
 116793701.269 7  91008197.93344  22225124.867                    22225130.504
        46.500          27.100
                  89705866.765 6  21553311.953                    21553313.469
                        39.800
                  83840077.133 6  20136898.328                    20136900.551
                        39.100
 117691546.819 7  91707729.54844  22395961.805                    22395964.738
        45.000          24.700
                  86128598.754 5  20722876.711                    20722881.211
                        35.600
 121143840.495 7  94397848.74744  23052914.297                    23052918.648
        45.500          28.700
                  89733731.136 5  21620651.547                    21620651.145
                        34.400
                  84474616.380 5  20310657.617                    20310658.551
                        33.100
                  81284383.790 6  19564210.281                    19564211.859
                        38.100
                                  22237774.156

 120011235.070 7  93515286.15145  22837385.508                    22837388.602
        47.500          33.300
 125601733.104 6  97871481.11543  23901213.297                    23901215.199
        40.900          22.000
 111434299.068 8  86831915.14646  21205237.938                    21205244.055
        49.600          37.400
 117684126.421 7  91701928.48244  22394548.898                    22394551.848
        44.300          28.600
 119088252.718 7  92796133.31944  22661756.680                    22661764.723
        42.000          26.900
 18  3 13 12 37 35.0000000  0 15G10R17R07G11R15G15R06R24R16R23G17G19
                                G24G28G01
 116794948.095 7  91009169.46944  22225361.359                    22225367.188
        47.000          27.800
                  89703422.838 6  21552724.625                    21552726.031
                        40.400
                  83840293.440 6  20136951.266                    20136952.551
                        39.100
 117692146.310 7  91708196.67144  22396075.891                    22396078.918
        44.500          25.000
                  86131472.890 6  20723568.922                    20723572.824
                        36.100
 121147494.432 7  94400695.95744  23053610.281                    23053613.918
        46.400          29.300
                  89736970.630 5  21621431.563                    21621431.664
                        34.400
                  84475209.530 5  20310800.766                    20310801.004
                        33.400
                  81283346.330 6  19563961.586                    19563962.512
                        38.100
                                  22238560.555

 120009089.393 7  93513614.18545  22836977.141                    22836980.438
        47.900          33.200
 125598287.964 6  97868796.59543  23900557.492                    23900559.461
        40.600          22.000
 111433085.284 8  86830969.34546  21205006.906                    21205012.875
        50.400          37.600
 117686886.510 7  91704079.20644  22395074.117                    22395077.094
        45.400          29.800
 119086932.898 7  92795104.88744  22661506.078                    22661513.465
        43.500          27.100
 18  3 13 12 37 36.0000000  0 14G10R17R07G11R15G15R06R24R16G17G19G24
                                G28G01
 116796195.786 7  91010141.69843  22225598.703                    22225604.504
        44.700          22.600
                  89700979.478 6  21552137.523                    21552139.238
                        40.000
                  83840510.604 6  20137002.570                    20137004.828
                        38.500
 117692746.707 7  91708664.49544  22396190.313                    22396192.977
        45.400          25.600
                  86134347.577 5  20724260.953                    20724264.555
                        35.100
 121151148.884 7  94403543.56744  23054305.570                    23054309.598
        46.600          29.200
                  89740210.641 5  21622211.875                    21622211.883
                        35.200
                  84475803.529 5  20310943.164                    20310944.402
                        34.200
                  81282309.612 6  19563711.352                    19563712.641
                        37.900
 120006944.359 7  93511942.73145  22836568.617                    22836572.094
        47.900          32.300
 125594843.295 6  97866112.43943  23899902.188                    23899903.926
        40.600          21.500
 111431872.289 8  86830024.16146  21204776.484                    21204782.219
        50.800          37.500
 117689647.229 7  91706230.41844  22395599.133                    22395602.691
        44.600          29.200
 119085613.931 7  92794077.12544  22661254.930                    22661262.441
        43.200          25.500
 18  3 13 12 37 37.0000000  0 14G10R17R07G11R15G15R06R24R16G17G19G24
                                G28G01
 116797444.375 7  91011114.66843  22225836.070                    22225842.578
        46.100          23.000
                  89698536.684 6  21551550.500                    21551552.516
                        40.500
                  83840728.594 6  20137055.625                    20137057.297
                        38.000
 117693348.029 7  91709133.05144  22396304.875                    22396307.426
        45.100          25.700
                  86137222.794 5  20724953.352                    20724956.852
                        34.400
 121154803.830 7  94406391.56644  23055001.320                    23055005.211
        46.500          27.900
                  89743451.157 5  21622992.594                    21622992.973
                        34.700
                  84476398.361 5  20311085.664                    20311087.004
                        32.400
                  81281273.606 6  19563462.367                    19563463.223
                        38.000
 120004799.916 8  93510271.74345  22836160.523                    22836164.035
        48.200          32.400
 125591399.033 6  97863428.60443  23899247.172                    23899248.730
        40.800          20.900
 111430660.039 8  86829079.55846  21204546.219                    21204551.492
        51.900          38.100
 117692408.440 7  91708382.01645  22396124.844                    22396127.766
        44.700          31.000
 119084295.779 7  92793050.00444  22661004.336                    22661011.945
        43.900          26.000
 18  3 13 12 37 38.0000000  0 14G10R17R07G11R15G15R06R24R16G17G19G24
                                G28G01
 116798693.664 7  91012088.13844  22226073.953                    22226080.090
        45.500          24.000
                  89696094.376 6  21550964.438                    21550965.281
                        40.000
                  83840947.344 6  20137107.602                    20137109.777
                        37.100
 117693950.127 7  91709602.20844  22396419.508                    22396421.918
        45.400          25.800
                  86140098.472 5  20725644.172                    20725648.203
                        34.600
 121158459.188 7  94409239.89644  23055697.188                    23055701.105
        47.100          28.800
                  89746692.105 5  21623773.258                    21623773.555
                        34.600
                  84476994.029 5  20311229.281                    20311230.117
                        31.900
                  81280238.282 6  19563212.609                    19563214.188
                        37.500
 120002655.972 7  93508601.14345  22835752.805                    22835756.078
        47.600          32.100
 125587955.079 6  97860744.99743  23898591.063                    23898593.762
        41.100          21.500
 111429448.468 8  86828135.47946  21204315.648                    21204321.184
        52.000          38.100
 117695170.163 7  91710534.01445  22396650.070                    22396653.434
        43.600          30.200
 119082978.339 7  92792023.44244  22660753.703                    22660760.957
        43.900          25.700
 18  3 13 12 37 39.0000000  0 14G10R17R07G11R15G15R06R24R16G17G19G24
                                G28G01
 116799943.687 7  91013062.17844  22226311.445                    22226317.707
        46.700          26.400
                  89693652.623 6  21550377.773                    21550378.875
                        39.800
                  83841166.952 6  20137161.602                    20137162.535
                        37.800
 117694553.050 7  91710071.98344  22396533.641                    22396536.977
        46.200          26.800
                  86142974.642 5  20726336.242                    20726340.652
                        35.600
 121162114.997 7  94412088.57744  23056392.797                    23056396.813
        46.600          27.900
                  89749933.503 5  21624553.953                    21624555.527
                        34.400
                  84477590.502 5  20311372.219                    20311373.836
                        32.000
                  81279203.595 6  19562962.813                    19562965.141
                        37.800
 120000512.574 7  93506930.96245  22835344.563                    22835348.121
        47.500          31.400
 125584511.438 6  97858061.64243  23897936.359                    23897938.105
        41.000          20.600
 111428237.626 8  86827191.95746  21204084.984                    21204090.789
        51.600          38.800
 117697932.378 7  91712686.39145  22397176.031                    22397178.852
        44.900          30.500
 119081661.641 7  92790997.46144  22660503.016                    22660510.586
        42.600          26.800
 18  3 13 12 37 40.0000000  0 14G10R17R07G11R15G15R06R24R16G17G19G24
                                G28G01
 116801194.525 7  91014036.84944  22226550.109                    22226556.234
        46.600          24.500
                  89691211.364 6  21549790.641                    21549791.941
                        39.900
                  83841387.378 6  20137213.602                    20137215.328
                        38.200
 117695156.884 7  91710542.48244  22396648.844                    22396651.699
        45.900          26.700
                  86145851.288 5  20727028.188                    20727032.250
                        35.600
 121165771.250 7  94414937.58844  23057088.898                    23057092.340
        47.600          29.500
                  89753175.428 5  21625334.328                    21625335.719
                        34.000
                  84478187.756 5  20311515.047                    20311517.109
                        32.200
                  81278169.625 6  19562714.148                    19562715.711
                        37.900
 119998369.708 7  93505261.18145  22834936.859                    22834940.246
        46.600          32.100
 125581068.176 6  97855378.59043  23897280.266                    23897283.141
        40.300          20.900
 111427027.455 8  86826248.95746  21203854.367                    21203860.137
        51.200          38.100
 117700695.076 7  91714839.12545  22397701.820                    22397704.852
        45.200          31.600
 119080345.652 7  92789972.00144  22660252.430                    22660260.035
        43.100          24.100
 18  3 13 12 37 41.0000000  0 14G10R17R07G11R15G15R06R24R16G17G19G24
                                G28G01
 116802446.128 7  91015012.13944  22226788.047                    22226794.137
        45.800          24.400
                  89688770.635 6  21549204.555                    21549205.801
                        39.800
                  83841608.580 6  20137266.898                    20137268.414
                        38.400
 117695761.550 7  91711013.63644  22396764.086                    22396766.922
        46.000          27.500
                  86148728.412 5  20727720.898                    20727724.805
                        35.400
 121169427.945 7  94417786.95144  23057784.656                    23057788.246
        47.300          29.200
                  89756417.822 5  21626116.031                    21626117.410
                        33.800
                  84478785.830 5  20311659.688                    20311660.840
                        32.600
                  81277136.322 6  19562466.688                    19562467.477
                        37.900
 119996227.376 7  93503591.82245  22834529.180                    22834532.883
        47.000          32.200
 125577625.278 6  97852695.85043  23896625.492                    23896627.988
        40.300          20.600
 111425817.991 8  86825306.50846  21203624.531                    21203630.219
        51.300          37.600
 117703458.267 7  91716992.24245  22398227.781                    22398230.438
        45.500          30.500
 119079030.435 7  92788947.14344  22660002.133                    22660009.453
        43.500          25.200
 18  3 13 12 37 42.0000000  0 14G10R17R07G11R15G15R06R24R16G17G19G24
                                G28G01
 116803698.543 7  91015988.05044  22227026.656                    22227032.449
        46.200          25.500
                  89686330.486 6  21548619.172                    21548620.148
                        40.000
                  83841830.588 6  20137319.898                    20137322.371
                        38.500
 117696367.084 7  91711485.48544  22396879.570                    22396882.121
        45.800          26.200
                  86151606.087 6  20728412.594                    20728417.234
                        36.200
 121173085.125 8  94420636.70445  23058480.359                    23058484.414
        48.000          30.000
                  89759660.692 5  21626897.320                    21626898.699
                        33.700
                  84479384.775 5  20311804.297                    20311805.020
                        32.600
                  81276103.696 6  19562216.656                    19562219.059
                        37.800
 119994085.620 7  93501922.91845  22834121.633                    22834125.023
        47.500          32.500
 125574182.773 6  97850013.38643  23895970.742                    23895972.883
        41.400          20.400
 111424609.244 8  86824364.62646  21203394.078                    21203400.285
        51.200          38.400
 117706221.986 7  91719145.78245  22398753.734                    22398756.418
        46.000          31.300
 119077715.981 7  92787922.87744  22659752.227                    22659759.246
        43.500          25.700
 18  3 13 12 37 43.0000000  0 14G10R17R07G11R15G15R06R24R16G17G19G24
                                G28G01
 116804951.691 7  91016964.52944  22227264.516                    22227270.867
        46.000          25.000
                  89683890.844 6  21548032.258                    21548033.133
                        39.900
                  83842053.405 6  20137373.586                    20137375.141
                        38.600
 117696973.469 7  91711958.00144  22396994.203                    22396997.445
        45.800          26.400
                  86154484.246 6  20729106.086                    20729109.762
                        36.400
 121176742.752 7  94423486.79644  23059176.867                    23059180.215
        47.200          29.100
                  89762904.025 5  21627679.008                    21627680.359
                        34.000
                  84479984.578 5  20311948.352                    20311949.133
                        32.600
                  81275071.729 6  19561968.531                    19561970.676
                        38.600
 119991944.384 7  93500254.42045  22833714.375                    22833717.695
        47.900          32.100
 125570740.641 7  97847331.20543  23895315.781                    23895317.813
        42.000          21.100
 111423401.211 8  86823423.30246  21203164.344                    21203170.301
        50.900          38.100
 117708986.184 7  91721299.70244  22399279.688                    22399282.578
        46.100          29.800
 119076402.271 7  92786899.19344  22659502.344                    22659509.512
        43.000          25.300
 18  3 13 12 37 44.0000000  0 14G10R17R07G11R15G15R06R24R16G17G19G24
                                G28G01
 116806205.704 7  91017941.67944  22227503.602                    22227509.445
        46.100          25.100
                  89681451.738 6  21547446.258                    21547447.629
                        40.500
                  83842277.028 6  20137427.102                    20137429.023
                        38.500
 117697580.735 7  91712431.20944  22397110.500                    22397113.047
        46.000          26.500
                  86157362.919 5  20729798.813                    20729802.285
                        35.600
 121180400.875 7  94426337.29144  23059872.367                    23059876.180
        47.200          29.800
                  89766147.878 5  21628461.758                    21628461.441
                        34.500
                  84480585.260 5  20312092.563                    20312093.344
                        32.000
                  81274040.527 6  19561721.234                    19561722.793
                        38.100
 119989803.728 8  93498586.37345  22833306.758                    22833310.273
        48.000          32.400
 125567298.881 6  97844649.30443  23894660.195                    23894662.789
        41.500          20.900
 111422193.886 8  86822482.52946  21202934.555                    21202940.457
        51.100          38.300
 117711750.936 7  91723454.06145  22399805.313                    22399808.895
        45.800          30.200
 119075089.341 7  92785876.13144  22659252.023                    22659259.770
        43.300          25.400
 18  3 13 12 37 45.0000000  0 14G10R17R07G11R15G15R06R24R16G17G19G24
                                G28G01
 116807460.451 7  91018919.41544  22227742.305                    22227748.344
        45.700          25.000
                  89679013.147 6  21546860.375                    21546861.383
                        40.200
                  83842501.441 6  20137480.852                    20137482.836
                        38.900
 117698188.820 7  91712905.04444  22397225.719                    22397228.582
        46.000          27.300
                  86160242.055 6  20730490.805                    20730495.215
                        36.100
 121184059.410 7  94429188.10344  23060568.750                    23060572.629
        47.200          29.500
                  89769392.188 5  21629243.563                    21629242.973
                        33.900
                  84481186.739 5  20312237.305                    20312238.250
                        32.400
                  81273009.979 6  19561472.805                    19561474.613
                        37.900
 119987663.626 8  93496918.75745  22832899.844                    22832902.863
        48.400          31.800
 125563857.474 6  97841967.68243  23894005.406                    23894007.645
        41.000          20.400
 111420987.246 8  86821542.30146  21202704.930                    21202711.000
        51.200          38.000
 117714516.146 7  91725608.77745  22400331.641                    22400335.336
        45.200          30.000
 119073777.146 7  92784853.64444  22659002.563                    22659010.238
        43.000          25.400
 18  3 13 12 37 46.0000000  0 14G10R17R07G11R15G15R06R24R16G17G19G24
                                G28G01
 116808715.987 7  91019897.76244  22227981.398                    22227987.000
        45.600          24.100
                  89676575.106 6  21546274.711                    21546275.848
                        40.000
                  83842726.683 6  20137535.539                    20137536.875
                        38.500
 117698797.756 7  91713379.54944  22397341.820                    22397344.641
        45.500          27.400
                  86163121.711 6  20731183.398                    20731187.871
                        36.200
 121187718.428 7  94432039.29444  23061264.695                    23061268.309
        47.600          29.300
                  89772636.982 5  21630024.891                    21630025.078
                        34.000
                  84481789.053 5  20312382.961                    20312383.043
                        32.700
                  81271980.095 6  19561225.023                    19561226.465
                        38.500
 119985524.063 7  93495251.55745  22832492.680                    22832495.875
        47.800          31.200
 125560416.432 7  97839286.34643  23893350.914                    23893352.617
        42.300          20.400
 111419781.307 8  86820602.60846  21202475.453                    21202481.250
        51.100          37.700
 117717281.885 7  91727763.89945  22400858.250                    22400861.441
        45.000          30.200
 119072465.662 7  92783831.70844  22658753.281                    22658760.633
        43.100          25.300
 18  3 13 12 37 47.0000000  0 14G10R17R07G11R15G15R06R24R16G17G19G24
                                G28G01
 116809972.365 7  91020876.77143  22228220.656                    22228226.582
        43.200          22.300
                  89674137.684 6  21545688.891                    21545689.637
                        40.000
                  83842952.814 6  20137589.336                    20137591.426
                        38.800
 117699407.654 7  91713854.79344  22397457.820                    22397461.020
        45.000          26.600
                  86166001.897 6  20731875.867                    20731881.164
                        36.100
 121191377.936 7  94434890.86044  23061960.906                    23061965.156
        46.100          28.600
                  89775882.297 5  21630807.258                    21630807.070
                        34.100
                  84482392.268 5  20312527.063                    20312527.566
                        32.000
                  81270950.941 6  19560977.234                    19560978.453
                        38.000
 119983385.096 7  93493584.82245  22832085.094                    22832088.785
        47.100          31.500
 125556975.845 7  97836605.36843  23892696.180                    23892697.844
        42.400          20.600
 111418576.150 8  86819663.52746  21202245.977                    21202252.266
        49.900          37.700
 117720048.187 7  91729919.46244  22401384.297                    22401387.344
        45.000          29.900
 119071155.041 7  92782810.46844  22658503.664                    22658511.063
        42.500          26.700
 18  3 13 12 37 48.0000000  0 14G10R17R07G11R15G15R06R24R16G17G19G24
                                G28G01
 116811229.249 7  91021856.16243  22228459.273                    22228465.656
        46.000          22.200
                  89671700.725 6  21545103.367                    21545104.617
                        39.800
                  83843179.606 6  20137643.945                    20137645.672
                        38.700
 117700018.320 7  91714330.61344  22397573.773                    22397576.836
        44.600          25.700
                  86168882.530 5  20732570.938                    20732573.777
                        35.500
 121195037.788 7  94437742.70244  23062657.914                    23062661.484
        46.400          29.600
                  89779127.993 4  21631588.883                    21631588.996
                        28.400
                  84482996.249 5  20312672.742                    20312673.352
                        31.400
                  81269922.435 6  19560730.648                    19560730.895
                        36.700
 119981246.648 7  93491918.51645  22831678.406                    22831681.641
        47.300          32.300
 125553535.549 6  97833924.60443  23892041.242                    23892043.367
        41.800          20.600
 111417371.694 7  86818724.98245  21202016.875                    21202022.504
        47.700          31.300
 117722814.931 7  91732075.36444  22401911.281                    22401914.125
        45.100          29.300
 119069845.108 7  92781789.76244  22658255.305                    22658261.980
        43.800          26.500
 18  3 13 12 37 49.0000000  0 14G10R17R07G11R15G15R06R24R16G17G19G24
                                G28G01
 116812487.158 7  91022836.30944  22228698.633                    22228705.012
        47.000          26.900
                  89669264.296 6  21544517.688                    21544518.961
                        39.300
                  83843407.297 6  20137698.555                    20137700.656
                        38.700
 117700629.831 7  91714807.10744  22397690.313                    22397693.277
        44.500          25.800
                  86171763.685 5  20733263.453                    20733267.277
                        35.900
 121198698.297 7  94440595.05044  23063354.148                    23063358.141
        47.500          28.900
                  89782374.283 4  21632372.156                    21632370.980
                        28.800
                  84483601.081 5  20312817.836                    20312819.203
                        31.200
                  81268894.565 6  19560482.023                    19560483.883
                        36.900
 119979108.757 7  93490252.63745  22831271.773                    22831275.383
        47.500          31.800
 125550095.584 6  97831244.10343  23891386.367                    23891389.188
        40.900          21.300
 111416167.894 7  86817786.95345  21201787.773                    21201793.590
        46.800          30.400
 117725582.205 7  91734231.68344  22402437.820                    22402440.570
        45.500          29.300
 119068535.955 7  92780769.65744  22658005.563                    22658012.762
        43.100          26.400
 18  3 13 12 37 50.0000000  0 14G10R17R07G11R15G15R06R24R16G17G19G24
                                G28G01
 116813745.882 7  91023817.11344  22228938.078                    22228944.301
        47.500          27.300
                  89666828.386 6  21543932.977                    21543934.008
                        39.300
                  83843635.822 6  20137753.672                    20137756.094
                        38.700
 117701242.250 7  91715284.31344  22397806.703                    22397809.840
        44.800          26.100
                  86174645.375 5  20733955.852                    20733960.656
                        35.400
 121202359.165 7  94443447.66744  23064050.703                    23064054.309
        47.300          28.900
                  89785621.072 4  21633153.297                    21633153.559
                        26.800
                  84484206.784 5  20312963.195                    20312964.770
                        32.200
                  81267867.445 6  19560234.898                    19560236.145
                        36.800
 119976971.427 7  93488587.19645  22830865.055                    22830868.223
        47.300          31.400
 125546656.040 6  97828563.93443  23890731.320                    23890733.902
        40.100          20.900
 111414964.830 7  86816849.50344  21201558.703                    21201564.758
        45.800          29.000
 117728350.002 7  91736388.40844  22402964.344                    22402967.105
        45.800          29.700
 119067227.567 7  92779750.14344  22657756.336                    22657763.660
        43.100          27.500
 18  3 13 12 37 51.0000000  0 14G10R17R07G11R15G15R06R24R16G17G19G24
                                G28G01
 116815005.322 7  91024798.49244  22229178.148                    22229184.480
        47.300          26.700
                  89664393.005 6  21543347.648                    21543348.598
                        39.000
                  83843865.131 6  20137808.039                    20137810.102
                        39.100
 117701855.449 7  91715762.13144  22397923.977                    22397926.531
        44.800          26.800
                  86177527.498 5  20734649.430                    20734653.836
                        35.400
 121206020.454 7  94446300.62144  23064747.391                    23064751.063
        45.400          26.000
                  89788868.274 3  21633934.805                    21633935.887
                        21.400
                  84484813.248 5  20313108.898                    20313110.285
                        33.200
                  81266841.017 6  19559989.008                    19559989.723
                        36.000
 119974834.607 7  93486922.15145  22830458.242                    22830461.898
        47.800          32.100
 125543216.834 6  97825884.05543  23890078.008                    23890079.980
        41.800          20.900
 111413762.497 7  86815912.63444  21201329.828                    21201335.996
        45.400          28.500
 117731118.249 7  91738545.49145  22403491.273                    22403494.453
        46.700          30.200
 119065919.887 7  92778731.17344  22657507.461                    22657515.113
        44.500          29.100
 18  3 13 12 37 52.0000000  0 14G10R17R07G11R15G15R06R24R16G17G19G24
                                G28G01
 116816265.621 7  91025780.55844  22229417.602                    22229424.105
        47.900          27.800
                  89661958.205 6  21542763.000                    21542763.609
                        39.300
                  83844095.310 6  20137863.773                    20137865.301
                        39.100
 117702469.572 7  91716240.66844  22398040.406                    22398043.148
        44.900          25.800
                  86180410.172 5  20735343.766                    20735347.766
                        35.400
 121209682.294 7  94449154.00644  23065444.359                    23065447.938
        47.200          28.200
                  89792116.069 4  21634717.125                    21634718.703
                        26.600
                  84485420.606 5  20313255.445                    20313256.363
                        31.200
                  81265815.246 6  19559740.273                    19559742.613
                        36.900
 119972698.396 7  93485257.56845  22830052.148                    22830055.133
        47.800          31.400
 125539778.059 6  97823204.50843  23889423.547                    23889425.313
        41.800          20.600
 111412560.850 7  86814976.28844  21201101.313                    21201107.094
        45.100          29.300
 117733887.072 7  91740703.02545  22404017.656                    22404020.578
        46.600          30.500
 119064613.003 7  92777712.82344  22657258.813                    22657266.195
        44.100          26.000
 18  3 13 12 37 53.0000000  0 14G10R17R07G11R15G15R06R24R16G17G19G24
                                G28G01
 116817526.640 7  91026763.18744  22229657.766                    22229663.871
        47.700          28.900
                  89659523.884 6  21542177.445                    21542178.551
                        38.600
                  83844326.227 6  20137918.656                    20137921.180
                        38.900
 117703084.482 7  91716719.81644  22398157.453                    22398160.109
        44.300          26.900
                  86183293.278 5  20736036.992                    20736041.195
                        35.300
 121213344.484 7  94452007.65644  23066141.313                    23066144.977
        47.600          29.700
                  89795364.274 4  21635499.727                    21635500.785
                        27.700
                  84486028.761 5  20313402.188                    20313402.484
                        30.500
                  81264790.108 6  19559493.844                    19559495.527
                        37.300
 119970562.659 8  93483593.35145  22829645.438                    22829648.688
        48.200          31.600
 125536339.572 6  97820525.15443  23888769.148                    23888771.238
        41.400          20.600
 111411359.896 7  86814040.48544  21200873.188                    21200878.711
        44.900          28.700
 117736656.337 7  91742860.90345  22404544.625                    22404548.004
        46.700          30.500
 119063306.820 7  92776695.01644  22657010.406                    22657017.684
        42.900          27.000
 18  3 13 12 37 54.0000000  0 15G10R17R07G11R15G15R06R24R16R23G17G19
                                G24G28G01
 116818788.392 7  91027746.38544  22229897.680                    22229904.207
        47.500          29.000
                  89657090.091 6  21541592.961                    21541593.566
                        39.100
                  83844557.920 6  20137974.734                    20137976.996
                        38.900
 117703700.257 7  91717199.63644  22398274.984                    22398277.496
        44.300          25.500
                  86186176.892 5  20736730.914                    20736734.738
                        35.600
 121217007.133 7  94454861.65645  23066838.641                    23066842.289
        47.600          30.500
                  89798612.920 4  21636283.469                    21636283.551
                        27.800
                  84486637.734 5  20313548.078                    20313549.195
                        30.600
                  81263765.672 6  19559249.000                    19559249.180
                        37.200
                                  22253516.039

 119968427.484 8  93481929.56945  22829239.125                    22829242.320
        48.000          31.900
 125532901.439 6  97817846.07943  23888114.539                    23888117.023
        40.900          21.700
 111410159.611 7  86813105.20444  21200644.125                    21200650.402
        45.000          29.400
 117739426.082 7  91745019.13745  22405072.055                    22405075.051
        46.600          30.000
 119062001.390 7  92775677.79944  22656762.133                    22656769.227
        43.300          27.300
 18  3 13 12 37 55.0000000  0 15G10R17R07G11R15G15R06R24R16R23G17G19
                                G24G28G01
 116820050.952 7  91028730.19844  22230138.117                    22230144.461
        47.200          27.900
                  89654656.841 6  21541008.047                    21541009.125
                        39.000
                  83844790.445 6  20138030.352                    20138032.551
                        39.000
 117704316.881 7  91717680.12044  22398391.813                    22398394.852
        44.300          27.300
                  86189061.026 5  20737425.664                    20737429.008
                        35.800
 121220670.266 7  94457716.03644  23067536.000                    23067539.168
        47.600          29.800
                  89801862.064 4  21637066.055                    21637066.180
                        27.200
                  84487247.550 5  20313695.172                    20313695.941
                        31.400
                  81262741.926 6  19559001.531                    19559003.230
                        36.800
                                  22254304.680

 119966292.845 8  93480266.20845  22828833.164                    22828836.078
        48.300          31.900
 125529463.688 6  97815167.30443  23887460.273                    23887462.441
        40.700          21.700
 111408960.064 7  86812170.48944  21200416.078                    21200422.035
        45.100          28.700
 117742196.370 7  91747177.80045  22405599.563                    22405602.309
        46.700          30.200
 119060696.720 7  92774661.16044  22656513.867                    22656520.953
        43.200          28.000
 18  3 13 12 37 56.0000000  0 15G10R17R07G11R15G15R06R24R16R23G17G19
                                G24G28G01
 116821314.269 7  91029714.60444  22230378.469                    22230384.770
        46.900          28.000
                  89652224.107 6  21540423.617                    21540424.555
                        39.400
                  83845023.763 6  20138086.695                    20138088.617
                        39.400
 117704934.359 7  91718161.28644  22398509.578                    22398512.500
        43.800          26.500
                  86191945.630 5  20738119.617                    20738123.035
                        35.600
 121224333.823 7  94460570.73945  23068233.188                    23068235.953
        47.900          30.100
                  89805111.656 4  21637850.055                    21637848.879
                        26.300
                  84487858.163 4  20313841.727                    20313842.508
                        29.700
                  81261718.859 6  19558755.242                    19558756.805
                        36.900
                                  22255094.188

 119964158.777 8  93478603.30245  22828426.883                    22828430.059
        48.400          31.100
 125526026.286 6  97812488.83043  23886806.859                    23886808.523
        40.900          21.300
 111407761.159 7  86811236.28144  21200188.008                    21200193.738
        44.600          29.300
 117744967.125 7  91749336.82545  22406126.922                    22406129.785
        47.200          31.200
 119059392.814 7  92773645.13944  22656265.961                    22656272.770
        43.600          27.100
 18  3 13 12 37 57.0000000  0 15G10R17R07G11R15G15R06R24R16R23G17G19
                                G24G28G01
 116822578.342 7  91030699.58544  22230619.156                    22230625.535
        47.600          28.600
                  89649791.879 6  21539838.719                    21539839.773
                        39.400
                  83845257.854 6  20138142.094                    20138144.832
                        38.600
 117705552.664 7  91718643.08944  22398627.008                    22398630.473
        44.100          25.600
                  86194830.726 5  20738813.578                    20738817.453
                        34.900
 121227997.786 7  94463425.77844  23068930.008                    23068933.492
        47.300          29.000
                  89808361.704 4  21638634.227                    21638633.039
                        27.200
                  84488469.566 5  20313989.008                    20313989.492
                        30.500
                  81260696.443 6  19558509.125                    19558510.297
                        36.900
                                  22255881.328

 119962025.195 7  93476940.76045  22828020.664                    22828023.988
        47.800          31.700
 125522589.238 6  97809810.63543  23886152.477                    23886154.434
        40.200          20.400
 111406562.991 7  86810302.65444  21199959.625                    21199965.453
        43.900          29.700
 117747738.363 7  91751496.23044  22406654.094                    22406656.574
        46.700          29.700
 119058089.609 7  92772629.64744  22656017.273                    22656025.047
        44.700          28.200
 18  3 13 12 37 58.0000000  0 15G10R17R07G11R15G15R06R24R16R23G17G19
                                G24G28G01
 116823843.221 7  91031685.18944  22230859.648                    22230865.926
        47.700          27.700
                  89647360.252 6  21539255.305                    21539256.371
                        39.500
                  83845492.802 6  20138199.117                    20138201.359
                        38.600
 117706171.834 7  91719125.55944  22398744.867                    22398748.176
        43.900          26.200
                  86197716.336 5  20739507.297                    20739510.973
                        34.400
 121231662.265 8  94466281.21844  23069627.617                    23069630.941
        48.000          29.600
                  89811612.263 4  21639416.992                    21639416.219
                        25.900
                  84489081.827 5  20314136.367                    20314136.297
                        30.500
                  81259674.769 6  19558264.664                    19558264.887
                        37.400
                                  22256670.859

 119959892.203 7  93475278.68145  22827614.922                    22827617.863
        47.600          31.100
 125519152.585 6  97807132.70843  23885497.883                    23885500.109
        38.800          20.400
 111405365.561 7  86809369.57744  21199732.281                    21199738.094
        43.900          28.300
 117750510.139 7  91753656.06244  22407181.164                    22407184.113
        46.300          29.900
 119056787.187 7  92771614.78844  22655769.734                    22655776.914
        44.500          27.900
 18  3 13 12 37 59.0000000  0 15G10R17R07G11R15G15R06R24R16R23G17G19
                                G24G28G01
 116825108.854 7  91032671.39044  22231100.602                    22231106.895
        47.300          28.800
                  89644929.097 6  21538670.953                    21538672.020
                        39.300
                  83845728.531 6  20138255.539                    20138258.098
                        38.900
 117706791.846 7  91719608.68844  22398862.703                    22398866.238
        43.800          25.800
                  86200602.415 5  20740202.914                    20740205.316
                        35.100
 121235327.148 8  94469136.97944  23070324.570                    23070328.512
        48.200          29.800
                  89814863.227 4  21640199.039                    21640199.418
                        28.000
                  84489694.905 5  20314284.055                    20314284.074
                        31.000
                  81258653.723 6  19558018.164                    19558019.176
                        37.400
                                  22257458.906

 119957759.741 7  93473617.01845  22827208.781                    22827212.320
        47.900          30.900
 125515716.215 6  97804455.03143  23884844.289                    23884846.613
        39.600          20.600
 111404168.763 7  86808437.00144  21199504.438                    21199509.797
        44.100          29.900
 117753282.377 7  91755816.24945  22407709.039                    22407712.113
        46.800          30.400
 119055485.504 7  92770600.49944  22655521.953                    22655529.309
        44.300          27.500
 18  3 13 12 38  0.0000000  0 15G10R17R07G11R15G15R06R24R16R23G17G19
                                G24G28G01
 116826375.256 7  91033658.18044  22231342.227                    22231347.918
        47.300          28.400
                  89642498.433 6  21538086.617                    21538088.145
                        39.000
                  83845965.045 6  20138312.070                    20138314.402
                        39.000
 117707412.655 7  91720092.44644  22398980.711                    22398984.047
        43.900          26.500
                  86203488.971 5  20740896.828                    20740900.383
                        35.200
 121238992.461 8  94471993.06945  23071021.984                    23071026.180
        48.000          30.400
                  89818114.694 4  21640981.766                    21640982.922
                        28.600
                  84490308.769 5  20314430.563                    20314431.094
                        30.800
                  81257633.360 6  19557771.836                    19557773.535
                        37.000
                                  22258246.656

 119955627.800 7  93471955.75545  22826803.234                    22826806.688
        47.800          30.700
 125512280.231 6  97801777.64143  23884190.680                    23884192.688
        40.200          20.400
 111402972.666 7  86807504.98344  21199277.125                    21199282.840
        44.900          29.100
 117756055.080 7  91757976.79244  22408236.461                    22408239.543
        46.400          29.400
 119054184.541 7  92769586.75944  22655274.414                    22655282.238
        43.800          26.700
 18  3 13 12 38  1.0000000  0 15G10R17R07G11R15G15R06R24R16R23G17G19
                                G24G28G01
 116827642.417 7  91034645.57244  22231582.344                    22231589.105
        46.700          26.900
                  89640068.318 6  21537503.023                    21537504.094
                        39.000
                  83846202.310 6  20138369.508                    20138371.418
                        38.300
 117708034.335 7  91720576.87444  22399099.523                    22399102.086
        44.300          26.400
                  86206376.004 5  20741590.844                    20741594.648
                        34.700
 121242658.225 8  94474849.50944  23071719.563                    23071723.836
        48.100          29.800
                  89821366.617 4  21641765.766                    21641767.016
                        28.500
                  84490923.479 5  20314578.461                    20314579.465
                        31.400
                  81256613.661 6  19557526.852                    19557527.711
                        37.200
                                  22259035.945

 119953496.396 7  93470294.92245  22826397.922                    22826401.109
        47.800          31.000
 125508844.589 6  97799100.52743  23883537.305                    23883538.898
        40.500          20.600
 111401777.263 7  86806573.50944  21199049.422                    21199054.996
        44.600          29.200
 117758828.296 7  91760137.74045  22408764.344                    22408767.098
        46.300          30.000
 119052884.307 7  92768573.57844  22655026.836                    22655034.504
        44.200          27.600
 18  3 13 12 38  2.0000000  0 15G10R17R07G11R15G15R06R24R16R23G17G19
                                G24G28G01
 116828910.375 7  91035633.59244  22231824.039                    22231830.523
        46.500          27.600
                  89637638.730 6  21536919.117                    21536920.809
                        39.200
                  83846440.387 6  20138426.859                    20138429.199
                        38.400
 117708656.837 7  91721061.93544  22399218.133                    22399220.613
        44.300          24.200
                  86209263.543 5  20742285.148                    20742289.137
                        34.900
 121246324.444 8  94477706.30644  23072417.102                    23072421.324
        48.000          29.900
                  89824619.012 4  21642548.867                    21642550.926
                        29.000
                  84491539.032 5  20314726.773                    20314727.004
                        31.200
                  81255594.646 6  19557280.867                    19557282.492
                        37.200
                                  22259826.008

 119951365.535 7  93468634.50745  22825992.086                    22825995.316
        47.900          31.200
 125505409.344 6  97796423.70743  23882883.406                    23882884.844
        40.700          20.600
 111400582.596 7  86805642.59444  21198822.172                    21198827.605
        44.700          28.400
 117761602.002 7  91762299.06345  22409291.828                    22409295.098
        46.000          30.000
 119051584.821 7  92767560.98044  22654779.180                    22654786.883
        44.100          26.700
 18  3 13 12 38  3.0000000  0 15G10R17R07G11R15G15R06R24R16R23G17G19
                                G24G28G01
 116830179.051 7  91036622.17144  22232065.375                    22232072.109
        46.500          27.400
                  89635209.646 6  21536335.398                    21536337.359
                        39.400
                  83846679.254 6  20138484.672                    20138485.832
                        38.200
 117709280.162 7  91721547.65044  22399336.227                    22399339.359
        44.600          25.200
                  86212151.478 5  20742981.594                    20742984.609
                        34.700
 121249991.054 7  94480563.41044  23073115.063                    23073119.023
        47.800          29.300
                  89827871.844 4  21643333.078                    21643335.172
                        28.900
                  84492155.382 5  20314874.750                    20314875.414
                        31.500
                  81254576.254 6  19557036.102                    19557037.676
                        37.000
                                  22260614.438

 119949235.171 7  93466974.48545  22825587.234                    22825590.016
        47.400          30.900
 125501974.386 6  97793747.09943  23882229.016                    23882231.809
        40.400          21.100
 111399388.556 7  86804712.17144  21198594.703                    21198600.730
        44.600          29.400
 117764376.145 7  91764460.73345  22409819.945                    22409822.566
        46.000          30.600
 119050286.037 7  92766548.94244  22654532.047                    22654539.617
        44.200          26.700
 18  3 13 12 38  4.0000000  0 15G10R17R07G11R15G15R06R24R16R23G17G19
                                G24G28G01
 116831448.470 7  91037611.34444  22232307.367                    22232313.266
        46.800          28.100
                  89632781.022 6  21535752.180                    21535753.477
                        39.200
                  83846918.919 6  20138541.617                    20138543.855
                        38.500
 117709904.283 7  91722033.98144  22399454.961                    22399458.172
        44.500          26.100
                  86215039.911 5  20743676.008                    20743679.238
                        35.200
 121253658.076 7  94483420.83044  23073812.141                    23073816.895
        47.500          28.900
                  89831125.137 4  21644115.898                    21644118.480
                        27.000
                  84492772.508 5  20315023.031                    20315024.070
                        30.700
                  81253558.535 6  19556790.977                    19556792.023
                        37.900
                                  22261404.648

 119947105.313 7  93465314.85745  22825181.586                    22825184.602
        47.600          31.300
 125498539.752 6  97791070.73643  23881575.352                    23881577.676
        39.900          20.900
 111398195.201 7  86803782.27644  21198367.406                    21198373.531
        44.300          29.400
 117767150.746 7  91766622.77044  22410348.109                    22410351.121
        46.300          29.700
 119048987.933 7  92765537.43944  22654285.945                    22654292.656
        44.300          26.400
 18  3 13 12 38  5.0000000  0 15G10R17R07G11R15G15R06R24R16R23G17G19
                                G24G28G01
 116832718.708 7  91038601.14544  22232548.930                    22232554.969
        47.000          28.300
                  89630352.973 6  21535168.867                    21535169.809
                        39.100
                  83847159.432 6  20138599.320                    20138601.953
                        38.400
 117710529.279 7  91722520.99244  22399573.992                    22399577.207
        43.900          26.000
                  86217928.889 5  20744370.336                    20744374.758
                        35.600
 121257325.602 7  94486278.63744  23074510.141                    23074514.629
        47.300          28.700
                  89834378.933 4  21644899.969                    21644902.805
                        27.000
                  84493390.505 5  20315171.602                    20315172.949
                        31.400
                  81252541.532 6  19556546.555                    19556547.918
                        37.300
                                  22262193.750

 119944976.045 7  93463655.69045  22824776.461                    22824779.344
        47.800          31.100
 125495105.517 6  97788394.72543  23880923.016                    23880924.367
        40.800          21.100
 111397002.591 7  86802852.97844  21198140.352                    21198146.688
        44.000          28.500
 117769925.910 7  91768785.23745  22410876.320                    22410878.891
        46.800          30.400
 119047690.646 7  92764526.56844  22654039.102                    22654045.746
        44.200          26.000
 18  3 13 12 38  6.0000000  0 15G10R17R07G11R15G15R06R24R16R23G17G19
                                G24G28G01
 116833989.697 7  91039591.52244  22232790.070                    22232797.359
        46.600          26.700
                  89627925.438 6  21534585.469                    21534586.805
                        39.400
                  83847400.677 6  20138657.242                    20138659.309
                        38.500
 117711155.104 7  91723008.64244  22399693.516                    22399696.480
        43.900          25.900
                  86220818.298 5  20745066.883                    20745069.617
                        35.500
 121260993.540 7  94489136.76544  23075208.117                    23075212.602
        47.200          28.600
                  89837633.180 3  21645684.469                    21645686.406
                        23.000
                  84494009.276 5  20315320.320                    20315321.152
                        31.300
                  81251525.149 6  19556302.000                    19556303.094
                        37.100
                                  22262981.813

 119942847.298 7  93461996.92945  22824371.859                    22824374.652
        47.600          31.900
 125491671.624 6  97785718.97443  23880269.383                    23880271.074
        41.500          21.800
 111395810.666 7  86801924.20144  21197913.633                    21197919.922
        43.500          29.800
 117772701.516 7  91770948.04045  22411404.227                    22411407.055
        46.300          30.100
 119046394.100 7  92763516.26144  22653792.227                    22653799.027
        43.800          28.000
 18  3 13 12 38  7.0000000  0 15G10R17R07G11R15G15R06R24R16R23G17G19
                                G24G28G01
 116835261.461 7  91040582.51344  22233032.773                    22233039.152
        46.700          28.900
                  89625498.440 6  21534002.430                    21534003.742
                        39.200
                  83847642.725 6  20138715.313                    20138717.996
                        38.800
 117711781.784 7  91723496.95744  22399812.055                    22399815.398
        44.200          26.000
                  86223708.214 5  20745762.531                    20745765.285
                        34.800
 121264661.921 7  94491995.23844  23075906.422                    23075910.445
        47.300          28.600
                  89840887.913 4  21646468.867                    21646470.137
                        24.000
                  84494628.868 5  20315469.422                    20315469.730
                        32.200
                  81250509.460 6  19556057.672                    19556059.027
                        37.200
                                  22263772.156

 119940719.100 7  93460338.59545  22823966.281                    22823969.566
        47.600          30.400
 125488238.122 6  97783043.50243  23879615.141                    23879617.641
        40.600          21.800
 111394619.412 7  86800995.95344  21197686.961                    21197693.344
        43.500          29.600
 117775477.613 7  91773111.23845  22411932.188                    22411935.684
        46.400          31.400
 119045098.277 7  92762506.52144  22653545.359                    22653552.453
        43.700          27.200
 18  3 13 12 38  8.0000000  0 15G10R17R07G11R15G15R06R24R16R23G17G19
                                G24G28G01
 116836533.995 7  91041574.10444  22233274.867                    22233281.270
        47.000          28.000
                  89623071.979 6  21533419.234                    21533420.758
                        39.300
                  83847885.607 6  20138773.547                    20138775.980
                        38.800
 117712409.352 7  91723985.96844  22399931.969                    22399934.777
        44.300          24.300
                  86226598.652 5  20746456.539                    20746460.699
                        35.200
 121268330.784 7  94494854.08544  23076605.078                    23076608.750
        47.500          29.600
                  89844143.168 4  21647252.711                    21647254.375
                        24.400
                  84495249.293 5  20315618.258                    20315619.129
                        31.600
                  81249494.470 6  19555813.117                    19555814.059
                        37.600
                                  22264562.211

 119938591.467 7  93458680.69945  22823561.344                    22823564.566
        47.600          30.900
 125484804.941 6  97780368.29143  23878961.953                    23878963.973
        40.300          20.600
 111393428.911 7  86800068.30144  21197460.578                    21197466.797
        43.600          28.700
 117778254.245 7  91775274.83845  22412460.984                    22412463.773
        46.600          30.800
 119043803.241 7  92761497.39944  22653299.039                    22653306.023
        43.700          27.600
 18  3 13 12 38  9.0000000  0 15G10R17R07G11R15G15R06R24R16R23G17G19
                                G24G28G01
 116837807.259 7  91042566.25744  22233516.953                    22233523.719
        47.200          27.800
                  89620645.993 6  21532836.367                    21532837.707
                        39.400
                  83848129.280 6  20138832.930                    20138834.008
                        38.600
 117713037.712 7  91724475.60244  22400051.203                    22400054.523
        44.600          26.300
                  86229489.559 5  20747152.195                    20747156.453
                        35.600
 121272000.034 8  94497713.24144  23077303.398                    23077306.836
        48.100          29.900
                  89847398.838 3  21648038.297                    21648038.516
                        22.300
                  84495870.523 5  20315767.805                    20315768.324
                        31.600
                  81248480.121 6  19555567.914                    19555570.199
                        37.400
                                  22265352.656

 119936464.322 7  93457023.18045  22823156.828                    22823159.625
        47.600          30.100
 125481372.110 6  97777693.37143  23878309.086                    23878310.926
        40.800          21.100
 111392239.079 7  86799141.17044  21197234.172                    21197240.516
        44.000          29.700
 117781031.344 7  91777438.80245  22412989.508                    22412992.477
        46.500          30.900
 119042508.917 7  92760488.82244  22653052.352                    22653059.867
        43.700          26.600
 18  3 13 12 38 10.0000000  0 15G10R17R07G11R15G15R06R24R16R23G17G19
                                G24G28G01
 116839081.406 7  91043559.09444  22233759.430                    22233765.859
        47.800          28.700
                  89618220.575 6  21532253.242                    21532254.961
                        39.100
                  83848373.817 6  20138890.711                    20138893.125
                        38.300
 117713666.987 7  91724965.94644  22400171.055                    22400174.195
        44.900          25.600
                  86232380.980 5  20747848.125                    20747851.762
                        34.900
 121275669.828 8  94500572.82245  23078001.961                    23078004.875
        48.500          30.200
                  89850655.037 4  21648822.969                    21648823.250
                        24.000
                  84496492.611 5  20315917.383                    20315918.461
                        31.500
                  81247466.517 6  19555324.313                    19555325.984
                        37.100
                                  22266142.977

 119934337.800 7  93455366.15145  22822752.164                    22822755.109
        47.300          30.600
 125477939.733 6  97775018.80543  23877656.117                    23877657.816
        41.300          20.900
 111391050.023 7  86798214.62945  21197008.258                    21197014.180
        44.500          30.200
 117783808.993 7  91779603.20144  22413518.047                    22413520.988
        46.700          29.700
 119041215.378 7  92759480.86644  22652806.570                    22652813.695
        42.900          26.500
 18  3 13 12 38 11.0000000  0 15G10R17R07G11R15G15R06R24R16R23G17G19
                                G24G28G01
 116840356.195 7  91044552.43744  22234002.195                    22234008.750
        47.600          27.700
                  89615795.654 6  21531671.336                    21531672.461
                        39.400
                  83848619.076 6  20138949.984                    20138951.867
                        38.100
 117714297.005 7  91725456.87144  22400290.984                    22400294.117
        45.000          26.000
                  86235272.804 5  20748544.031                    20748547.441
                        35.600
 121279339.954 8  94503432.65545  23078700.438                    23078703.453
        48.500          30.600
                  89853911.618 4  21649607.961                    21649607.672
                        25.000
                  84497115.466 5  20316068.227                    20316068.336
                        31.400
                  81246453.532 6  19555080.984                    19555082.234
                        37.100
                                  22266932.313

 119932211.728 7  93453709.47445  22822347.281                    22822350.590
        47.500          31.400
 125474507.645 7  97772344.44743  23877003.547                    23877004.895
        42.400          19.600
 111389861.571 7  86797288.55744  21196782.117                    21196788.074
        45.000          29.700
 117786587.042 7  91781767.91945  22414046.797                    22414049.484
        46.800          30.100
 119039922.494 7  92758473.43044  22652560.438                    22652567.363
        42.800          25.800
 18  3 13 12 38 12.0000000  0 15G10R17R07G11R15G15R06R24R16R23G17G19
                                G24G28G01
 116841631.811 7  91045546.42344  22234244.914                    22234251.336
        47.200          28.400
                  89613371.294 6  21531088.602                    21531089.543
                        39.100
                  83848865.155 6  20139009.141                    20139011.355
                        38.600
 117714927.882 7  91725948.46244  22400411.172                    22400414.238
        44.700          26.000
                  86238165.142 5  20749238.531                    20749243.520
                        35.300
 121283010.540 8  94506292.85445  23079398.711                    23079402.227
        48.800          30.500
                  89857168.662 4  21650392.531                    21650392.723
                        27.900
                  84497739.169 5  20316217.359                    20316217.918
                        30.800
                  81245441.237 6  19554836.883                    19554839.355
                        37.500
                                  22267724.148

 119930086.222 7  93452053.23445  22821942.922                    22821945.656
        47.900          30.900
 125471075.897 7  97769670.35743  23876350.336                    23876351.625
        42.300          20.900
 111388673.834 7  86796363.04345  21196556.188                    21196562.109
        45.700          30.200
 117789365.605 7  91783933.03745  22414575.336                    22414578.242
        47.000          30.400
 119038630.378 7  92757466.58244  22652313.781                    22652321.402
        43.300          26.200
 18  3 13 12 38 13.0000000  0 15G10R17R07G11R15G15R06R24R16R23G17G19
                                G24G28G01
 116842908.127 7  91046540.95844  22234487.828                    22234494.363
        47.200          28.700
                  89610947.402 6  21530506.008                    21530507.328
                        39.100
                  83849111.995 6  20139068.680                    20139070.566
                        38.700
 117715559.536 7  91726440.65644  22400531.375                    22400534.172
        44.600          25.300
                  86241057.956 5  20749935.328                    20749939.180
                        35.600
 121286681.504 8  94509153.34045  23080097.102                    23080101.070
        49.200          30.500
                  89860426.127 4  21651177.117                    21651177.250
                        28.200
                  84498363.649 5  20316367.953                    20316368.531
                        30.600
                  81244429.576 6  19554593.805                    19554595.352
                        37.400
                                  22268512.984

 119927961.197 7  93450397.36945  22821538.883                    22821541.895
        47.500          31.500
 125467644.448 6  97766996.50343  23875697.086                    23875698.684
        41.700          20.600
 111387486.723 7  86795438.01445  21196330.258                    21196335.895
        45.700          30.200
 117792144.579 7  91786098.47245  22415103.773                    22415106.707
        46.700          31.400
 119037338.942 7  92756460.26144  22652068.961                    22652075.941
        43.600          27.800
 18  3 13 12 38 14.0000000  0 15G10R17R07G11R15G15R06R24R16R23G17G19
                                G24G28G01
 116844185.193 7  91047536.07444  22234730.555                    22234737.320
        47.300          29.600
                  89608524.018 6  21529922.813                    21529924.566
                        39.000
                  83849359.601 6  20139128.414                    20139129.684
                        38.600
 117716192.047 7  91726933.52144  22400651.500                    22400654.723
        44.300          26.500
                  86243951.218 5  20750632.391                    20750635.586
                        35.500
 121290352.914 8  94512014.17245  23080795.969                    23080799.277
        48.800          30.400
                  89863684.071 4  21651961.406                    21651962.590
                        29.300
                  84498988.969 5  20316517.750                    20316518.566
                        31.700
                  81243418.589 6  19554350.984                    19554352.160
                        37.100
                                  22269303.586

 119925836.727 7  93448741.93645  22821134.109                    22821137.191
        47.800          31.300
 125464213.387 6  97764322.92743  23875043.531                    23875046.055
        41.400          20.900
 111386300.342 7  86794513.55945  21196104.492                    21196110.156
        45.900          30.200
 117794924.086 7  91788264.32045  22415632.703                    22415635.969
        46.700          31.100
 119036048.281 7  92755454.54244  22651823.406                    22651830.168
        43.400          27.100
 18  3 13 12 38 15.0000000  0 15G10R17R07G11R15G15R06R24R16R23G17G19
                                G24G28G01
 116845463.031 7  91048531.79944  22234974.016                    22234980.387
        47.500          28.700
                  89606101.133 6  21529341.469                    21529343.043
                        38.900
                  83849608.021 6  20139187.727                    20139189.324
                        38.700
 117716825.357 7  91727427.00944  22400771.859                    22400775.418
        44.000          26.500
                  86246844.963 5  20751328.875                    20751332.020
                        35.400
 121294024.779 8  94514875.36945  23081494.617                    23081498.398
        48.700          30.400
                  89866942.479 4  21652745.961                    21652747.867
                        29.700
                  84499615.064 5  20316668.555                    20316669.184
                        31.000
                  81242408.241 6  19554107.320                    19554108.898
                        37.200
                                  22270094.500

 119923712.782 7  93447086.91145  22820730.117                    22820733.188
        47.300          31.800
 125460782.639 6  97761649.59843  23874390.836                    23874393.070
        41.200          20.900
 111385114.631 7  86793589.62445  21195878.414                    21195884.465
        45.500          30.700
 117797704.073 7  91790430.54345  22416161.938                    22416164.730
        46.500          30.800
 119034758.309 7  92754449.37344  22651577.891                    22651585.059
        42.800          27.500
 18  3 13 12 38 16.0000000  0 15G10R17R07G11R15G15R06R24R16R23G17G19
                                G24G28G01
 116846741.641 7  91049528.11244  22235216.914                    22235223.621
        47.500          28.500
                  89603678.813 6  21528759.320                    21528760.336
                        38.900
                  83849857.229 6  20139247.688                    20139249.313
                        38.900
 117717459.538 7  91727921.17944  22400892.984                    22400895.840
        44.100          26.400
                  86249739.186 5  20752023.523                    20752028.434
                        35.500
 121297697.061 8  94517736.87945  23082193.336                    23082197.258
        48.900          30.400
                  89870201.329 4  21653531.219                    21653533.254
                        29.900
                  84500241.980 5  20316818.586                    20316820.285
                        30.700
                  81241398.556 6  19553864.141                    19553865.852
                        37.300
                                  22270885.891

 119921589.362 8  93445432.30245  22820326.680                    22820329.328
        48.100          31.100
 125457352.240 6  97758976.58043  23873738.406                    23873740.195
        41.700          20.600
 111383929.619 7  86792666.24144  21195652.609                    21195658.871
        45.400          29.600
 117800484.528 7  91792597.13345  22416691.156                    22416694.313
        46.000          30.900
 119033469.131 7  92753444.81744  22651332.719                    22651339.355
        43.100          26.500
 18  3 13 12 38 17.0000000  0 15G10R17R07G11R15G15R06R24R16R23G17G19
                                G24G28G01
 116848020.971 7  91050524.99144  22235460.547                    22235467.211
        47.400          28.200
                  89601257.018 6  21528178.094                    21528178.637
                        39.000
                  83850107.197 6  20139307.758                    20139308.934
                        38.900
 117718094.505 7  91728415.95844  22401013.648                    22401016.773
        44.500          25.600
                  86252633.915 5  20752719.992                    20752724.500
                        35.600
 121301369.768 8  94520598.73545  23082892.211                    23082896.133
        49.000          30.300
                  89873460.624 4  21654316.891                    21654318.285
                        28.900
                  84500869.700 5  20316969.289                    20316970.926
                        31.500
                  81240389.568 6  19553622.297                    19553622.934
                        37.200
                                  22271675.867

 119919466.479 8  93443778.11245  22819922.633                    22819925.512
        48.400          30.600
 125453922.199 6  97756303.83243  23873085.492                    23873087.207
        41.200          20.600
 111382745.274 7  86791743.37445  21195427.070                    21195433.781
        45.500          30.200
 117803265.471 7  91794764.10445  22417220.367                    22417223.406
        46.200          30.600
 119032180.665 7  92752440.82344  22651087.297                    22651094.637
        43.600          27.000
 18  3 13 12 38 18.0000000  0 15G10R17R07G11R15G15R06R24R16R23G17G19
                                G24G28G01
 116849301.106 7  91051522.49244  22235703.836                    22235710.844
        47.500          28.600
                  89598835.709 6  21527595.789                    21527597.102
                        38.900
                  83850357.979 6  20139367.922                    20139370.164
                        38.500
 117718730.344 7  91728911.42144  22401134.586                    22401137.895
        44.500          26.500
                  86255529.091 5  20753418.867                    20753421.754
                        35.400
 121305042.896 8  94523460.90544  23083591.164                    23083595.344
        48.700          29.800
                  89876720.384 4  21655103.141                    21655104.340
                        29.500
                  84501498.239 5  20317121.023                    20317122.008
                        30.600
                  81239381.220 6  19553379.102                    19553380.535
                        36.900
                                  22272466.992

 119917344.100 8  93442124.31145  22819518.172                    22819521.609
        48.400          32.100
 125450492.490 6  97753631.33743  23872432.742                    23872435.180
        40.000          21.500
 111381561.611 7  86790821.04145  21195202.242                    21195208.594
        45.400          30.000
 117806046.876 7  91796931.43245  22417750.008                    22417752.480
        46.400          31.000
 119030892.888 7  92751437.35544  22650841.961                    22650849.227
        43.400          26.900
 18  3 13 12 38 19.0000000  0 15G10R17R07G11R15G15R06R24R16R23G17G19
                                G24G28G01
 116850582.048 7  91052520.63944  22235947.891                    22235954.793
        47.400          28.000
                  89596414.939 6  21527014.102                    21527016.137
                        38.900
                  83850609.593 6  20139427.930                    20139429.988
                        38.700
 117719367.050 7  91729407.55244  22401255.742                    22401258.883
        44.300          26.000
                  86258424.774 5  20754115.023                    20754117.797
                        35.800
 121308716.549 8  94526323.49644  23084290.508                    23084293.832
        48.700          29.700
                  89879980.667 4  21655889.234                    21655889.188
                        28.800
                  84502127.644 5  20317272.594                    20317273.590
                        30.400
                  81238373.604 6  19553135.828                    19553138.102
                        37.000
                                  22273257.898

 119915222.312 8  93440470.96645  22819114.508                    22819117.902
        48.300          31.400
 125447063.165 6  97750959.15543  23871779.977                    23871782.109
        40.600          21.800
 111380378.709 7  86789899.31244  21194977.203                    21194982.934
        45.500          29.300
 117808828.820 7  91799099.17545  22418279.195                    22418281.641
        46.200          31.100
 119029605.935 7  92750434.52244  22650597.188                    22650604.090
        43.400          25.800
 18  3 13 12 38 20.0000000  0 15G10R17R07G11R15G15R06R24R16R23G17G19
                                G24G28G01
 116851863.833 7  91053519.43844  22236192.055                    22236198.820
        47.300          28.800
                  89593994.767 6  21526432.414                    21526433.867
                        39.200
                  83850862.094 6  20139488.984                    20139490.285
                        38.600
 117720004.687 7  91729904.40244  22401376.953                    22401380.668
        43.900          25.700
                  86261321.046 5  20754810.891                    20754814.559
                        35.600
 121312390.694 8  94529186.47044  23084988.961                    23084993.039
        48.200          29.700
                  89883241.497 4  21656674.133                    21656675.586
                        26.900
                  84502757.926 5  20317423.586                    20317424.363
                        31.000
                  81237366.699 6  19552893.641                    19552894.984
                        37.300
                                  22274049.602

 119913101.156 8  93438818.11745  22818711.094                    22818713.969
        48.400          30.800
 125443634.316 6  97748287.32743  23871127.828                    23871129.555
        40.900          21.700
 111379196.561 7  86788978.15744  21194752.703                    21194758.328
        45.700          29.800
 117811611.340 7  91801267.38045  22418808.734                    22418811.906
        46.000          31.400
 119028319.791 7  92749432.32444  22650352.500                    22650359.828
        43.600          27.700
 18  3 13 12 38 21.0000000  0 15G10R17R07G11R15G15R06R24R16R23G17G19
                                G24G28G01
 116853146.393 7  91054518.85444  22236435.883                    22236442.719
        47.300          28.400
                  89591575.159 6  21525851.352                    21525852.531
                        39.100
                  83851115.372 6  20139549.234                    20139551.234
                        38.700
 117720643.193 7  91730401.93944  22401498.719                    22401502.121
        43.900          25.400
                  86264217.794 5  20755507.305                    20755511.711
                        35.500
 121316065.313 7  94532049.80344  23085688.203                    23085692.324
        47.800          29.300
                  89886502.805 4  21657460.234                    21657461.242
                        26.700
                  84503389.051 5  20317576.078                    20317577.094
                        31.200
                  81236360.507 6  19552651.953                    19552653.254
                        37.600
                                  22274840.555

 119910980.540 8  93437165.69045  22818306.945                    22818310.793
        48.100          31.300
 125440205.829 7  97745615.77743  23870476.023                    23870477.035
        42.100          21.800
 111378015.163 7  86788057.58344  21194527.781                    21194533.348
        46.300          29.700
 117814394.349 7  91803435.96245  22419338.039                    22419340.996
        46.000          31.200
 119027034.413 7  92748430.72444  22650107.867                    22650114.723
        43.000          26.200
 18  3 13 12 38 22.0000000  0 15G10R17R07G11R15G15R06R24R16R23G17G19
                                G24G28G01
 116854429.727 7  91055518.85144  22236680.016                    22236686.977
        47.000          27.100
                  89589156.095 6  21525270.328                    21525272.027
                        38.700
                  83851369.444 6  20139610.352                    20139611.523
                        38.800
 117721282.523 7  91730900.11944  22401620.648                    22401623.727
        44.200          25.800
                  86267115.005 5  20756205.758                    20756209.051
                        35.600
 121319740.366 7  94534913.48044  23086387.641                    23086391.484
        47.600          29.200
                  89889764.594 4  21658245.664                    21658246.980
                        25.300
                  84504020.995 4  20317727.906                    20317728.383
                        29.500
                  81235354.972 6  19552409.453                    19552411.875
                        37.400
                                  22275632.992

 119908860.450 8  93435513.67745  22817903.766                    22817907.563
        48.000          31.100
 125436777.718 6  97742944.51243  23869823.492                    23869825.289
        41.700          21.500
 111376834.443 7  86787137.53844  21194303.172                    21194308.953
        46.400          29.700
 117817177.854 7  91805604.92445  22419867.695                    22419870.746
        45.900          30.900
 119025749.755 7  92747429.68944  22649863.406                    22649870.750
        43.500          27.300
 18  3 13 12 38 23.0000000  0 15G10R17R07G11R15G15R06R24R16R23G17G19
                                G24G28G01
 116855713.751 7  91056519.38244  22236924.500                    22236931.246
        47.200          28.600
                  89586737.479 6  21524688.305                    21524690.418
                        39.100
                  83851624.232 6  20139672.594                    20139673.777
                        38.800
 117721922.632 7  91731398.91244  22401741.727                    22401745.254
        44.100          26.500
                  86270012.662 5  20756903.133                    20756906.137
                        35.200
 121323415.803 7  94537777.45244  23087086.906                    23087090.770
        47.600          29.900
                  89893026.776 4  21659031.672                    21659032.609
                        24.600
                  84504653.714 5  20317880.359                    20317880.984
                        30.600
                  81234350.076 6  19552167.234                    19552169.395
                        37.000
                                  22276424.008

 119906740.853 8  93433862.03545  22817500.289                    22817504.102
        48.000          31.000
 125433349.876 6  97740273.44743  23869170.328                    23869172.711
        40.800          21.500
 111375654.322 7  86786217.95645  21194078.164                    21194084.078
        46.000          30.000
 117819961.797 7  91807774.22944  22420397.570                    22420400.492
        46.200          29.800
 119024465.777 7  92746429.19144  22649619.141                    22649626.008
        43.400          25.900
 18  3 13 12 38 24.0000000  0 15G10R17R07G11R15G15R06R24R16R23G17G19
                                G24G28G01
 116856998.563 7  91057520.53944  22237168.859                    22237175.504
        47.200          28.300
                  89584319.398 6  21524107.859                    21524109.711
                        39.300
                  83851879.864 6  20139733.109                    20139734.684
                        38.800
 117722563.592 7  91731898.37344  22401864.164                    22401867.492
        44.100          26.500
                  86272910.826 5  20757599.633                    20757603.023
                        35.000
 121327091.688 7  94540641.78344  23087786.813                    23087790.180
        47.600          29.200
                  89896289.444 3  21659818.813                    21659819.012
                        23.000
                  84505287.275 4  20318031.852                    20318032.820
                        29.900
                  81233345.861 6  19551926.875                    19551927.730
                        37.100
                                  22277215.227

 119904621.813 8  93432210.84445  22817097.430                    22817100.605
        48.300          31.600
 125429922.379 6  97737602.67443  23868518.422                    23868520.148
        40.900          21.500
 111374474.937 7  86785298.94744  21193853.406                    21193859.422
        45.800          29.400
 117822746.239 7  91809943.91845  22420927.547                    22420930.648
        46.700          30.200
 119023182.585 7  92745429.29544  22649374.859                    22649381.770
        43.100          25.600
 18  3 13 12 38 25.0000000  0 15G10R17R07G11R15G15R06R24R16R23G17G19
                                G24G28G01
 116858283.997 7  91058522.18144  22237413.563                    22237420.145
        47.200          27.200
                  89581901.714 6  21523526.945                    21523528.391
                        39.400
                  83852136.194 6  20139795.016                    20139796.719
                        39.000
 117723205.271 7  91732398.39644  22401986.141                    22401989.734
        44.500          26.000
                  86275809.325 5  20758296.906                    20758300.535
                        35.300
 121330767.859 7  94543506.32944  23088486.398                    23088489.770
        47.900          28.300
                  89899552.454 4  21660604.453                    21660604.887
                        25.800
                  84505921.544 5  20318184.820                    20318185.609
                        30.800
                  81232342.211 6  19551684.711                    19551685.918
                        36.900
                                  22278006.969

 119902503.182 7  93430559.96445  22816694.078                    22816697.555
        47.900          31.900
 125426495.128 6  97734932.08943  23867866.148                    23867868.266
        41.900          22.200
 111373296.095 7  86784380.36944  21193629.195                    21193635.238
        45.900          29.800
 117825531.020 7  91812113.87245  22421457.578                    22421460.504
        46.900          30.100
 119021899.973 7  92744429.85344  22649131.516                    22649137.793
        43.700          27.100
 18  3 13 12 38 26.0000000  0 15G10R17R07G11R15G15R06R24R16R23G17G19
                                G24G28G01
 116859570.158 7  91059524.37944  22237658.695                    22237664.652
        47.500          26.900
                  89579484.499 6  21522946.609                    21522947.590
                        39.000
                  83852393.309 6  20139856.977                    20139859.039
                        37.500
 117723847.684 7  91732898.98244  22402108.086                    22402111.676
        43.900          25.500
                  86278708.301 5  20758994.945                    20758998.090
                        35.400
 121334444.398 7  94546371.18044  23089186.484                    23089189.098
        47.400          29.000
                  89902815.853 4  21661390.523                    21661390.863
                        26.200
                  84506556.588 5  20318337.219                    20318337.949
                        31.200
                  81231339.180 6  19551443.008                    19551444.633
                        37.100
                                  22278797.953

 119900384.990 8  93428909.41845  22816291.195                    22816294.313
        48.300          31.800
 125423068.165 7  97732261.73243  23867214.742                    23867216.215
        42.700          22.300
 111372117.871 7  86783462.26945  21193405.125                    21193411.148
        46.200          30.600
 117828316.243 7  91814284.17845  22421987.297                    22421990.660
        46.900          30.000
 119020618.062 7  92743430.96544  22648886.750                    22648893.957
        43.800          27.400
 18  3 13 12 38 27.0000000  0 15G10R17R07G11R15G15R06R24R16R23G17G19
                                G24G28G01
 116860857.076 7  91060527.16944  22237903.414                    22237909.676
        47.400          28.400
                  89577067.842 6  21522365.766                    21522367.219
                        40.200
                  83852651.212 6  20139918.383                    20139920.145
                        38.000
 117724490.960 7  91733400.25244  22402230.625                    22402234.125
        44.800          26.500
                  86281607.747 5  20759692.500                    20759695.820
                        35.800
 121338121.401 7  94549236.39144  23089885.844                    23089888.824
        47.600          29.100
                  89906079.775 4  21662176.500                    21662177.035
                        27.500
                  84507192.474 5  20318490.023                    20318490.953
                        32.000
                  81230336.847 6  19551201.398                    19551203.801
                        37.800
                                  22279590.117

 119898267.369 8  93427259.32145  22815888.313                    22815891.227
        48.100          32.800
 125419641.600 7  97729591.69243  23866562.273                    23866564.297
        42.100          21.800
 111370940.372 7  86782544.73545  21193180.844                    21193187.250
        46.100          31.800
 117831101.962 7  91816454.86545  22422517.609                    22422520.258
        46.300          30.700
 119019336.912 7  92742432.65744  22648642.688                    22648649.984
        44.100          26.200
 18  3 13 12 38 28.0000000  0 15G10R17R07G11R15G15R06R24R16R23G17G19
                                G24G28G01
 116862144.741 7  91061530.53744  22238148.266                    22238154.781
        47.800          28.700
                  89574651.700 6  21521785.367                    21521787.082
                        39.300
                  83852909.868 6  20139980.758                    20139982.684
                        39.300
 117725135.097 7  91733902.17944  22402353.336                    22402356.398
        44.500          24.800
                  86284507.661 5  20760389.406                    20760393.770
                        35.200
 121341798.832 8  94552101.92445  23090585.469                    23090589.246
        48.800          30.000
                  89909344.130 4  21662962.930                    21662963.563
                        27.200
                  84507829.164 5  20318643.109                    20318644.578
                        31.700
                  81229335.150 6  19550960.773                    19550962.410
                        37.200
                                  22280382.164

 119896150.295 7  93425609.65445  22815485.656                    22815488.832
        47.600          32.100
 125416215.329 6  97726921.89143  23865909.906                    23865912.078
        40.600          22.000
 111369763.564 7  86781627.75344  21192957.336                    21192963.227
        45.100          28.900
 117833888.117 7  91818625.89445  22423047.211                    22423050.484
        46.900          30.300
 119018056.474 7  92741434.91644  22648399.609                    22648406.520
        43.800          26.200
 18  3 13 12 38 29.0000000  0 15G10R17R07G11R15G15R06R24R16R23G17G19
                                G24G28G01
 116863433.196 7  91062534.52744  22238393.508                    22238399.832
        47.400          28.900
                  89572236.087 6  21521204.523                    21521206.672
                        39.400
                  83853169.328 6  20140043.445                    20140044.934
                        39.200
 117725780.060 7  91734404.74144  22402476.078                    22402479.281
        44.600          24.700
                  86287408.091 5  20761087.828                    20761091.648
                        35.400
 121345476.717 8  94554967.80345  23091285.477                    23091288.973
        48.700          30.500
                  89912609.009 4  21663748.430                    21663750.617
                        26.500
                  84508466.689 5  20318796.656                    20318797.180
                        31.400
                  81228334.167 6  19550720.102                    19550721.059
                        37.800
                                  22281175.242

 119894033.759 8  93423960.41745  22815082.555                    22815086.199
        48.100          31.900
 125412789.473 6  97724252.41043  23865258.109                    23865259.742
        41.300          21.800
 111368587.474 7  86780711.33744  21192733.781                    21192739.227
        45.700          29.400
 117836674.832 7  91820797.36945  22423578.219                    22423581.066
        46.600          30.000
 119016776.830 7  92740437.80944  22648156.172                    22648163.043
        43.400          26.500
 18  3 13 12 38 30.0000000  0 15G10R17R07G11R15G15R06R24R16R23G17G19
                                G24G28G01
 116864722.393 7  91063539.09244  22238638.867                    22238645.512
        47.700          28.700
                  89569821.015 6  21520624.461                    21520626.449
                        39.500
                  83853429.571 6  20140105.578                    20140107.320
                        38.900
 117726425.845 7  91734907.94544  22402598.297                    22402602.145
        43.700          26.900
                  86290308.981 5  20761785.797                    20761789.621
                        34.900
 121349155.012 8  94557834.00045  23091985.336                    23091988.742
        48.900          30.400
                  89915874.308 4  21664535.664                    21664536.992
                        27.800
                  84509104.996 5  20318950.148                    20318950.727
                        31.400
                  81227333.817 6  19550478.992                    19550480.512
                        37.300
                                  22281967.969

 119891917.728 8  93422311.56545  22814679.953                    22814683.176
        48.200          31.800
 125409363.957 7  97721583.18843  23864607.023                    23864608.293
        42.600          21.500
 111367412.081 7  86779795.46444  21192510.094                    21192515.699
        46.300          29.100
 117839461.976 7  91822969.18645  22424108.344                    22424111.508
        46.400          30.600
 119015497.894 7  92739441.25044  22647913.094                    22647919.938
        43.700          27.800
 18  3 13 12 38 31.0000000  0 15G10R17R07G11R15G15R06R24R16R23G17G19
                                G24G28G01
 116866012.361 7  91064544.26544  22238884.094                    22238891.066
        47.400          27.900
                  89567406.438 6  21520044.320                    21520045.961
                        39.500
                  83853690.619 6  20140168.359                    20140170.043
                        39.100
 117727072.460 7  91735411.80044  22402722.297                    22402725.340
        43.600          26.700
                  86293210.349 5  20762483.016                    20762487.703
                        35.200
 121352833.731 8  94560700.52445  23092685.500                    23092689.156
        48.400          30.500
                  89919140.043 4  21665322.742                    21665323.750
                        27.800
                  84509744.101 5  20319103.672                    20319104.113
                        32.300
                  81226334.182 6  19550238.445                    19550239.469
                        37.600
                                  22282759.344

 119889802.232 8  93420663.12545  22814277.492                    22814280.328
        48.000          32.100
 125405938.782 7  97718914.21843  23863955.023                    23863956.320
        42.400          21.500
 111366237.346 7  86778880.09144  21192286.453                    21192292.402
        46.600          28.400
 117842249.602 7  91825141.35844  22424638.578                    22424641.805
        46.500          29.400
 119014219.681 7  92738445.25844  22647669.883                    22647677.039
        43.800          28.200
 18  3 13 12 38 32.0000000  0 15G10R17R07G11R15G15R06R24R16R23G17G19
                                G24G28G01
 116867303.076 7  91065550.01044  22239129.969                    22239136.398
        47.900          28.200
                  89564992.350 6  21519464.828                    21519466.027
                        39.500
                  83853952.478 6  20140230.789                    20140232.223
                        39.300
 117727719.899 7  91735916.29644  22402845.281                    22402848.613
        43.800          25.600
                  86296112.179 5  20763182.305                    20763185.734
                        35.200
 121356512.880 8  94563567.38944  23093385.258                    23093389.570
        48.300          29.800
                  89922406.221 4  21666110.563                    21666111.066
                        27.800
                  84510384.009 5  20319257.102                    20319258.332
                        31.500
                  81225335.195 6  19549998.234                    19549999.473
                        37.700
                                  22283549.625

 119887687.262 7  93419015.09745  22813874.625                    22813878.285
        47.600          32.200
 125402513.923 7  97716245.47443  23863302.578                    23863304.934
        42.000          21.700
 111365063.310 7  86777965.24644  21192063.406                    21192068.629
        46.400          29.100
 117845037.689 7  91827313.89045  22425169.555                    22425172.508
        46.600          30.600
 119012942.192 7  92737449.81844  22647426.148                    22647433.820
        44.500          28.700
 18  3 13 12 38 33.0000000  0 15G10R17R07G11R15G15R06R24R16R23G17G19
                                G24G28G01
 116868594.490 7  91066556.30844  22239375.773                    22239382.016
        47.600          28.400
                  89562578.764 6  21518884.602                    21518886.398
                        39.700
                  83854215.098 6  20140293.492                    20140296.203
                        39.100
 117728368.109 7  91736421.40244  22402968.859                    22402971.719
        43.600          25.300
                  86299014.455 5  20763879.891                    20763883.984
                        35.000
 121360192.434 8  94566434.55745  23094085.344                    23094089.676
        48.000          30.400
                  89925672.791 4  21666897.586                    21666898.520
                        28.800
                  84511024.716 5  20319411.906                    20319412.375
                        32.100
                  81224336.828 6  19549758.266                    19549759.207
                        37.700
                                  22284344.398

 119885572.760 7  93417367.43445  22813471.992                    22813476.109
        47.800          31.600
 125399089.389 7  97713576.99443  23862650.656                    23862652.906
        42.100          21.500
 111363889.907 7  86777050.89444  21191839.789                    21191845.605
        46.300          29.700
 117847826.231 7  91829486.77545  22425700.227                    22425703.031
        46.500          31.200
 119011665.380 7  92736454.90144  22647183.156                    22647190.406
        44.100          27.300
 18  3 13 12 38 34.0000000  0 15G10R17R07G11R15G15R06R24R16R23G17G19
                                G24G28G01
 116869886.718 7  91067563.24444  22239621.578                    22239628.129
        47.200          27.600
                  89560165.749 6  21518304.813                    21518306.016
                        39.700
                  83854478.537 6  20140357.547                    20140359.676
                        39.200
 117729017.220 7  91736927.20944  22403092.008                    22403095.301
        44.100          25.200
                  86301917.224 5  20764578.539                    20764582.430
                        35.300
 121363872.449 7  94569302.09445  23094785.695                    23094789.816
        47.300          30.400
                  89928939.868 4  21667685.000                    21667685.992
                        28.500
                  84511666.286 5  20319566.227                    20319566.566
                        31.200
                  81223339.159 6  19549518.008                    19549518.984
                        37.300
                                  22285136.398

 119883458.856 8  93415720.23545  22813070.000                    22813073.621
        48.000          31.800
 125395665.257 6  97710908.84443  23861999.992                    23862001.691
        41.600          21.500
 111362717.258 7  86776137.13044  21191616.117                    21191622.078
        46.500          29.400
 117850615.313 7  91831660.08945  22426230.906                    22426233.715
        46.500          30.700
 119010389.367 7  92735460.60544  22646940.602                    22646947.441
        44.300          27.400
 18  3 13 12 38 35.0000000  0 15G10R17R07G11R15G15R06R24R16R23G17G19
                                G24G28G01
 116871179.674 7  91068570.74744  22239867.656                    22239873.906
        47.000          28.100
                  89557753.228 6  21517724.633                    21517726.809
                        39.400
                  83854742.743 6  20140421.086                    20140422.316
                        38.900
 117729667.108 7  91737433.61544  22403215.398                    22403219.254
        44.100          25.600
                  86304820.462 5  20765277.414                    20765280.926
                        35.600
 121367552.856 7  94572169.94544  23095486.133                    23095490.320
        47.400          29.700
                  89932207.410 4  21668472.797                    21668473.539
                        27.900
                  84512308.639 5  20319720.273                    20319720.777
                        31.400
                  81222342.112 6  19549277.477                    19549279.340
                        37.600
                                  22285929.625

 119881345.453 7  93414073.43245  22812668.094                    22812671.621
        47.600          31.800
 125392241.399 7  97708240.90443  23861348.594                    23861350.055
        42.100          21.800
 111361545.227 7  86775223.85744  21191393.305                    21191399.316
        46.300          29.800
 117853404.819 7  91833833.73845  22426761.523                    22426764.633
        45.800          30.600
 119009114.079 7  92734466.87544  22646697.594                    22646704.492
        44.200          28.100
 18  3 13 12 38 36.0000000  0 15G10R17R07G11R15G15R06R24R16R23G17G19
                                G24G28G01
 116872473.345 7  91069578.80244  22240113.953                    22240120.145
        47.100          27.500
                  89555341.184 6  21517145.195                    21517147.020
                        39.200
                  83855007.681 6  20140484.750                    20140486.281
                        38.600
 117730317.802 7  91737940.64944  22403339.328                    22403342.660
        44.100          25.300
                  86307724.146 5  20765974.961                    20765979.469
                        35.000
 121371233.662 7  94575038.08644  23096186.211                    23096190.984
        47.900          29.300
                  89935475.330 4  21669259.945                    21669261.043
                        26.800
                  84512951.789 5  20319874.359                    20319875.555
                        31.700
                  81221345.726 6  19549038.875                    19549039.750
                        37.500
                                  22286723.078

 119879232.530 7  93412427.00145  22812265.672                    22812269.574
        47.800          31.600
 125388817.886 7  97705573.23743  23860696.914                    23860698.324
        42.400          21.500
 111360373.872 7  86774311.11444  21191170.336                    21191176.516
        46.500          29.900
 117856194.777 7  91836007.73444  22427292.383                    22427295.520
        46.000          29.500
 119007839.427 7  92733473.64644  22646454.922                    22646462.480
        44.000          27.500
 18  3 13 12 38 37.0000000  0 15G10R17R07G11R15G15R06R24R16R23G17G19
                                G24G28G01
 116873767.758 7  91070587.43644  22240359.977                    22240366.297
        46.900          29.400
                  89552929.614 6  21516566.164                    21516567.863
                        39.400
                  83855273.398 6  20140547.859                    20140550.180
                        38.600
 117730969.242 7  91738448.27244  22403463.164                    22403466.801
        44.600          24.900
                  86310628.271 5  20766674.836                    20766678.449
                        35.500
 121374914.885 8  94577906.56044  23096887.688                    23096891.070
        48.100          29.000
                  89938743.688 4  21670047.172                    21670047.547
                        28.800
                  84513595.685 5  20320029.648                    20320030.313
                        31.400
                  81220349.973 6  19548797.773                    19548799.352
                        37.000
                                  22287513.234

 119877120.090 7  93410780.94845  22811863.414                    22811867.789
        47.000          31.800
 125385394.658 6  97702905.77143  23860045.227                    23860047.055
        41.800          21.700
 111359203.174 7  86773398.88544  21190947.117                    21190953.484
        45.000          28.100
 117858985.168 7  91838182.06145  22427823.094                    22427826.234
        46.200          30.800
 119006565.532 7  92732481.00744  22646212.617                    22646219.734
        44.100          26.000
 18  3 13 12 38 38.0000000  0 15G10R17R07G11R15G15R06R24R16R23G17G19
                                G24G28G01
 116875062.985 7  91071596.70944  22240606.422                    22240612.891
        47.500          29.100
                  89550518.620 6  21515987.148                    21515988.320
                        39.100
                  83855539.960 6  20140612.469                    20140614.715
                        39.300
 117731621.611 7  91738956.61644  22403587.844                    22403591.488
        44.800          25.700
                  86313532.932 5  20767373.070                    20767377.203
                        35.300
 121378596.565 8  94580775.39944  23097588.109                    23097592.027
        48.300          29.100
                  89942012.615 4  21670835.133                    21670835.234
                        27.400
                  84514240.458 5  20320184.820                    20320185.590
                        31.700
                  81219354.958 6  19548559.242                    19548560.098
                        37.400
                                  22288307.945

 119875008.244 7  93409135.36345  22811462.086                    22811465.711
        47.500          31.600
 125381971.837 7  97700238.65543  23859393.805                    23859395.898
        42.000          21.700
 111358033.230 7  86772487.24544  21190724.563                    21190730.875
        44.500          28.700
 117861776.108 7  91840356.81645  22428354.633                    22428357.414
        46.300          30.200
 119005292.396 7  92731488.96644  22645970.625                    22645977.605
        44.000          27.400
 18  3 13 12 38 39.0000000  0 15G10R17R07G11R15G15R06R24R16R23G17G19
                                G24G28G01
 116876358.949 7  91072606.55044  22240853.133                    22240859.230
        47.300          29.500
                  89548108.171 6  21515407.680                    21515408.508
                        39.400
                  83855807.311 6  20140675.758                    20140678.113
                        39.300
 117732274.786 7  91739465.57844  22403712.156                    22403715.250
        44.500          25.300
                  86316438.055 5  20768072.578                    20768075.953
                        35.600
 121382278.684 7  94583644.58144  23098289.156                    23098292.820
        47.700          28.900
                  89945281.944 4  21671622.281                    21671623.613
                        25.800
                  84514886.023 5  20320341.344                    20320340.418
                        31.900
                  81218360.604 6  19548319.648                    19548320.723
                        37.000
                                  22289100.867

 119872896.940 7  93407490.20245  22811060.023                    22811063.488
        47.600          31.500
 125378549.399 7  97697571.83843  23858743.539                    23858744.707
        42.600          21.700
 111356863.955 7  86771576.12644  21190502.148                    21190508.516
        44.300          29.000
 117864567.500 7  91842531.92645  22428885.625                    22428888.555
        45.900          30.500
 119004019.981 7  92730497.48544  22645728.375                    22645735.227
        43.900          28.000
 18  3 13 12 38 40.0000000  0 15G10R17R07G11R15G15R06R24R16R23G17G19
                                G24G28G01
 116877655.653 7  91073616.96044  22241099.992                    22241106.355
        47.200          29.400
                  89545698.226 6  21514828.336                    21514830.066
                        39.400
                  83856075.414 6  20140740.234                    20140742.465
                        39.200
 117732928.802 7  91739975.18144  22403836.555                    22403839.535
        44.800          24.900
                  86319343.646 5  20768771.391                    20768775.691
                        35.300
 121385961.214 8  94586514.09344  23098989.641                    23098993.102
        48.100          29.300
                  89948551.764 4  21672408.711                    21672410.816
                        25.500
                  84515532.436 5  20320495.188                    20320495.957
                        32.100
                  81217366.915 6  19548080.281                    19548081.781
                        37.000
                                  22289895.523

 119870786.149 8  93405845.43045  22810658.680                    22810661.980
        48.000          31.000
 125375127.298 7  97694905.26643  23858091.469                    23858093.309
        43.000          22.000
 111355695.388 7  86770665.55144  21190279.859                    21190285.938
        45.000          29.400
 117867359.370 7  91844707.41045  22429417.242                    22429419.922
        46.000          30.500
 119002748.289 7  92729506.56344  22645486.109                    22645493.629
        43.400          26.400
 18  3 13 12 38 41.0000000  0 15G10R17R07G11R15G15R06R24R16R23G17G19
                                G24G28G01
 116878953.161 7  91074628.00044  22241346.922                    22241352.953
        47.700          29.300
                  89543288.774 6  21514249.453                    21514251.559
                        39.800
                  83856344.344 6  20140805.086                    20140807.906
                        38.200
 117733583.642 7  91740485.44344  22403961.031                    22403964.117
        44.800          24.400
                  86322249.724 5  20769470.742                    20769474.172
                        35.100
 121389644.188 8  94589383.95144  23099690.578                    23099693.953
        48.500          29.000
                  89951822.051 4  21673197.641                    21673198.820
                        26.300
                  84516179.640 5  20320650.703                    20320651.723
                        32.100
                  81216373.876 6  19547840.664                    19547842.453
                        36.800
                                  22290687.086

 119868675.917 8  93404201.09345  22810257.484                    22810260.207
        48.200          31.900
 125371705.561 7  97692238.98043  23857440.625                    23857442.121
        43.200          21.800
 111354527.499 7  86769755.52044  21190057.758                    21190063.699
        44.500          28.000
 117870151.752 7  91846883.29645  22429948.688                    22429951.305
        46.300          30.800
 119001477.362 7  92728516.22044  22645244.539                    22645251.660
        42.800          26.500
 18  3 13 12 38 42.0000000  0 15G10R17R07G11R15G15R06R24R16R23G17G19
                                G24G28G01
 116880251.368 7  91075639.59244  22241593.750                    22241599.621
        46.400          29.400
                  89540879.859 6  21513671.211                    21513672.918
                        40.000
                  83856614.047 6  20140870.180                    20140872.457
                        38.900
 117734239.274 7  91740996.33344  22404085.859                    22404089.352
        44.500          25.500
                  86325156.270 5  20770170.336                    20770174.430
                        34.800
 121393327.581 8  94592254.12944  23100391.313                    23100394.969
        48.000          29.000
                  89955092.767 4  21673984.391                    21673986.379
                        25.600
                  84516827.654 5  20320807.375                    20320806.965
                        31.900
                  81215381.506 6  19547603.227                    19547603.734
                        37.500
                                  22291483.336

 119866566.187 8  93402557.15545  22809855.273                    22809858.879
        48.100          31.000
 125368284.182 7  97689572.96843  23856788.805                    23856791.348
        42.700          22.200
 111353360.326 7  86768846.04845  21189836.406                    21189841.734
        46.000          30.300
 117872944.576 7  91849059.52745  22430479.531                    22430482.621
        46.600          30.400
 119000207.106 7  92727526.40644  22645003.102                    22645009.781
        42.800          26.200
 18  3 13 12 38 43.0000000  0 15G10R17R07G11R15G15R06R24R16R23G17G19
                                G24G28G01
 116881550.288 7  91076651.74045  22241840.945                    22241847.422
        47.300          30.700
                  89538471.391 6  21513092.250                    21513093.723
                        39.600
                  83856884.445 6  20140934.813                    20140936.570
                        40.300
 117734895.677 7  91741507.80544  22404210.266                    22404213.813
        44.100          26.200
                  86328063.239 5  20770868.594                    20770873.402
                        34.800
 121397011.289 8  94595124.56344  23101092.719                    23101095.840
        48.200          28.200
                  89958363.869 4  21674773.258                    21674775.012
                        26.300
                  84517476.406 5  20320963.227                    20320963.660
                        32.000
                  81214389.769 6  19547364.102                    19547365.332
                        37.200
                                  22292275.203

 119864456.910 7  93400913.56545  22809454.250                    22809457.578
        47.900          31.800
 125364862.951 6  97686907.08143  23856137.977                    23856140.492
        41.700          22.000
 111352193.704 7  86767936.98445  21189614.305                    21189619.527
        45.900          30.000
 117875737.787 7  91851236.06245  22431011.273                    22431014.031
        47.000          30.500
 118998937.573 7  92726537.16444  22644761.258                    22644768.008
        42.300          28.500
 18  3 13 12 38 44.0000000  0 15G10R17R07G11R15G15R06R24R16R23G17G19
                                G24G28G01
 116882849.924 7  91077664.44045  22242088.344                    22242094.945
        47.300          30.200
                  89536063.464 6  21512513.281                    21512515.270
                        39.600
                  83857155.672 6  20141000.344                    20141002.461
                        39.100
 117735552.892 7  91742019.94943  22404335.820                    22404339.379
        43.400          22.800
                  86330970.643 5  20771568.969                    20771572.109
                        34.100
 121400695.452 7  94597995.33844  23101793.383                    23101796.574
        47.800          28.900
                  89961635.438 4  21675562.133                    21675562.473
                        27.800
                  84518125.979 5  20321118.813                    20321119.344
                        31.200
                  81213398.719 6  19547125.266                    19547126.563
                        37.200
                                  22293067.242

 119862348.160 8  93399270.39645  22809053.148                    22809056.457
        48.100          31.500
 125361442.224 6  97684241.56743  23855487.086                    23855488.918
        41.400          21.500
 111351027.797 7  86767028.48044  21189391.992                    21189397.559
        45.200          28.600
 117878531.490 7  91853412.99145  22431542.500                    22431546.043
        46.500          30.100
 118997668.708 7  92725548.40544  22644519.680                    22644526.797
        43.900          28.800
 18  3 13 12 38 45.0000000  0 15G10R17R07G11R15G15R06R24R16R23G17G19
                                G24G28G01
 116884150.353 8  91078677.76345  22242335.977                    22242342.496
        48.100          30.500
                  89533656.062 6  21511935.656                    21511936.574
                        39.500
                  83857427.745 6  20141065.695                    20141067.402
                        39.200
 117736211.005 7  91742532.79944  22404461.086                    22404464.113
        43.700          25.100
                  86333878.560 5  20772268.734                    20772272.418
                        34.900
 121404380.050 8  94600866.46244  23102494.313                    23102497.672
        48.000          28.700
                  89964907.449 4  21676351.195                    21676351.121
                        28.800
                  84518776.400 5  20321274.641                    20321275.938
                        31.600
                  81212408.314 6  19546886.336                    19546887.883
                        37.300
                                  22293860.766

 119860239.977 8  93397627.67245  22808651.578                    22808655.227
        48.500          32.600
 125358021.758 6  97681576.27043  23854836.477                    23854838.523
        41.300          21.100
 111349862.597 7  86766120.52845  21189170.352                    21189176.047
        45.600          30.200
 117881325.678 7  91855590.29345  22432074.406                    22432077.504
        46.400          30.200
 118996400.615 7  92724560.26944  22644278.484                    22644285.512
        42.900          28.700
 18  3 13 12 38 46.0000000  0 15G10R17R07G11R15G15R06R24R16R23G17G19
                                G24G28G01
 116885451.546 7  91079691.67744  22242583.305                    22242590.098
        47.300          28.700
                  89531249.159 6  21511357.023                    21511358.672
                        39.100
                  83857700.564 6  20141130.047                    20141133.145
                        38.300
 117736869.932 7  91743046.23344  22404586.633                    22404589.227
        44.100          26.000
                  86336786.931 5  20772967.797                    20772972.160
                        35.500
 121408065.083 8  94603737.93044  23103195.031                    23103199.023
        48.200          29.800
                  89968179.945 4  21677139.055                    21677139.398
                        27.900
                  84519427.598 5  20321431.633                    20321432.531
                        30.900
                  81211418.591 6  19546649.328                    19546650.148
                        37.200
                                  22294655.953

 119858132.327 8  93395985.35845  22808250.430                    22808254.027
        48.500          31.900
 125354601.671 6  97678911.26643  23854185.484                    23854187.332
        41.700          22.200
 111348698.076 7  86765213.09844  21188948.383                    21188954.594
        44.600          28.900
 117884120.371 7  91857767.97045  22432606.688                    22432609.281
        46.400          30.500
 118995133.228 7  92723572.68844  22644037.320                    22644044.141
        43.200          27.600
 18  3 13 12 38 47.0000000  0 15G10R17R07G11R15G15R06R24R16R23G17G19
                                G24G28G01
 116886753.460 7  91080706.15044  22242831.156                    22242837.559
        47.200          28.100
                  89528842.774 6  21510779.172                    21510780.605
                        39.500
                  83857974.146 6  20141196.352                    20141198.945
                        38.100
 117737529.682 7  91743560.29744  22404711.820                    22404715.289
        44.300          25.300
                  86339695.793 5  20773668.938                    20773671.809
                        35.500
 121411750.530 7  94606609.72244  23103896.336                    23103899.980
        47.700          29.300
                  89971452.842 4  21677928.211                    21677928.422
                        27.200
                  84520079.599 5  20321588.188                    20321589.215
                        30.400
                  81210429.483 6  19546410.336                    19546411.938
                        37.200
                                  22295448.680

 119856025.164 8  93394343.42645  22807849.586                    22807853.137
        48.400          31.000
 125351181.934 6  97676246.55343  23853534.703                    23853536.969
        40.900          21.700
 111347534.188 7  86764306.17444  21188726.813                    21188733.250
        43.900          28.800
 117886915.480 7  91859945.96245  22433138.391                    22433141.293
        46.400          30.500
 118993866.654 7  92722585.76844  22643796.242                    22643803.277
        43.100          26.800
 18  3 13 12 38 48.0000000  0 15G10R17R07G11R15G15R06R24R16R23G17G19
                                G24G28G01
 116888056.166 7  91081721.24944  22243078.992                    22243085.656
        47.300          29.000
                  89526436.938 6  21510200.453                    21510202.699
                        39.500
                  83858248.535 6  20141262.500                    20141264.953
                        38.300
 117738190.274 7  91744075.02244  22404837.492                    22404841.055
        43.400          25.200
                  86342605.148 5  20774368.383                    20774371.965
                        35.700
 121415436.425 7  94609481.84544  23104597.977                    23104601.371
        47.300          29.800
                  89974726.235 4  21678716.945                    21678716.957
                        27.400
                  84520732.420 5  20321745.500                    20321746.246
                        30.600
                  81209441.100 6  19546172.797                    19546173.453
                        37.300
                                  22296242.906

 119853918.565 8  93392701.92545  22807448.602                    22807452.051
        48.600          31.800
 125347762.525 6  97673582.09043  23852884.375                    23852886.367
        41.500          22.200
 111346371.061 7  86763399.84644  21188505.469                    21188511.688
        43.900          28.500
 117889711.120 7  91862124.37445  22433670.656                    22433673.543
        46.500          31.300
 118992600.754 7  92721599.34744  22643555.289                    22643562.582
        43.200          27.900
 18  3 13 12 38 49.0000000  0 15G10R17R07G11R15G15R06R24R16R23G17G19
                                G24G28G01
 116889359.597 7  91082736.90944  22243326.844                    22243333.531
        47.400          28.300
                  89524031.591 6  21509622.297                    21509624.297
                        38.900
                  83858523.688 6  20141328.867                    20141330.527
                        38.700
 117738851.671 7  91744590.39644  22404963.305                    22404966.793
        43.700          25.300
                  86345514.942 5  20775068.391                    20775072.328
                        35.200
 121419122.726 7  94612354.27444  23105299.258                    23105303.035
        46.400          29.500
                  89978000.065 4  21679505.422                    21679505.691
                        28.000
                  84521386.016 5  20321902.141                    20321903.734
                        30.300
                  81208453.377 6  19545935.445                    19545936.328
                        37.100
                                  22297037.789

 119851812.448 8  93391060.79945  22807047.813                    22807050.895
        48.300          31.200
 125344343.478 7  97670917.90543  23852234.219                    23852235.500
        42.700          22.500
 111345208.610 7  86762494.04644  21188284.969                    21188290.797
        44.100          29.000
 117892507.200 7  91864303.14445  22434202.352                    22434205.508
        47.000          30.900
 118991335.589 7  92720613.48944  22643315.016                    22643321.652
        43.700          27.600
 18  3 13 12 38 50.0000000  0 15G10R17R07G11R15G15R06R24R16R23G17G19
                                G24G28G01
 116890663.812 7  91083753.17644  22243575.461                    22243581.984
        47.700          29.300
                  89521626.771 6  21509045.055                    21509046.492
                        39.200
                  83858799.650 6  20141394.617                    20141397.215
                        39.100
 117739513.893 7  91745106.43244  22405089.242                    22405092.695
        43.900          25.300
                  86348425.214 5  20775769.023                    20775772.359
                        35.900
 121422809.469 7  94615227.05744  23106000.680                    23106004.531
        46.100          28.800
                  89981274.362 4  21680294.750                    21680294.836
                        28.200
                  84522040.445 5  20322060.219                    20322061.191
                        30.800
                  81207466.307 6  19545697.211                    19545698.418
                        37.400
                                  22297832.586

 119849706.890 8  93389420.10445  22806647.258                    22806650.609
        48.600          31.400
 125340924.829 7  97668254.01643  23851583.633                    23851585.293
        42.800          22.200
 111344046.853 7  86761588.79844  21188064.133                    21188069.223
        44.600          29.400
 117895303.777 7  91866482.29345  22434734.586                    22434737.492
        47.000          30.800
 118990071.142 7  92719628.19344  22643074.203                    22643080.922
        43.800          28.700
 18  3 13 12 38 51.0000000  0 15G10R17R07G11R15G15R06R24R16R23G17G19
                                G24G28G01
 116891968.739 7  91084769.99844  22243823.547                    22243830.402
        47.700          27.900
                  89519222.468 6  21508467.313                    21508468.828
                        39.500
                  83859076.389 6  20141461.352                    20141462.984
                        38.900
 117740176.953 7  91745623.12644  22405215.625                    22405219.098
        43.600          24.700
                  86351335.939 5  20776469.867                    20776472.859
                        35.400
 121426496.638 7  94618100.16344  23106702.742                    23106706.719
        46.200          29.700
                  89984549.114 4  21681083.008                    21681083.930
                        26.700
                  84522695.674 5  20322216.930                    20322218.492
                        31.400
                  81206479.896 6  19545459.484                    19545460.969
                        37.000
                                  22298626.813

 119847601.848 8  93387779.81045  22806246.891                    22806249.961
        48.500          31.400
 125337506.481 6  97665590.35443  23850932.227                    23850935.070
        41.900          22.000
 111342885.781 7  86760684.07044  21187842.906                    21187848.207
        45.100          29.600
 117898100.795 7  91868661.79344  22435266.313                    22435269.789
        47.100          29.800
 118988807.447 7  92718643.49144  22642833.336                    22642840.512
        43.700          27.200
 18  3 13 12 38 52.0000000  0 15G10R17R07G11R15G15R06R24R16R23G17G19
                                G24G28G01
 116893274.391 7  91085787.37344  22244072.227                    22244078.477
        47.300          28.100
                  89516818.679 6  21507889.352                    21507890.793
                        39.300
                  83859353.910 6  20141528.180                    20141529.926
                        39.300
 117740840.809 7  91746140.42444  22405342.273                    22405345.125
        44.100          25.600
                  86354247.119 5  20777169.563                    20777173.414
                        35.600
 121430184.201 7  94620973.57644  23107404.688                    23107408.363
        46.200          29.100
                  89987824.293 4  21681871.359                    21681873.465
                        27.500
                  84523351.705 5  20322374.828                    20322375.906
                        31.200
                  81205494.142 6  19545222.820                    19545223.566
                        37.100
                                  22299420.727

 119845497.322 8  93386139.91845  22805846.133                    22805849.961
        48.800          31.400
 125334088.430 6  97662926.92643  23850281.414                    23850284.230
        41.700          22.500
 111341725.365 7  86759779.83745  21187622.820                    21187627.863
        46.000          30.000
 117900898.306 7  91870841.67345  22435799.148                    22435802.016
        47.200          31.300
 118987544.458 7  92717659.34044  22642593.469                    22642600.645
        43.500          27.400
 18  3 13 12 38 53.0000000  0 15G10R17R07G11R15G15R06R24R16R23G17G19
                                G24G28G01
 116894580.790 7  91086805.32544  22244320.352                    22244327.395
        46.800          26.800
                  89514415.374 6  21507312.398                    21507314.031
                        39.400
                  83859632.190 6  20141595.047                    20141597.227
                        39.100
 117741505.462 7  91746658.32244  22405468.109                    22405471.832
        44.400          24.400
                  86357158.791 5  20777869.461                    20777873.797
                        35.400
 121433872.178 7  94623847.31344  23108106.641                    23108110.395
        46.500          29.100
                  89991099.917 4  21682661.047                    21682662.711
                        25.700
                  84524008.534 5  20322533.891                    20322534.238
                        31.900
                  81204509.050 6  19544985.523                    19544986.223
                        37.500
                                  22300215.750

 119843393.297 8  93384500.42145  22805445.828                    22805449.316
        48.500          31.500
 125330670.728 6  97660263.78943  23849631.539                    23849634.168
        40.900          22.500
 111340565.604 7  86758876.11544  21187401.625                    21187406.945
        46.500          29.800
 117903696.256 7  91873021.89644  22436331.727                    22436334.723
        47.200          29.900
 118986282.194 7  92716675.76544  22642353.016                    22642360.027
        42.700          26.100
 18  3 13 12 38 54.0000000  0 15G10R17R07G11R15G15R06R24R16R23G17G19
                                G24G28G01
 116895887.957 7  91087823.88044  22244569.273                    22244575.574
        46.400          28.300
                  89512012.574 6  21506735.461                    21506736.492
                        39.300
                  83859911.246 6  20141662.008                    20141664.109
                        38.900
 117742170.934 7  91747176.87044  22405595.633                    22405598.375
        44.500          25.300
                  86360070.902 5  20778570.977                    20778574.426
                        35.200
 121437560.565 7  94626721.35944  23108808.961                    23108812.082
        47.000          29.400
                  89994375.942 4  21683450.508                    21683452.246
                        25.900
                  84524666.146 5  20322691.398                    20322692.238
                        31.600
                  81203524.602 6  19544748.070                    19544749.676
                        38.100
                                  22301009.313

 119841289.797 8  93382861.33445  22805045.430                    22805048.746
        48.200          31.400
 125327253.371 6  97657600.92743  23848981.125                    23848983.645
        40.900          22.000
 111339406.515 7  86757972.91745  21187180.867                    21187186.461
        46.000          30.000
 117906494.680 7  91875202.48845  22436864.219                    22436866.934
        47.800          31.200
 118985020.654 7  92715692.75144  22642113.211                    22642120.059
        42.900          27.200
 18  3 13 12 38 55.0000000  0 15G10R17R07G11R15G15R06R24R16R23G17G19
                                G24G28G01
 116897195.896 7  91088843.03644  22244818.156                    22244824.703
        46.200          27.600
                  89509610.326 6  21506156.914                    21506159.051
                        39.100
                  83860191.121 6  20141729.078                    20141731.164
                        38.600
 117742837.254 7  91747696.07344  22405722.031                    22405725.063
        44.700          24.800
                  86362983.491 5  20779271.016                    20779275.270
                        35.900
 121441249.405 7  94629595.76645  23109510.875                    23109514.094
        47.300          30.100
                  89997652.475 4  21684239.141                    21684241.180
                        27.000
                  84525324.614 5  20322849.031                    20322850.309
                        31.400
                  81202540.837 6  19544511.609                    19544512.734
                        38.200
                                  22301805.102

 119839186.856 8  93381222.68445  22804645.352                    22804648.566
        48.800          31.900
 125323836.436 6  97654938.38643  23848331.469                    23848333.859
        41.300          22.200
 111338248.134 7  86757070.27645  21186960.242                    21186966.191
        46.400          31.400
 117909293.583 7  91877383.45045  22437396.938                    22437399.680
        47.900          30.400
 118983759.894 7  92714710.35444  22641872.930                    22641880.445
        43.400          26.900
 18  3 13 12 38 56.0000000  0 15G10R17R07G11R15G15R06R24R16R23G17G19
                                G24G28G01
 116898504.563 7  91089862.77144  22245067.586                    22245073.813
        46.100          27.400
                  89507208.607 6  21505581.016                    21505582.055
                        39.200
                  83860471.764 6  20141796.844                    20141798.984
                        38.600
 117743504.395 7  91748215.92444  22405848.242                    22405852.012
        44.200          25.000
                  86365896.549 5  20779972.156                    20779976.102
                        35.300
 121444938.626 8  94632470.47444  23110213.078                    23110216.648
        48.200          29.800
                  90000929.383 4  21685028.945                    21685030.453
                        26.000
                  84525983.836 5  20323008.445                    20323009.465
                        30.800
                  81201557.755 6  19544275.523                    19544276.293
                        37.700
                                  22302599.453

 119837084.422 8  93379584.42945  22804245.438                    22804248.523
        48.600          31.900
 125320419.747 6  97652276.03143  23847680.406                    23847683.273
        40.900          22.600
 111337090.430 7  86756168.15845  21186739.820                    21186745.813
        46.100          31.000
 117912092.966 7  91879564.79345  22437929.398                    22437932.730
        47.700          30.200
 118982499.813 7  92713728.47944  22641632.805                    22641640.375
        42.500          27.700
 18  3 13 12 38 57.0000000  0 15G10R17R07G11R15G15R06R24R16R23G17G19
                                G24G28G01
 116899814.050 7  91090883.15244  22245316.383                    22245323.273
        45.900          27.100
                  89504807.427 6  21505003.508                    21505005.434
                        39.600
                  83860753.226 6  20141863.758                    20141866.641
                        38.700
 117744172.393 7  91748736.43344  22405975.867                    22405979.023
        44.400          25.400
                  86368810.098 5  20780672.352                    20780677.027
                        35.600
 121448628.305 8  94635345.55145  23110915.133                    23110918.602
        48.600          30.800
                  90004206.796 4  21685817.977                    21685820.789
                        26.000
                  84526643.912 5  20323166.719                    20323167.516
                        31.600
                  81200575.326 6  19544037.977                    19544039.934
                        38.100
                                  22303395.211

 119834982.534 8  93377946.59445  22803845.305                    22803848.609
        48.400          32.600
 125317003.467 6  97649613.98943  23847030.500                    23847033.059
        41.300          22.300
 111335933.442 7  86755266.60645  21186519.695                    21186525.973
        45.100          30.700
 117914892.844 8  91881746.52145  22438462.141                    22438465.355
        48.000          30.800
 118981240.506 7  92712747.22244  22641393.602                    22641400.543
        43.000          28.100
 18  3 13 12 38 58.0000000  0 15G10R17R07G11R15G15R06R24R16R23G17G19
                                G24G28G01
 116901124.241 7  91091904.09344  22245565.844                    22245572.512
        45.400          26.700
                  89502406.678 6  21504427.297                    21504428.059
                        39.100
                  83861035.462 6  20141931.719                    20141933.484
                        38.900
 117744841.171 7  91749257.56544  22406103.414                    22406106.664
        44.100          25.900
                  86371724.087 5  20781373.445                    20781377.656
                        35.900
 121452318.361 8  94638220.92444  23111617.211                    23111620.910
        48.700          29.700
                  90007484.638 3  21686608.445                    21686609.832
                        23.600
                  84527304.750 5  20323326.281                    20323327.160
                        31.600
                  81199593.499 6  19543802.109                    19543803.781
                        37.900
                                  22304190.688

 119832881.141 8  93376309.14745  22803445.359                    22803448.715
        48.600          31.700
 125313587.467 7  97646952.17943  23846381.438                    23846383.086
        42.000          22.000
 111334777.093 7  86754365.56745  21186299.227                    21186305.617
        45.200          31.300
 117917693.160 7  91883928.58845  22438995.086                    22438997.859
        47.300          30.000
 118979981.845 7  92711766.43844  22641153.938                    22641160.949
        42.600          26.700
 18  3 13 12 38 59.0000000  0 15G10R17R07G11R15G15R06R24R16R23G17G19
                                G24G28G01
 116902435.068 7  91092925.53244  22245815.156                    22245822.059
        45.900          27.200
                  89500006.360 6  21503849.695                    21503851.164
                        39.200
                  83861318.385 6  20141999.695                    20142002.309
                        38.600
 117745510.656 7  91749779.25144  22406230.383                    22406234.051
        43.700          24.900
                  86374638.419 5  20782075.922                    20782079.059
                        35.400
 121456008.726 8  94641096.53844  23112319.594                    23112323.461
        48.600          28.900
                  90010762.869 4  21687399.430                    21687399.660
                        25.600
                  84527966.325 5  20323484.438                    20323485.563
                        31.800
                  81198612.267 6  19543567.313                    19543567.516
                        37.600
                                  22304986.180

 119830780.154 8  93374672.01645  22803045.289                    22803048.883
        48.900          31.600
 125310171.746 7  97644290.57643  23845730.766                    23845733.445
        42.300          22.300
 111333621.304 7  86753464.97745  21186079.430                    21186085.176
        45.800          31.200
 117920493.829 7  91886110.92745  22439527.914                    22439531.113
        47.000          30.200
 118978723.843 7  92710786.18244  22640915.047                    22640921.730
        43.600          28.900
 18  3 13 12 39  0.0000000  0 15G10R17R07G11R15G15R06R24R16R23G17G19
                                G24G28G01
 116903746.729 7  91093947.62744  22246064.797                    22246071.699
        46.400          27.300
                  89497606.645 6  21503273.813                    21503275.086
                        39.500
                  83861602.193 6  20142068.328                    20142070.969
                        38.900
 117746181.069 7  91750301.65544  22406358.148                    22406361.832
        43.600          24.400
                  86377553.302 5  20782776.289                    20782780.844
                        34.700
 121459699.604 8  94643972.55044  23113021.922                    23113025.121
        48.400          29.500
                  90014041.630 3  21688189.039                    21688189.742
                        22.500
                  84528628.773 5  20323644.781                    20323645.137
                        31.900
                  81197631.771 6  19543330.016                    19543331.594
                        37.200
                                  22305780.305

 119828679.776 8  93373035.35445  22802645.688                    22802649.578
        48.000          31.400
 125306756.447 6  97641629.29043  23845080.633                    23845083.465
        41.700          22.800
 111332466.333 7  86752565.01045  21185860.008                    21185865.719
        45.600          30.400
 117923295.058 7  91888293.69745  22440061.148                    22440064.113
        47.100          30.000
 118977466.630 7  92709806.51944  22640675.586                    22640682.656
        43.300          28.100
 18  3 13 12 39  1.0000000  0 15G10R17R07G11R15G15R06R24R16R23G17G19
                                G24G28G01
 116905059.151 7  91094970.31844  22246314.836                    22246321.383
        46.800          28.400
                  89495207.489 6  21502697.203                    21502698.664
                        39.700
                  83861886.770 6  20142135.789                    20142138.625
                        39.100
 117746852.298 7  91750824.69244  22406486.133                    22406489.281
        43.800          25.400
                  86380468.662 5  20783477.859                    20783482.457
                        35.300
 121463390.905 7  94646848.89844  23113723.516                    23113727.973
        47.800          28.000
                  90017320.854 4  21688979.453                    21688979.770
                        25.300
                  84529292.039 5  20323803.586                    20323804.391
                        31.300
                  81196651.934 6  19543093.500                    19543095.867
                        37.600
                                  22306575.906

 119826579.950 7  93371399.12145  22802246.039                    22802249.629
        47.800          30.800
 125303341.497 6  97638968.26643  23844430.344                    23844433.438
        40.800          22.500
 111331312.013 7  86751665.55245  21185640.797                    21185646.473
        45.500          31.100
 117926096.770 7  91890476.85544  22440594.508                    22440597.473
        47.000          29.900
 118976210.197 7  92708827.47444  22640436.867                    22640443.625
        44.000          27.900
 18  3 13 12 39  2.0000000  0 15G10R17R07G11R15G15R06R24R16R23G17G19
                                G24G28G01
 116906372.349 8  91095993.57945  22246564.492                    22246571.090
        48.000          30.200
                  89492808.818 6  21502119.938                    21502122.527
                        39.800
                  83862172.055 6  20142204.625                    20142207.172
                        37.300
 117747524.353 7  91751348.37844  22406613.930                    22406617.273
        44.500          24.800
                  86383384.498 5  20784179.680                    20784183.977
                        35.300
 121467082.618 8  94649725.57844  23114426.094                    23114430.188
        48.000          28.700
                  90020600.479 4  21689769.789                    21689770.180
                        28.200
                  84529956.081 5  20323962.523                    20323964.109
                        30.500
                  81195672.774 5  19542860.023                    19542859.969
                        35.900
                                  22307370.281

 119824480.625 8  93369763.28245  22801847.141                    22801850.379
        48.100          31.100
 125299926.868 6  97636307.53443  23843780.609                    23843783.531
        40.200          22.500
 111330158.392 7  86750766.62244  21185421.133                    21185426.781
        44.100          28.900
 117928898.897 7  91892660.33444  22441127.523                    22441130.352
        45.500          28.500
 118974954.435 7  92707848.95244  22640197.313                    22640204.539
        43.200          27.700
 18  3 13 12 39  3.0000000  0 15G10R17R07G11R15G15R06R24R16R23G17G19
                                G24G28G01
 116907686.153 7  91097017.29743  22246814.813                    22246821.102
        44.500          22.200
                  89490410.632 6  21501544.680                    21501546.063
                        40.000
                  83862458.284 6  20142274.023                    20142276.203
                        36.000
 117748197.216 7  91751872.68544  22406741.766                    22406745.176
        45.400          26.400
                  86386300.782 5  20784883.063                    20784885.711
                        34.700
 121470774.745 7  94652602.56744  23115128.773                    23115132.699
        47.900          27.600
                  90023880.579 5  21690559.859                    21690561.023
                        30.300
                  84530620.949 5  20324122.898                    20324124.223
                        31.200
                  81194694.313 6  19542623.367                    19542624.383
                        36.800
                                  22308165.891

 119822381.862 8  93368127.87145  22801446.953                    22801450.910
        48.100          30.900
 125296512.578 6  97633647.06843  23843131.102                    23843133.797
        40.500          22.200
 111329005.448 8  86749868.20645  21185201.742                    21185207.156
        48.100          34.700
 117931701.519 7  91894844.19944  22441661.063                    22441663.586
        46.000          29.500
 118973699.403 7  92706871.00544  22639958.602                    22639965.500
        42.200          25.600
 18  3 13 12 39  4.0000000  0 15G10R17R07G11R15G15R06R24R16R23G17G19
                                G24G28G01
 116909000.755 7  91098041.61643  22247064.844                    22247070.980
        45.900          21.800
                  89488012.937 6  21500968.289                    21500970.285
                        40.200
                  83862745.147 6  20142342.492                    20142345.008
                        37.100
 117748870.847 7  91752397.58044  22406869.758                    22406873.258
        43.900          25.700
                  86389217.453 5  20785583.711                    20785587.203
                        35.100
 121474467.236 7  94655479.82744  23115830.805                    23115835.215
        47.300          26.900
                  90027160.985 4  21691349.484                    21691351.242
                        28.500
                  84531286.555 5  20324283.109                    20324283.859
                        31.200
                  81193716.396 5  19542387.195                    19542389.230
                        35.900
                                  22308961.313

 119820283.533 7  93366492.79745  22801047.656                    22801051.500
        46.900          30.200
 125293098.586 6  97630986.82243  23842481.680                    23842484.270
        40.800          22.900
 111327853.095 7  86748970.21645  21184982.133                    21184987.855
        47.900          33.200
 117934504.577 7  91897028.41345  22442194.156                    22442197.008
        46.100          30.100
 118972445.076 6  92705893.61744  22639719.523                    22639727.082
        41.800          26.900
 18  3 13 12 39  5.0000000  0 15G10R17R07G11R15G15R06R24R16R23G17G19
                                G24G28G01
 116910316.117 7  91099066.56443  22247315.133                    22247321.457
        45.200          22.800
                  89485615.740 6  21500391.766                    21500394.523
                        40.300
                  83863032.854 6  20142411.172                    20142413.789
                        37.700
 117749545.306 7  91752923.12044  22406998.531                    22407002.164
        46.100          26.600
                  86392134.624 5  20786284.828                    20786289.434
                        35.300
 121478160.172 7  94658357.43844  23116533.633                    23116538.156
        47.300          28.700
                  90030441.876 4  21692139.195                    21692141.453
                        27.900
                  84531952.988 5  20324442.539                    20324443.813
                        31.700
                  81192739.138 6  19542152.641                    19542153.793
                        36.800
                                  22309757.492

 119818185.711 7  93364858.12845  22800649.031                    22800652.309
        47.200          30.400
 125289684.903 6  97628326.80743  23841831.797                    23841834.719
        40.400          21.800
 111326701.447 7  86748072.80645  21184762.953                    21184768.438
        47.500          33.500
 117937308.088 7  91899212.97544  22442727.117                    22442730.715
        45.600          29.700
 118971191.433 6  92704916.74744  22639481.313                    22639488.801
        41.400          27.300
 18  3 13 12 39  6.0000000  0 15G10R17R07G11R15G15R06R24R16R23G17G19
                                G24G28G01
 116911632.204 7  91100092.09543  22247565.969                    22247571.848
        43.600          21.700
                  89483219.095 6  21499816.781                    21499818.852
                        40.200
                  83863321.296 6  20142480.555                    20142482.598
                        37.600
 117750220.583 7  91753449.30444  22407126.531                    22407130.344
        46.100          25.800
                  86395052.264 5  20786986.688                    20786990.938
                        35.400
 121481853.486 7  94661235.33244  23117236.383                    23117240.586
        47.300          28.100
                  90033723.216 4  21692931.711                    21692932.004
                        29.900
                  84532620.233 5  20324603.477                    20324604.590
                        31.700
                  81191762.592 6  19541917.586                    19541918.734
                        37.300
                                  22310554.859

 119816088.465 7  93363223.92145  22800249.758                    22800253.313
        46.800          30.500
 125286271.622 6  97625667.09743  23841182.758                    23841184.973
        41.800          21.700
 111325550.479 7  86747175.93945  21184543.859                    21184549.867
        47.300          34.900
 117940112.077 7  91901397.89845  22443260.953                    22443264.148
        46.000          30.500
 118969938.554 6  92703940.48644  22639242.578                    22639250.320
        41.700          26.500
 18  3 13 12 39  7.0000000  0 15G10R17R07G11R15G15R06R24R16R23G17G19
                                G24G28G01
 116912949.097 7  91101118.23743  22247815.930                    22247822.270
        44.900          21.500
                  89480822.951 6  21499240.875                    21499243.211
                        40.100
                  83863610.514 6  20142550.602                    20142552.254
                        38.300
 117750896.673 7  91753976.13144  22407255.945                    22407258.945
        45.500          27.100
                  86397970.373 5  20787689.406                    20787693.328
                        35.500
 121485547.301 7  94664113.62844  23117939.320                    23117943.258
        47.200          27.900
                  90037005.023 4  21693720.992                    21693723.199
                        29.500
                  84533288.268 5  20324764.813                    20324765.191
                        31.400
                  81190786.695 6  19541682.633                    19541683.973
                        37.300
                                  22311350.289

 119813991.678 7  93361590.06345  22799850.742                    22799854.297
        47.000          30.300
 125282858.688 6  97623007.68843  23840533.617                    23840535.672
        41.400          22.800
 111324400.182 7  86746279.61745  21184325.133                    21184330.879
        47.000          33.200
 117942916.547 7  91903583.18745  22443794.797                    22443797.676
        45.400          30.400
 118968686.457 7  92702964.83944  22639004.523                    22639012.086
        42.200          27.500
 18  3 13 12 39  8.0000000  0 14G10R17R07G11R15G15R06R24R16G17G19G24
                                G28G01
 116914266.703 8  91102144.97444  22248066.859                    22248073.215
        48.100          28.700
                  89478427.298 6  21498665.141                    21498666.637
                        40.100
                  83863900.478 6  20142619.625                    20142622.227
                        38.600
 117751573.604 7  91754503.61944  22407384.516                    22407387.641
        45.700          26.300
                  86400888.929 5  20788390.930                    20788395.473
                        35.200
 121489241.483 7  94666992.21144  23118642.570                    23118646.445
        47.000          27.700
                  90040287.293 4  21694511.688                    21694513.816
                        28.500
                  84533957.146 5  20324925.281                    20324926.020
                        30.800
                  81189811.513 6  19541448.164                    19541449.012
                        36.700
 119811895.440 8  93359956.65445  22799451.922                    22799455.156
        48.300          31.500
 125279446.074 6  97620348.53443  23839884.055                    23839886.078
        41.000          20.900
 111323250.554 7  86745383.84044  21184106.469                    21184112.609
        45.100          29.400
 117945721.436 7  91905768.80644  22444328.797                    22444331.996
        45.500          29.100
 118967435.025 6  92701989.70544  22638766.414                    22638773.828
        41.500          26.000
 18  3 13 12 39  9.0000000  0 14G10R17R07G11R15G15R06R24R16G17G19G24
                                G28G01
 116915585.091 7  91103172.31444  22248317.523                    22248323.629
        47.800          28.700
                  89476032.202 6  21498090.297                    21498092.320
                        39.600
                  83864191.335 6  20142690.141                    20142692.047
                        38.900
 117752251.383 7  91755031.77044  22407512.938                    22407516.492
        45.800          26.100
                  86403807.999 5  20789093.211                    20789097.469
                        34.600
 121492936.126 7  94669871.16044  23119345.750                    23119348.969
        46.800          29.000
                  90043570.108 4  21695303.727                    21695304.895
                        27.000
                  84534626.835 5  20325086.789                    20325086.980
                        30.600
                  81188836.988 6  19541213.484                    19541214.852
                        36.600
 119809799.779 8  93358323.68445  22799053.641                    22799056.273
        48.800          31.900
 125276033.863 6  97617689.67443  23839234.727                    23839236.539
        40.600          21.300
 111322101.672 7  86744488.64344  21183887.805                    21183893.875
        44.800          27.700
 117948526.855 7  91907954.85344  22444862.414                    22444865.434
        46.100          29.700
 118966184.345 6  92701015.15344  22638528.203                    22638535.664
        41.800          26.200
 18  3 13 12 39 10.0000000  0 14G10R17R07G11R15G15R06R24R16G17G19G24
                                G28G01
 116916904.218 7  91104200.23544  22248568.727                    22248575.277
        47.200          28.300
                  89473637.675 6  21497515.086                    21497516.852
                        39.400
                  83864482.967 6  20142759.570                    20142762.281
                        39.200
 117752929.976 7  91755560.54944  22407642.008                    22407645.934
        45.800          24.700
                  86406727.561 5  20789796.336                    20789800.195
                        35.200
 121496631.225 7  94672750.46545  23120049.109                    23120052.180
        47.100          30.400
                  90046853.345 4  21696095.469                    21696095.813
                        28.900
                  84535297.328 5  20325247.867                    20325248.672
                        30.600
                  81187863.126 6  19540979.039                    19540980.484
                        37.000
 119807704.639 8  93356691.10545  22798654.367                    22798657.785
        48.700          31.100
 125272621.986 6  97615031.05243  23838584.789                    23838587.504
        40.600          20.400
 111320953.489 7  86743593.97444  21183669.625                    21183675.355
        45.200          28.400
 117951332.768 7  91910141.28144  22445396.555                    22445399.730
        46.100          29.600
 118964934.443 6  92700041.20244  22638290.398                    22638297.770
        41.600          26.200
 18  3 13 12 39 11.0000000  0 14G10R17R07G11R15G15R06R24R16G17G19G24
                                G28G01
 116918223.973 7  91105228.61344  22248820.133                    22248826.289
        47.000          28.300
                  89471243.593 6  21496939.250                    21496941.012
                        39.700
                  83864775.284 6  20142830.398                    20142832.742
                        39.300
 117753609.302 7  91756089.89644  22407771.633                    22407775.270
        45.700          25.400
                  86409647.458 5  20790499.344                    20790502.688
                        35.200
 121500326.604 7  94675629.96844  23120752.594                    23120755.934
        47.200          28.900
                  90050136.936 4  21696886.758                    21696887.254
                        27.000
                  84535968.537 5  20325408.359                    20325409.270
                        30.500
                  81186889.828 6  19540744.328                    19540745.934
                        37.300
 119805609.919 8  93355058.86145  22798255.508                    22798259.063
        48.700          31.500
 125269210.360 6  97612372.62743  23837936.133                    23837937.938
        41.700          20.900
 111319805.859 7  86742699.72444  21183450.930                    21183456.715
        45.500          28.600
 117954139.018 7  91912327.97145  22445930.484                    22445933.629
        46.700          30.200
 118963685.129 7  92699067.71344  22638052.883                    22638060.031
        43.100          28.500
 18  3 13 12 39 12.0000000  0 14G10R17R07G11R15G15R06R24R16G17G19G24
                                G28G01
 116919544.471 7  91106257.57044  22249071.320                    22249077.148
        45.700          26.400
                  89468849.988 6  21496364.586                    21496365.680
                        39.600
                  83865068.361 6  20142900.227                    20142902.480
                        40.400
 117754289.419 7  91756619.85444  22407901.266                    22407904.313
        45.200          24.800
                  86412567.840 5  20791202.211                    20791205.621
                        35.200
 121504022.352 7  94678509.75244  23121456.055                    23121459.055
        47.200          27.800
                  90053420.919 4  21697678.688                    21697678.293
                        26.300
                  84536640.535 5  20325569.906                    20325571.047
                        30.700
                  81185917.195 6  19540511.016                    19540512.016
                        38.300
 119803515.713 8  93353427.01645  22797857.281                    22797860.594
        48.700          31.400
 125265799.069 6  97609714.46743  23837286.227                    23837289.141
        41.500          21.700
 111318658.920 7  86741806.00145  21183232.281                    21183238.555
        46.600          31.500
 117956945.744 7  91914515.03545  22446464.727                    22446467.566
        47.400          30.900
 118962436.531 7  92698094.77444  22637815.813                    22637822.672
        42.900          27.200
 18  3 13 12 39 13.0000000  0 14G10R17R07G11R15G15R06R24R16G17G19G24
                                G28G01
 116920865.744 7  91107287.12644  22249323.102                    22249328.992
        47.600          28.400
                  89466456.903 6  21495789.383                    21495790.965
                        39.700
                  83865362.229 6  20142971.086                    20142973.828
                        39.700
 117754970.377 7  91757150.46144  22408030.313                    22408033.816
        44.500          25.600
                  86415488.728 5  20791903.516                    20791908.180
                        35.800
 121507718.580 8  94681389.91444  23122159.453                    23122162.348
        48.300          29.400
                  90056705.376 4  21698469.508                    21698469.762
                        26.600
                  84537313.361 5  20325732.047                    20325732.438
                        31.200
                  81184945.218 6  19540277.438                    19540278.203
                        37.900
 119801422.067 8  93351795.61545  22797459.203                    22797462.020
        49.100          32.500
 125262388.087 6  97607056.54543  23836637.250                    23836640.141
        41.100          21.300
 111317512.712 7  86740912.83845  21183014.500                    21183019.918
        47.100          31.400
 117959752.953 7  91916702.46845  22446998.672                    22447002.129
        47.300          31.200
 118961188.674 7  92697122.42644  22637577.781                    22637585.359
        43.000          28.300
 18  3 13 12 39 14.0000000  0 14G10R17R07G11R15G15R06R24R16G17G19G24
                                G28G01
 116922187.739 7  91108317.22544  22249573.891                    22249580.613
        47.800          28.700
                  89464064.282 6  21495214.797                    21495216.582
                        39.800
                  83865656.871 6  20143041.844                    20143044.418
                        39.100
 117755652.138 7  91757681.69144  22408160.648                    22408163.496
        45.100          25.500
                  86418410.019 5  20792607.359                    20792610.934
                        35.000
 121511415.166 8  94684270.37145  23122862.727                    23122866.090
        48.300          30.600
                  90059990.255 4  21699260.109                    21699260.590
                        26.100
                  84537986.970 5  20325893.367                    20325894.977
                        31.200
                  81183973.881 6  19540042.883                    19540044.180
                        37.600
 119799328.904 8  93350164.57445  22797060.492                    22797064.199
        49.100          32.900
 125258977.481 6  97604398.93643  23835988.680                    23835991.039
        40.200          20.900
 111316367.086 7  86740020.13744  21182796.414                    21182802.059
        46.200          29.800
 117962560.616 7  91918890.25245  22447533.109                    22447536.055
        46.800          30.700
 118959941.540 7  92696150.63844  22637340.797                    22637348.203
        43.500          28.200
 18  3 13 12 39 15.0000000  0 14G10R17R07G11R15G15R06R24R16G17G19G24
                                G28G01
 116923510.460 7  91109347.89744  22249825.695                    22249832.227
        47.400          29.400
                  89461672.190 6  21494639.469                    21494641.750
                        39.900
                  83865952.303 6  20143112.859                    20143115.813
                        38.900
 117756334.702 7  91758213.54044  22408290.469                    22408293.836
        45.000          25.900
                  86421331.756 5  20793309.938                    20793314.133
                        35.300
 121515112.135 7  94687151.13644  23123566.063                    23123569.488
        47.500          29.600
                  90063275.600 4  21700051.203                    21700051.945
                        28.000
                  84538661.374 5  20326055.961                    20326057.469
                        31.600
                  81183003.198 6  19539808.680                    19539810.730
                        36.900
 119797236.226 8  93348533.91445  22796662.563                    22796665.586
        49.600          31.800
 125255567.159 6  97601741.54743  23835340.117                    23835342.426
        39.600          21.500
 111315222.153 7  86739127.97344  21182578.367                    21182583.922
        44.900          29.500
 117965368.708 7  91921078.37545  22448067.773                    22448070.516
        46.700          30.100
 118958695.110 7  92695179.40344  22637103.594                    22637110.566
        43.100          27.300
 18  3 13 12 39 16.0000000  0 14G10R17R07G11R15G15R06R24R16G17G19G24
                                G28G01
 116924833.921 7  91110379.17144  22250077.570                    22250083.852
        47.700          29.300
                  89459280.613 6  21494065.156                    21494066.395
                        39.900
                  83866248.510 6  20143183.617                    20143186.477
                        39.200
 117757018.063 7  91758746.04244  22408419.992                    22408423.551
        44.700          26.000
                  86424253.993 6  20794013.313                    20794017.371
                        36.000
 121518809.537 8  94690032.23444  23124269.438                    23124273.375
        48.000          28.900
                  90066561.338 4  21700842.938                    21700844.148
                        28.500
                  84539336.576 5  20326218.289                    20326219.328
                        31.400
                  81182033.195 6  19539575.734                    19539577.434
                        37.000
 119795144.120 8  93346903.70845  22796264.523                    22796267.473
        49.400          32.300
 125252157.156 6  97599084.43043  23834690.797                    23834692.992
        39.300          21.100
 111314077.912 7  86738236.35944  21182360.742                    21182366.563
        45.300          29.600
 117968177.271 7  91923266.86745  22448601.883                    22448604.871
        47.500          30.600
 118957449.379 7  92694208.69844  22636866.148                    22636873.449
        43.200          28.100
 18  3 13 12 39 17.0000000  0 14G10R17R07G11R15G15R06R24R16G17G19G24
                                G28G01
 116926158.087 7  91111410.98444  22250329.430                    22250336.074
        47.600          28.700
                  89456889.557 6  21493491.344                    21493492.309
                        40.000
                  83866545.462 6  20143255.375                    20143257.910
                        39.100
 117757702.244 7  91759279.17244  22408550.328                    22408553.484
        44.400          25.300
                  86427176.684 5  20794715.727                    20794720.129
                        35.800
 121522507.355 7  94692913.65944  23124973.188                    23124977.043
        47.900          29.600
                  90069847.555 4  21701635.563                    21701635.699
                        27.500
                  84540012.568 5  20326381.109                    20326381.594
                        31.800
                  81181063.839 6  19539342.883                    19539344.020
                        36.800
 119793052.502 8  93345273.88545  22795866.273                    22795869.711
        48.600          31.900
 125248747.530 6  97596427.59643  23834042.242                    23834044.367
        39.700          21.800
 111312934.326 7  86737345.24544  21182142.664                    21182149.117
        44.700          29.600
 117970986.302 7  91925455.73045  22449136.828                    22449139.480
        46.700          30.200
 118956204.383 7  92693238.56844  22636629.102                    22636636.434
        43.400          28.600
 18  3 13 12 39 18.0000000  0 14G10R17R07G11R15G15R06R24R16G17G19G24
                                G28G01
 116927483.018 7  91112443.39144  22250581.734                    22250588.363
        47.800          29.600
                  89454499.015 6  21492916.469                    21492918.316
                        39.800
                  83866843.218 6  20143326.781                    20143329.320
                        39.600
 117758387.271 7  91759812.95344  22408680.867                    22408684.285
        43.600          25.700
                  86430099.837 6  20795419.820                    20795423.688
                        36.000
 121526205.580 8  94695795.39144  23125676.969                    23125680.941
        48.000          29.100
                  90073134.182 4  21702427.133                    21702427.105
                        27.300
                  84540689.358 5  20326544.070                    20326544.832
                        32.000
                  81180095.154 6  19539109.672                    19539110.629
                        37.100
 119790961.430 8  93343644.47645  22795468.211                    22795471.488
        48.900          32.600
 125245338.273 6  97593771.04143  23833393.664                    23833395.172
        40.000          21.700
 111311791.435 7  86736454.68245  21181925.469                    21181931.355
        45.000          30.400
 117973795.810 7  91927644.96345  22449671.297                    22449674.109
        46.700          30.600
 118954960.109 7  92692269.00944  22636393.070                    22636399.754
        43.000          27.600
 18  3 13 12 39 19.0000000  0 14G10R17R07G11R15G15R06R24R16G17G19G24
                                G28G01
 116928808.685 7  91113476.36344  22250834.047                    22250840.516
        47.700          29.700
                  89452108.948 6  21492342.070                    21492343.664
                        39.500
                  83867141.741 6  20143398.414                    20143400.949
                        39.600
 117759073.062 7  91760347.33544  22408810.836                    22408814.844
        42.800          26.100
                  86433023.400 5  20796123.656                    20796127.219
                        35.700
 121529904.194 7  94698677.43244  23126380.797                    23126384.852
        47.300          28.900
                  90076421.272 4  21703219.125                    21703219.445
                        27.200
                  84541366.944 5  20326707.398                    20326707.730
                        31.800
                  81179127.104 6  19538876.398                    19538877.832
                        37.400
 119788870.850 8  93342015.45945  22795070.820                    22795074.039
        49.100          32.800
 125241929.325 6  97591114.73243  23832744.969                    23832747.063
        41.400          22.600
 111310649.161 7  86735564.60444  21181707.844                    21181713.992
        45.100          29.600
 117976605.730 7  91929834.51345  22450205.461                    22450208.758
        46.200          31.200
 118953716.568 7  92691300.01544  22636156.000                    22636163.605
        43.100          28.600
 18  3 13 12 39 20.0000000  0 14G10R17R07G11R15G15R06R24R16G17G19G24
                                G28G01
 116930135.078 7  91114509.91444  22251086.430                    22251093.227
        47.300          28.100
                  89449719.411 6  21491768.313                    21491769.309
                        39.800
                  83867441.040 6  20143470.047                    20143472.695
                        39.800
 117759759.701 7  91760882.37144  22408942.328                    22408945.488
        43.400          24.900
                  86435947.440 5  20796825.836                    20796830.746
                        35.900
 121533603.220 7  94701559.79944  23127084.836                    23127088.371
        47.400          28.700
                  90079708.752 4  21704011.148                    21704011.352
                        29.100
                  84542045.299 5  20326870.008                    20326870.289
                        31.800
                  81178159.715 6  19538644.313                    19538644.621
                        37.200
 119786780.786 8  93340386.83545  22794673.070                    22794676.316
        49.800          33.500
 125238520.708 6  97588458.65543  23832096.352                    23832098.449
        41.800          21.800
 111309507.573 7  86734675.06944  21181490.898                    21181496.898
        45.000          29.900
 117979416.138 7  91932024.44345  22450740.258                    22450743.695
        46.800          30.300
 118952473.716 7  92690331.54744  22635919.531                    22635926.867
        43.600          27.200
 18  3 13 12 39 21.0000000  0 15G10R17R07G11R15G15R06R24R16R23G17G19
                                G24G28G01
 116931462.234 7  91115544.06944  22251338.836                    22251345.547
        46.600          26.700
                  89447330.382 6  21491194.180                    21491196.098
                        39.800
                  83867741.137 6  20143542.641                    20143544.578
                        39.400
 117760447.136 7  91761418.03244  22409073.203                    22409076.070
        43.700          25.000
                  86438871.941 5  20797530.484                    20797534.371
                        35.800
 121537302.669 7  94704442.48644  23127788.656                    23127792.508
        47.800          28.700
                  90082996.707 4  21704804.320                    21704803.824
                        28.200
                  84542724.464 5  20327033.383                    20327033.672
                        31.400
                  81177192.982 6  19538411.141                    19538412.191
                        37.800
                                  22322505.750

 119784691.234 8  93338758.61345  22794275.078                    22794278.816
        49.600          33.200
 125235112.401 6  97585802.83443  23831447.570                    23831449.582
        41.900          22.200
 111308366.654 7  86733786.05644  21181273.992                    21181279.680
        45.700          29.600
 117982226.982 7  91934214.70745  22451275.391                    22451278.344
        47.000          30.700
 118951231.586 7  92689363.65044  22635683.078                    22635690.383
        44.400          29.000
 18  3 13 12 39 22.0000000  0 15G10R17R07G11R15G15R06R24R16R23G17G19
                                G24G28G01
 116932790.123 7  91116578.80144  22251591.797                    22251598.801
        46.300          27.900
                  89444941.850 6  21490620.086                    21490621.855
                        39.300
                  83868042.021 6  20143614.875                    20143616.707
                        39.500
 117761135.362 7  91761954.31243  22409204.117                    22409207.281
        44.300          22.900
                  86441796.876 6  20798234.719                    20798238.078
                        36.000
 121541002.513 7  94707325.47444  23128492.586                    23128496.543
        47.600          27.300
                  90086285.086 4  21705596.469                    21705595.922
                        29.700
                  84543404.428 5  20327197.320                    20327197.426
                        30.900
                  81176226.890 6  19538177.898                    19538179.641
                        37.800
                                  22323303.297

 119782602.171 8  93337130.76745  22793877.586                    22793880.676
        49.400          32.400
 125231704.462 6  97583147.29743  23830798.734                    23830801.195
        41.800          22.300
 111307226.444 7  86732897.57944  21181056.766                    21181062.414
        46.400          29.900
 117985038.278 7  91936405.32845  22451810.773                    22451813.250
        47.500          30.700
 118949990.151 7  92688396.30844  22635446.875                    22635454.047
        44.100          27.100
 18  3 13 12 39 23.0000000  0 15G10R17R07G11R15G15R06R24R16R23G17G19
                                G24G28G01
 116934118.698 7  91117614.06344  22251844.688                    22251851.012
        46.100          27.100
                  89442553.812 6  21490045.992                    21490048.133
                        39.600
                  83868343.623 6  20143686.789                    20143689.344
                        39.400
 117761824.394 7  91762491.21944  22409335.313                    22409338.297
        44.100          25.300
                  86444722.220 5  20798938.859                    20798942.297
                        35.700
 121544702.707 7  94710208.74244  23129196.773                    23129200.766
        46.900          26.700
                  90089573.905 4  21706388.867                    21706388.207
                        28.900
                  84544085.159 5  20327360.008                    20327360.965
                        30.600
                  81175261.435 6  19537945.992                    19537946.633
                        37.400
                                  22324101.586

 119780513.630 8  93335503.33745  22793480.430                    22793483.270
        49.500          32.800
 125228296.822 6  97580491.98643  23830150.125                    23830153.008
        41.400          22.200
 111306086.965 7  86732009.68445  21180840.453                    21180845.898
        46.700          30.000
 117987850.002 7  91938596.28245  22452345.914                    22452348.637
        47.700          30.400
 118948749.434 7  92687429.52944  22635210.789                    22635218.020
        44.700          28.500
 18  3 13 12 39 24.0000000  0 15G10R17R07G11R15G15R06R24R16R23G17G19
                                G24G28G01
 116935448.092 7  91118649.96444  22252097.633                    22252104.090
        46.500          25.200
                  89440166.310 6  21489472.953                    21489474.539
                        39.600
                  83868646.034 6  20143759.594                    20143761.691
                        39.800
 117762514.236 7  91763028.75843  22409465.820                    22409469.648
        43.600          23.900
                  86447648.063 5  20799641.820                    20799646.379
                        35.800
 121548403.347 7  94713092.36144  23129900.805                    23129904.879
        47.100          28.000
                  90092863.128 4  21707181.398                    21707180.191
                        29.000
                  84544766.715 5  20327524.938                    20327524.813
                        31.200
                  81174296.694 6  19537714.352                    19537714.535
                        37.800
                                  22324900.039

 119778425.596 8  93333876.30545  22793083.063                    22793086.641
        49.200          33.000
 125224889.510 6  97577836.93043  23829501.156                    23829504.379
        41.000          21.700
 111304947.992 7  86731122.16145  21180623.648                    21180629.137
        47.300          30.200
 117990662.201 7  91940787.61044  22452881.055                    22452883.477
        47.800          29.900
 118947509.425 7  92686463.28444  22634975.102                    22634982.211
        43.600          27.200
 18  3 13 12 39 25.0000000  0 15G10R17R07G11R15G15R06R24R16R23G17G19
                                G24G28G01
 116936778.127 7  91119686.33644  22252350.734                    22252357.176
        46.700          27.400
                  89437779.268 6  21488899.539                    21488900.438
                        40.000
                  83868949.171 6  20143832.305                    20143834.773
                        39.200
 117763204.827 7  91763566.88744  22409597.156                    22409601.055
        43.600          24.900
                  86450574.314 5  20800345.820                    20800350.199
                        35.400
 121552104.343 7  94715976.26644  23130604.977                    23130608.898
        47.200          28.900
                  90096152.766 4  21707974.109                    21707973.504
                        29.600
                  84545449.012 5  20327688.250                    20327688.313
                        30.900
                  81173332.540 6  19537481.758                    19537483.195
                        37.800
                                  22325698.008

 119776338.048 8  93332249.65345  22792685.508                    22792688.941
        49.300          32.900
 125221482.491 6  97575182.10043  23828853.773                    23828856.086
        40.900          21.500
 111303809.749 7  86730235.21945  21180406.898                    21180412.359
        47.500          31.400
 117993474.787 7  91942979.23244  22453415.969                    22453418.551
        47.700          29.900
 118946270.131 7  92685497.58644  22634739.453                    22634746.301
        43.700          28.000
 18  3 13 12 39 26.0000000  0 15G10R17R07G11R15G15R06R24R16R23G17G19
                                G24G28G01
 116938108.923 7  91120723.31344  22252603.969                    22252610.336
        46.300          26.900
                  89435392.742 6  21488325.875                    21488327.105
                        39.800
                  83869253.118 6  20143905.547                    20143907.883
                        39.600
 117763896.271 7  91764105.67244  22409729.023                    22409732.430
        43.600          24.300
                  86453501.037 5  20801050.797                    20801054.125
                        35.800
 121555805.791 7  94718860.50744  23131309.375                    23131313.152
        47.300          27.400
                  90099442.850 5  21708766.438                    21708766.621
                        30.100
                  84546132.134 5  20327852.953                    20327852.965
                        31.800
                  81172369.063 6  19537250.141                    19537251.180
                        37.900
                                  22326496.688

 119774251.023 8  93330623.40345  22792288.672                    22792291.957
        49.600          33.000
 125218075.846 6  97572527.56843  23828205.070                    23828207.813
        41.300          22.000
 111302672.185 7  86729348.79945  21180190.719                    21180196.098
        47.300          31.000
 117996287.853 7  91945171.23145  22453950.828                    22453953.922
        47.700          30.000
 118945031.539 7  92684532.43844  22634503.539                    22634510.484
        43.600          27.100
 18  3 13 12 39 27.0000000  0 15G10R17R07G11R15G15R06R24R16R23G17G19
                                G24G28G01
 116939440.401 7  91121760.82844  22252857.563                    22252863.672
        46.400          26.900
                  89433006.722 6  21487752.336                    21487753.918
                        39.700
                  83869557.790 6  20143978.617                    20143981.027
                        39.100
 117764588.475 7  91764645.04244  22409860.953                    22409864.293
        43.100          25.300
                  86456428.169 5  20801753.625                    20801758.742
                        35.500
 121559507.554 7  94721744.99844  23132013.742                    23132017.867
        47.600          28.200
                  90102733.304 4  21709559.633                    21709559.227
                        29.700
                  84546816.001 5  20328017.047                    20328017.543
                        31.400
                  81171406.190 6  19537018.180                    19537019.602
                        37.400
                                  22327294.211

 119772164.469 8  93328997.52145  22791891.586                    22791894.652
        49.500          32.400
 125214669.468 6  97569873.24543  23827557.203                    23827559.613
        41.100          22.200
 111301535.223 7  86728462.85545  21179973.547                    21179979.563
        46.300          30.500
 117999101.339 7  91947363.56344  22454486.414                    22454489.691
        47.300          29.600
 118943793.642 7  92683567.84544  22634267.586                    22634275.266
        43.400          28.600
 18  3 13 12 39 28.0000000  0 15G10R17R07G11R15G15R06R24R16R23G17G19
                                G24G28G01
 116940772.627 7  91122798.91444  22253110.742                    22253116.918
        46.600          27.000
                  89430621.216 6  21487179.242                    21487181.004
                        39.300
                  83869863.295 6  20144052.008                    20144054.441
                        38.900
 117765281.505 7  91765185.04744  22409992.867                    22409996.602
        43.100          24.800
                  86459355.814 5  20802458.367                    20802462.844
                        35.300
 121563209.771 7  94724629.83144  23132718.469                    23132722.105
        47.600          28.100
                  90106024.215 4  21710351.336                    21710351.688
                        29.200
                  84547500.681 5  20328181.922                    20328182.297
                        31.700
                  81170443.987 6  19536786.469                    19536787.816
                        37.800
                                  22328092.906

 119770078.437 8  93327372.03945  22791494.234                    22791497.863
        49.400          32.000
 125211263.455 6  97567219.22743  23826908.773                    23826911.711
        41.100          21.700
 111300398.954 7  86727577.44845  21179757.305                    21179763.426
        45.600          31.500
 118001915.292 7  91949556.25145  22455021.938                    22455024.887
        47.300          30.400
 118942556.445 7  92682603.80944  22634032.180                    22634039.621
        43.100          28.100
 18  3 13 12 39 29.0000000  0 15G10R17R07G11R15G15R06R24R16R23G17G19
                                G24G28G01
 116942105.613 7  91123837.59644  22253364.406                    22253370.637
        46.100          28.000
                  89428236.202 6  21486607.109                    21486607.613
                        39.400
                  83870169.560 6  20144124.953                    20144127.777
                        38.600
 117765975.342 7  91765725.69944  22410124.633                    22410128.438
        43.100          25.700
                  86462283.899 5  20803162.406                    20803167.559
                        35.400
 121566912.384 7  94727514.97744  23133423.109                    23133426.980
        47.300          27.900
                  90109315.579 4  21711144.125                    21711145.156
                        28.500
                  84548186.157 5  20328346.453                    20328347.141
                        31.000
                  81169482.449 6  19536554.867                    19536556.414
                        37.600
                                  22328891.273

 119767992.942 8  93325746.98345  22791097.344                    22791100.621
        49.500          32.500
 125207857.759 6  97564565.44043  23826260.531                    23826263.289
        41.100          21.800
 111299263.333 7  86726692.55545  21179541.234                    21179547.355
        45.800          30.900
 118004729.698 7  91951749.28644  22455557.641                    22455560.297
        47.300          29.800
 118941319.980 7  92681640.32244  22633797.344                    22633804.129
        43.500          28.400
 18  3 13 12 39 30.0000000  0 15G10R17R07G11R15G15R06R24R16R23G17G19
                                G24G28G01
 116943439.360 7  91124876.87444  22253618.070                    22253624.477
        46.000          26.700
                  89425851.754 6  21486033.531                    21486035.160
                        39.400
                  83870476.613 6  20144199.180                    20144201.543
                        38.800
 117766670.022 7  91766267.01344  22410257.086                    22410260.648
        43.100          24.000
                  86465212.478 5  20803867.883                    20803871.633
                        35.800
 121570615.450 7  94730400.47644  23134127.523                    23134131.707
        47.500          28.500
                  90112607.419 4  21711937.008                    21711938.230
                        29.200
                  84548872.476 5  20328511.336                    20328512.035
                        30.900
                  81168521.608 6  19536324.211                    19536325.289
                        37.900
                                  22329689.539

 119765907.982 8  93324122.34345  22790701.188                    22790704.418
        49.600          32.600
 125204452.470 6  97561911.98143  23825613.266                    23825615.383
        41.800          21.500
 111298128.429 7  86725808.22245  21179325.336                    21179331.145
        46.400          31.400
 118007544.615 7  91953942.72145  22456093.500                    22456096.297
        46.900          30.500
 118940084.263 7  92680677.42344  22633562.031                    22633569.063
        43.500          27.000
 18  3 13 12 39 31.0000000  0 15G10R17R07G11R15G15R06R24R16R23G17G19
                                G24G28G01
 116944773.840 7  91125916.72444  22253872.516                    22253878.359
        46.100          27.100
                  89423467.783 6  21485460.586                    21485461.883
                        39.100
                  83870784.399 6  20144273.055                    20144276.285
                        38.900
 117767365.511 7  91766808.95243  22410389.078                    22410392.820
        42.400          23.800
                  86468141.486 6  20804572.758                    20804576.703
                        36.000
 121574318.910 7  94733286.27944  23134832.023                    23134836.555
        47.600          28.800
                  90115899.693 4  21712731.023                    21712731.492
                        27.000
                  84549559.562 5  20328676.273                    20328677.414
                        30.900
                  81167561.440 6  19536092.875                    19536093.695
                        37.900
                                  22330487.938

 119763823.521 8  93322498.09345  22790304.000                    22790307.676
        49.500          32.500
 125201047.485 6  97559258.73943  23824965.063                    23824967.449
        41.700          22.000
 111296994.149 7  86724924.37245  21179110.133                    21179115.512
        46.000          31.000
 118010359.952 7  91956136.48845  22456629.266                    22456631.883
        47.300          30.200
 118938849.311 7  92679715.11244  22633326.906                    22633334.020
        44.500          29.100
 18  3 13 12 39 32.0000000  0 15G10R17R07G11R15G15R06R24R16R23G17G19
                                G24G28G01
 116946109.030 7  91126957.13844  22254126.531                    22254132.770
        45.500          26.900
                  89421084.355 6  21484888.563                    21484889.488
                        39.400
                  83871092.943 6  20144347.234                    20144350.078
                        39.100
 117768061.812 7  91767351.51344  22410521.508                    22410525.473
        43.600          25.700
                  86471070.979 5  20805277.055                    20805282.105
                        35.500
 121578022.768 7  94736172.39244  23135537.250                    23135541.203
        47.500          29.100
                  90119192.372 4  21713523.641                    21713525.008
                        26.100
                  84550247.444 4  20328841.961                    20328842.863
                        29.900
                  81166601.896 6  19535861.039                    19535863.016
                        38.100
                                  22331284.500

 119761739.595 8  93320874.25445  22789907.648                    22789910.629
        48.600          31.900
 125197642.862 6  97556605.79843  23824317.172                    23824319.484
        41.600          21.700
 111295860.563 7  86724041.05845  21178894.461                    21178899.867
        46.900          31.200
 118013175.762 7  91958330.62645  22457165.039                    22457167.605
        47.200          30.400
 118937615.022 7  92678753.33544  22633091.953                    22633099.344
        43.800          26.200
 18  3 13 12 39 33.0000000  0 15G10R17R07G11R15G15R06R24R16R23G17G19
                                G24G28G01
 116947444.900 7  91127998.07944  22254380.492                    22254386.871
        45.000          25.900
                  89418701.360 6  21484315.539                    21484317.668
                        39.200
                  83871402.242 6  20144421.180                    20144423.828
                        39.600
 117768758.837 7  91767894.63444  22410654.273                    22410657.852
        42.700          24.600
                  86474000.816 5  20805982.234                    20805986.281
                        35.600
 121581726.948 7  94739058.75244  23136242.008                    23136245.777
        47.000          29.100
                  90122485.451 4  21714317.414                    21714318.348
                        26.300
                  84550936.074 5  20329008.313                    20329008.195
                        31.200
                  81165642.944 6  19535630.898                    19535632.031
                        37.900
                                  22332083.375

 119759656.092 8  93319250.74645  22789511.117                    22789514.395
        48.400          31.900
 125194238.485 6  97553953.04343  23823668.922                    23823671.137
        41.600          21.500
 111294727.572 7  86723158.20645  21178678.891                    21178684.227
        46.400          31.400
 118015991.920 7  91960525.03745  22457700.734                    22457703.613
        47.000          30.000
 118936381.411 7  92677792.09044  22632857.352                    22632864.879
        43.700          27.100
 18  3 13 12 39 34.0000000  0 15G10R17R07G11R15G15R06R24R16R23G17G19
                                G24G28G01
 116948781.534 7  91129039.61144  22254634.688                    22254641.379
        45.100          24.900
                  89416318.894 6  21483743.391                    21483744.535
                        39.400
                  83871712.366 6  20144496.070                    20144498.332
                        39.400
 117769456.685 7  91768438.40344  22410787.438                    22410790.641
        43.100          24.400
                  86476931.130 5  20806688.352                    20806692.074
                        34.700
 121585431.556 7  94741945.45344  23136947.023                    23136951.246
        46.800          29.100
                  90125778.962 4  21715110.695                    21715112.094
                        25.000
                  84551625.507 5  20329173.852                    20329174.008
                        31.700
                  81164684.668 6  19535400.680                    19535401.703
                        37.700
                                  22332883.555

 119757573.121 8  93317627.65545  22789114.930                    22789118.434
        48.800          32.300
 125190834.447 7  97551300.54243  23823021.484                    23823023.723
        42.000          22.500
 111293595.290 7  86722275.89845  21178463.742                    21178468.930
        47.200          31.000
 118018808.584 7  91962719.84644  22458236.602                    22458239.508
        46.700          29.900
 118935148.532 7  92676831.40544  22632622.594                    22632629.625
        43.400          27.900
 18  3 13 12 39 35.0000000  0 15G10R17R07G11R15G15R06R24R16R23G17G19
                                G24G28G01
 116950118.893 7  91130081.71344  22254889.477                    22254895.961
        45.300          24.800
                  89413936.911 6  21483171.164                    21483172.578
                        39.300
                  83872023.280 6  20144570.992                    20144573.113
                        39.200
 117770155.354 7  91768982.84243  22410920.398                    22410923.508
        43.400          23.400
                  86479861.874 5  20807393.102                    20807396.883
                        35.300
 121589136.553 7  94744832.46644  23137652.094                    23137656.270
        45.900          28.200
                  90129072.900 4  21715905.313                    21715905.480
                        24.500
                  84552315.729 5  20329339.188                    20329340.152
                        31.800
                  81163727.018 6  19535169.852                    19535170.805
                        37.800
                                  22333680.141

 119755490.647 8  93316004.94945  22788718.320                    22788722.070
        48.900          32.100
 125187430.733 7  97548648.28643  23822373.844                    23822376.020
        42.300          22.300
 111292463.686 7  86721394.11245  21178247.984                    21178253.746
        46.400          30.900
 118021625.674 7  91964914.98344  22458772.188                    22458775.672
        46.600          29.300
 118933916.344 7  92675871.24544  22632388.398                    22632395.078
        43.200          28.900
 18  3 13 12 39 36.0000000  0 15G10R17R07G11R15G15R06R24R16R23G17G19
                                G24G28G01
 116951456.959 7  91131124.36444  22255144.086                    22255150.852
        45.700          27.300
                  89411555.414 6  21482598.227                    21482600.078
                        39.600
                  83872334.933 6  20144646.242                    20144648.473
                        38.700
 117770854.809 7  91769527.87344  22411053.375                    22411056.609
        43.700          24.700
                  86482793.074 5  20808097.477                    20808102.137
                        35.600
 121592841.916 7  94747719.76344  23138357.734                    23138361.133
        46.900          29.600
                  90132367.266 4  21716700.336                    21716699.223
                        24.300
                  84553006.734 5  20329504.891                    20329506.348
                        31.100
                  81162770.015 6  19534938.859                    19534940.520
                        38.300
                                  22334481.070

 119753408.678 8  93314382.63645  22788322.156                    22788325.754
        48.600          32.100
 125184027.398 7  97545996.33643  23821726.633                    23821728.520
        42.400          22.000
 111291332.722 7  86720512.83445  21178032.203                    21178038.340
        45.400          31.200
 118024443.196 7  91967110.45245  22459308.773                    22459311.926
        46.700          30.000
 118932684.865 7  92674911.64844  22632153.914                    22632161.273
        43.400          28.000
 18  3 13 12 39 37.0000000  0 15G10R17R07G11R15G15R06R24R16R23G17G19
                                G24G28G01
 116952795.848 7  91132167.64644  22255398.945                    22255405.445
        45.700          26.300
                  89409174.491 6  21482026.719                    21482028.391
                        39.900
                  83872647.351 6  20144720.961                    20144723.711
                        38.500
 117771555.105 7  91770073.55144  22411186.734                    22411189.992
        44.900          24.800
                  86485724.759 5  20808803.016                    20808806.965
                        35.000
 121596547.703 7  94750607.38844  23139063.164                    23139066.105
        47.300          29.100
                  90135662.116 4  21717493.891                    21717493.297
                        29.800
                  84553698.566 5  20329670.734                    20329672.125
                        31.700
                  81161813.719 6  19534709.813                    19534710.289
                        38.000
                                  22335280.813

 119751327.270 8  93312760.75745  22787926.008                    22787929.566
        49.300          32.600
 125180624.355 6  97543344.62443  23821078.914                    23821081.043
        41.700          22.600
 111290202.524 7  86719632.16545  21177816.813                    21177823.313
        43.800          31.200
 118027261.203 7  91969306.29145  22459845.172                    22459848.211
        46.000          30.200
 118931454.119 7  92673952.65544  22631919.242                    22631926.902
        43.600          27.100
 18  3 13 12 39 38.0000000  0 15G10R17R07G11R15G15R06R24R16R23G17G19
                                G24G28G01
 116954135.347 7  91133211.40644  22255653.719                    22255660.348
        46.400          26.800
                  89406793.993 6  21481454.445                    21481456.133
                        39.500
                  83872960.471 6  20144795.813                    20144798.684
                        38.000
 117772256.087 7  91770619.77144  22411320.156                    22411323.027
        44.300          25.400
                  86488656.801 5  20809508.992                    20809512.730
                        35.100
 121600253.825 7  94753495.27544  23139768.445                    23139771.156
        47.600          29.800
                  90138957.285 4  21718287.422                    21718287.160
                        29.700
                  84554391.106 5  20329838.453                    20329839.180
                        31.200
                  81160857.983 6  19534478.891                    19534480.176
                        37.800
                                  22336079.602

 119749246.266 8  93311139.18945  22787530.633                    22787533.590
        49.200          32.100
 125177221.565 7  97540693.09643  23820430.961                    23820433.602
        42.400          22.500
 111289072.770 7  86718751.84745  21177601.953                    21177608.242
        43.400          31.200
 118030079.580 7  91971502.41144  22460381.516                    22460384.352
        45.900          29.300
 118930223.990 7  92672994.14744  22631685.156                    22631692.715
        43.300          26.800
 18  3 13 12 39 39.0000000  0 15G10R17R07G11R15G15R06R24R16R23G17G19
                                G24G28G01
 116955475.507 7  91134255.69144  22255908.672                    22255915.270
        47.300          28.000
                  89404413.992 6  21480883.188                    21480884.426
                        39.400
                  83873274.342 6  20144871.258                    20144873.746
                        39.200
 117772957.903 7  91771166.63844  22411453.781                    22411456.910
        43.800          24.800
                  86491589.318 5  20810214.578                    20810218.523
                        35.400
 121603960.348 7  94756383.47944  23140473.758                    23140476.492
        47.800          28.900
                  90142252.893 4  21719081.289                    21719081.465
                        27.000
                  84555084.429 5  20330004.789                    20330005.828
                        31.400
                  81159902.896 6  19534249.023                    19534250.418
                        37.600
                                  22336880.313

 119747165.775 8  93309518.02845  22787134.063                    22787137.895
        49.100          31.900
 125173819.100 6  97538041.81943  23819783.234                    23819786.074
        41.600          22.300
 111287943.683 7  86717872.05145  21177387.484                    21177393.480
        43.800          30.000
 118032898.377 7  91973698.87844  22460918.070                    22460920.996
        46.300          29.300
 118928994.588 7  92672036.18344  22631451.648                    22631458.938
        44.000          27.900
 18  3 13 12 39 40.0000000  0 15G10R17R07G11R15G15R06R24R16R23G17G19
                                G24G28G01
 116956816.477 7  91135300.62244  22256163.977                    22256170.258
        47.200          27.600
                  89402034.483 6  21480311.234                    21480312.891
                        39.700
                  83873588.996 6  20144946.688                    20144949.645
                        39.300
 117773660.537 7  91771714.13144  22411586.859                    22411590.195
        43.900          25.300
                  86494522.270 5  20810919.141                    20810924.730
                        35.300
 121607667.252 8  94759271.97544  23141178.891                    23141181.938
        48.400          29.500
                  90145548.931 4  21719874.813                    21719875.500
                        26.300
                  84555778.540 5  20330171.680                    20330172.539
                        31.000
                  81158948.466 6  19534019.477                    19534020.512
                        37.600
                                  22337678.555

 119745085.805 8  93307897.28145  22786738.641                    22786741.820
        49.500          32.300
 125170417.002 6  97535390.84643  23819135.898                    23819138.332
        41.600          22.500
 111286815.348 7  86716992.84945  21177173.578                    21177178.887
        44.600          30.500
 118035717.641 7  91975895.71344  22461454.094                    22461457.336
        46.400          29.400
 118927765.916 7  92671078.78144  22631217.727                    22631225.148
        43.800          28.300
 18  3 13 12 39 41.0000000  0 15G10R17R07G11R15G15R06R24R16R23G17G19
                                G24G28G01
 116958158.174 7  91136346.11644  22256419.539                    22256425.645
        47.000          27.000
                  89399655.514 6  21479739.656                    21479741.000
                        39.800
                  83873904.447 6  20145022.109                    20145025.000
                        38.900
 117774364.009 7  91772262.28944  22411720.969                    22411724.340
        42.500          25.000
                  86497455.712 5  20811625.594                    20811629.621
                        35.500
 121611374.566 8  94762160.79844  23141884.375                    23141887.547
        49.100          27.500
                  90148845.432 4  21720669.766                    21720669.418
                        25.700
                  84556473.486 5  20330338.563                    20330339.457
                        31.500
                  81157994.695 6  19533789.805                    19533791.492
                        37.500
                                  22338479.102

 119743006.349 8  93306276.92545  22786343.117                    22786346.223
        48.900          32.100
 125167015.252 7  97532740.12943  23818489.086                    23818491.059
        42.400          22.200
 111285687.656 7  86716114.13445  21176959.039                    21176963.941
        45.500          30.900
 118038537.380 7  91978092.92044  22461990.766                    22461994.207
        46.000          29.200
 118926537.994 7  92670121.94944  22630984.727                    22630991.395
        44.300          28.800
 18  3 13 12 39 42.0000000  0 14G10R17R07G11R15G15R06R24R16G17G19G24
                                G28G01
 116959500.537 7  91137392.11644  22256674.727                    22256681.359
        46.800          26.100
                  89397277.010 6  21479168.250                    21479169.289
                        39.800
                  83874220.666 6  20145098.266                    20145101.000
                        39.300
 117775068.207 7  91772811.03144  22411855.055                    22411858.406
        42.600          26.400
                  86500389.557 5  20812332.742                    20812335.840
                        35.300
 121615082.239 8  94765049.89444  23142590.039                    23142593.027
        48.300          29.200
                  90152142.326 4  21721463.625                    21721463.816
                        26.300
                  84557169.171 5  20330506.430                    20330507.082
                        31.800
                  81157041.510 6  19533560.234                    19533562.023
                        37.800
 119740927.374 8  93304656.95145  22785946.953                    22785950.629
        48.000          31.800
 125163613.746 7  97530089.62043  23817842.063                    23817844.227
        42.400          21.700
 111284560.589 7  86715235.90145  21176744.633                    21176749.543
        45.600          31.800
 118041357.530 7  91980290.44044  22462527.383                    22462530.449
        46.300          29.700
 118925310.681 7  92669165.57944  22630750.547                    22630757.219
        43.700          28.600
 18  3 13 12 39 43.0000000  0 14G10R17R07G11R15G15R06R24R16G17G19G24
                                G28G01
 116960843.715 7  91138438.75844  22256930.094                    22256936.914
        46.300          27.100
                  89394899.066 6  21478597.094                    21478598.039
                        39.900
                  83874537.639 6  20145174.586                    20145177.340
                        39.200
 117775773.244 7  91773360.42044  22411989.453                    22411992.684
        42.300          24.300
                  86503323.878 5  20813037.859                    20813041.738
                        35.200
 121618790.361 8  94767939.33944  23143295.320                    23143298.359
        48.200          28.800
                  90155439.690 4  21722257.625                    21722258.254
                        28.300
                  84557865.674 5  20330674.547                    20330674.789
                        31.200
                  81156089.036 6  19533331.516                    19533332.125
                        37.700
 119738848.968 7  93303037.42045  22785551.703                    22785555.332
        47.800          31.600
 125160212.655 7  97527439.42543  23817194.469                    23817196.727
        42.500          22.800
 111283434.252 7  86714358.22145  21176530.047                    21176535.082
        45.300          31.900
 118044178.173 7  91982488.34345  22463064.453                    22463067.398
        46.400          30.100
 118924084.167 7  92668209.85644  22630516.656                    22630524.586
        43.700          28.900
 18  3 13 12 39 44.0000000  0 14G10R17R07G11R15G15R06R24R16G17G19G24
                                G28G01
 116962187.611 7  91139485.96344  22257186.555                    22257192.621
        45.600          26.000
                  89392521.620 6  21478025.703                    21478027.160
                        39.400
                  83874855.407 6  20145251.266                    20145253.523
                        38.100
 117776479.104 7  91773910.43244  22412124.031                    22412126.898
        43.600          25.300
                  86506258.677 5  20813743.234                    20813748.379
                        35.500
 121622498.860 7  94770829.08744  23144000.953                    23144004.273
        47.900          27.500
                  90158737.464 4  21723052.805                    21723053.270
                        28.700
                  84558562.967 5  20330841.477                    20330842.281
                        31.300
                  81155137.189 6  19533102.352                    19533103.418
                        37.300
 119736771.061 8  93301418.27545  22785156.180                    22785159.781
        48.100          31.700
 125156811.922 7  97524789.48643  23816547.820                    23816549.535
        42.600          22.800
 111282308.608 7  86713481.08445  21176315.555                    21176321.000
        45.900          33.100
 118046999.257 7  91984686.58144  22463601.289                    22463604.340
        46.400          29.300
 118922858.349 7  92667254.69044  22630283.781                    22630291.273
        43.300          29.100
 18  3 13 12 39 45.0000000  0 15G10R17R07G11R15G15R06R24R16R23G17G19
                                G24G28G01
 116963532.245 7  91140533.72444  22257441.797                    22257448.555
        45.800          24.500
                  89390144.715 6  21477454.203                    21477455.621
                        39.600
                  83875173.936 6  20145327.516                    20145329.984
                        39.300
 117777185.811 7  91774461.10044  22412258.781                    22412261.148
        43.000          24.700
                  86509193.981 5  20814449.273                    20814453.547
                        35.100
 121626207.828 7  94773719.23044  23144706.805                    23144710.281
        47.700          27.200
                  90162035.704 4  21723848.453                    21723847.586
                        28.200
                  84559261.103 5  20331009.547                    20331010.043
                        31.800
                  81154186.050 6  19532873.031                    19532874.879
                        36.400
                                  22341675.984

 119734693.716 7  93299799.57545  22784761.109                    22784764.289
        47.900          32.100
 125153411.520 7  97522139.81343  23815899.922                    23815902.477
        42.500          22.800
 111281183.674 7  86712604.49245  21176101.344                    21176106.668
        45.000          30.800
 118049820.845 7  91986885.21945  22464138.367                    22464141.250
        47.200          30.400
 118921633.302 7  92666300.11644  22630050.664                    22630058.305
        43.600          28.900
 18  3 13 12 39 46.0000000  0 14G10R17R07G11R15G15R06R24R16G17G19G24
                                G28G01
 116964877.650 7  91141582.09744  22257697.992                    22257704.422
        47.000          27.500
                  89387768.291 6  21476883.258                    21476884.852
                        40.400
                  83875493.224 6  20145403.703                    20145406.207
                        38.600
 117777893.332 7  91775012.41544  22412392.445                    22412395.945
        43.500          25.500
                  86512129.689 5  20815156.320                    20815160.668
                        35.300
 121629917.175 7  94776609.63845  23145412.227                    23145416.191
        47.800          30.100
                  90165334.354 4  21724642.180                    21724642.930
                        25.900
                  84559960.021 5  20331177.125                    20331177.910
                        30.800
                  81153235.605 6  19532644.891                    19532645.500
                        37.500
 119732616.850 8  93298181.24045  22784365.500                    22784368.773
        48.100          31.900
 125150011.448 7  97519490.41044  23815252.969                    23815255.488
        42.100          24.400
 111280059.361 7  86711728.41945  21175887.023                    21175893.258
        43.900          30.200
 118052642.872 7  91989084.20145  22464674.953                    22464677.867
        46.800          30.800
 118920408.932 7  92665346.08844  22629817.750                    22629824.988
        44.200          29.400
 18  3 13 12 39 47.0000000  0 14G10R17R07G11R15G15R06R24R16G17G19G24
                                G28G01
 116966223.741 7  91142631.00144  22257953.930                    22257960.676
        46.600          27.600
                  89385392.366 6  21476312.711                    21476313.727
                        40.200
                  83875813.324 6  20145481.656                    20145483.293
                        38.500
 117778601.593 7  91775564.31144  22412528.109                    22412531.137
        44.100          26.000
                  86515065.828 5  20815863.383                    20815867.469
                        34.900
 121633626.892 7  94779500.31545  23146117.945                    23146122.285
        47.600          30.000
                  90168633.449 4  21725437.375                    21725437.484
                        25.700
                  84560659.705 5  20331345.578                    20331346.207
                        30.600
                  81152285.762 6  19532416.094                    19532416.945
                        37.300
 119730540.463 8  93296563.28045  22783971.008                    22783973.727
        48.300          32.400
 125146611.661 7  97516841.23943  23814606.047                    23814608.254
        42.100          22.000
 111278935.692 7  86710852.84845  21175673.523                    21175679.320
        44.700          31.200
 118055465.310 7  91991283.50245  22465211.961                    22465215.000
        47.100          31.300
 118919185.259 7  92664392.59444  22629584.992                    22629592.457
        44.700          29.000
 18  3 13 12 39 48.0000000  0 14G10R17R07G11R15G15R06R24R16G17G19G24
                                G28G01
 116967570.512 7  91143680.43444  22258210.398                    22258216.969
        46.700          26.800
                  89383016.904 6  21475741.914                    21475742.871
                        39.400
                  83876134.178 6  20145558.164                    20145560.098
                        38.700
 117779310.626 7  91776116.81144  22412662.836                    22412665.676
        44.100          24.500
                  86518002.400 5  20816569.141                    20816573.703
                        35.800
 121637336.956 7  94782391.25545  23146824.016                    23146827.977
        46.900          30.300
                  90171932.914 4  21726232.703                    21726232.602
                        27.200
                  84561360.143 5  20331514.391                    20331515.020
                        31.800
                  81151336.518 6  19532187.555                    19532188.797
                        37.500
 119728464.560 8  93294945.69645  22783575.586                    22783578.918
        48.400          32.400
 125143212.190 7  97514192.31143  23813959.461                    23813961.762
        42.500          23.200
 111277812.663 7  86709977.76745  21175460.438                    21175465.680
        45.400          30.900
 118058288.159 7  91993483.12645  22465749.461                    22465752.734
        46.700          30.900
 118917962.250 7  92663439.60844  22629352.219                    22629359.563
        44.900          28.900
 18  3 13 12 39 49.0000000  0 15G10R17R07G11R15G15R06R24R16R23G17G19
                                G24G28G01
 116968917.964 7  91144730.39444  22258467.047                    22258473.352
        46.600          26.500
                  89380641.910 6  21475171.063                    21475172.566
                        39.500
                  83876455.731 6  20145634.945                    20145638.203
                        38.600
 117780020.395 7  91776669.88644  22412798.164                    22412800.789
        44.300          24.600
                  86520939.367 5  20817275.930                    20817280.074
                        35.200
 121641047.352 7  94785282.46845  23147530.289                    23147534.180
        46.800          30.200
                  90175232.761 4  21727027.125                    21727027.852
                        26.100
                  84562061.333 5  20331682.289                    20331683.414
                        31.600
                  81150387.888 6  19531959.648                    19531959.973
                        37.500
                                  22344878.016

 119726389.095 8  93293328.44945  22783180.414                    22783183.664
        48.200          32.400
 125139812.995 7  97511543.58244  23813312.555                    23813315.125
        42.500          24.400
 111276690.260 7  86709103.17845  21175246.211                    21175252.344
        45.500          30.600
 118061111.366 7  91995683.03345  22466286.570                    22466289.707
        46.300          30.500
 118916739.936 7  92662487.14944  22629119.094                    22629126.805
        45.200          29.600
 18  3 13 12 39 50.0000000  0 15G10R17R07G11R15G15R06R24R16R23G17G19
                                G24G28G01
 116970266.135 7  91145780.93044  22258722.883                    22258729.602
        46.700          27.300
                  89378267.440 6  21474600.891                    21474601.965
                        39.500
                  83876778.037 6  20145712.516                    20145714.586
                        38.900
 117780730.971 7  91777223.58244  22412933.211                    22412936.371
        44.200          25.500
                  86523876.766 5  20817983.023                    20817986.645
                        35.200
 121644758.153 7  94788173.99244  23148236.109                    23148240.914
        46.600          29.900
                  90178533.046 4  21727822.266                    21727822.219
                        25.500
                  84562763.327 5  20331851.211                    20331852.578
                        31.600
                  81149439.908 6  19531731.703                    19531731.973
                        37.400
                                  22345679.547

 119724314.138 7  93291711.60045  22782785.852                    22782788.859
        47.800          32.200
 125136414.139 7  97508895.11543  23812666.586                    23812668.148
        42.200          22.500
 111275568.521 7  86708229.09745  21175033.172                    21175038.742
        45.400          30.200
 118063935.065 7  91997883.31345  22466823.852                    22466827.020
        46.300          30.400
 118915518.292 7  92661535.21744  22628886.914                    22628894.414
        44.200          28.400
 18  3 13 12 39 51.0000000  0 15G10R17R07G11R15G15R06R24R16R23G17G19
                                G24G28G01
 116971615.020 7  91146832.02244  22258979.984                    22258986.645
        47.200          27.600
                  89375893.475 6  21474030.281                    21474031.621
                        39.700
                  83877101.074 6  20145789.648                    20145792.840
                        38.700
 117781442.354 7  91777777.90244  22413068.523                    22413071.652
        44.500          26.100
                  86526814.633 5  20818690.453                    20818694.246
                        34.800
 121648469.364 7  94791065.84145  23148942.609                    23148946.941
        46.700          30.400
                  90181833.726 4  21728617.523                    21728617.758
                        25.200
                  84563466.097 5  20332020.594                    20332020.898
                        31.200
                  81148492.563 6  19531502.523                    19531504.766
                        37.500
                                  22346478.430

 119722239.735 8  93290095.18045  22782391.086                    22782394.121
        48.300          32.000
 125133015.596 6  97506246.91343  23812019.086                    23812021.805
        41.400          22.000
 111274447.427 7  86707355.51345  21174819.680                    21174825.184
        44.900          30.500
 118066759.202 7  92000083.92745  22467361.453                    22467364.484
        46.100          30.900
 118914297.389 7  92660583.85644  22628654.195                    22628661.801
        44.500          28.600
 18  3 13 12 39 52.0000000  0 15G10R17R07G11R15G15R06R24R16R23G17G19
                                G24G28G01
 116972964.627 7  91147883.66144  22259236.438                    22259243.270
        46.700          27.600
                  89373520.008 6  21473460.375                    21473461.191
                        39.900
                  83877424.916 6  20145867.953                    20145870.758
                        38.500
 117782154.543 7  91778332.84844  22413203.977                    22413207.457
        44.500          26.100
                  86529752.934 5  20819396.227                    20819401.117
                        35.500
 121652180.953 7  94793957.97045  23149648.727                    23149653.402
        46.700          30.000
                  90185134.858 4  21729413.172                    21729412.969
                        27.300
                  84564169.656 5  20332189.141                    20332190.258
                        31.400
                  81147545.881 6  19531275.883                    19531276.254
                        37.300
                                  22347279.711

 119720165.800 8  93288479.12745  22781996.234                    22781999.520
        48.400          32.500
 125129617.361 6  97503598.93843  23811372.117                    23811374.699
        41.700          22.600
 111273326.998 7  86706482.45045  21174605.867                    21174612.180
        45.000          30.100
 118069583.777 7  92002284.89745  22467899.125                    22467902.043
        46.600          31.400
 118913077.181 7  92659633.04944  22628422.375                    22628429.879
        45.200          28.500
 18  3 13 12 39 53.0000000  0 15G10R17R07G11R15G15R06R24R16R23G17G19
                                G24G28G01
 116974315.010 7  91148935.89444  22259493.742                    22259500.043
        46.300          27.900
                  89371147.064 6  21472889.883                    21472891.434
                        39.600
                  83877749.575 6  20145946.789                    20145949.328
                        37.700
 117782867.548 7  91778888.42244  22413339.297                    22413343.055
        45.200          25.300
                  86532691.726 5  20820104.086                    20820108.074
                        34.900
 121655893.021 7  94796850.48144  23150355.289                    23150359.809
        47.300          29.700
                  90188436.442 4  21730209.445                    21730208.953
                        26.700
                  84564874.042 5  20332359.281                    20332359.145
                        31.200
                  81146599.904 6  19531047.750                    19531048.582
                        37.200
                                  22348079.672

 119718092.410 8  93286863.50245  22781601.531                    22781604.941
        48.300          31.800
 125126219.511 7  97500951.27243  23810726.047                    23810728.223
        42.300          23.600
 111272207.278 7  86705609.94145  21174393.297                    21174399.137
        45.600          31.200
 118072408.827 7  92004486.23644  22468436.578                    22468439.953
        46.200          29.600
 118911857.768 7  92658682.86244  22628190.359                    22628197.949
        44.200          28.100
 18  3 13 12 39 54.0000000  0 15G10R17R07G11R15G15R06R24R16R23G17G19
                                G24G28G01
 116975666.068 7  91149988.64643  22259750.742                    22259757.109
        44.600          23.200
                  89368774.635 6  21472320.078                    21472320.813
                        39.400
                  83878075.084 5  20146024.266                    20146026.746
                        35.400
 117783581.317 7  91779444.60644  22413474.781                    22413478.609
        44.100          24.200
                  86535630.890 6  20820810.992                    20820814.527
                        36.200
 121659605.397 7  94799743.21345  23151061.898                    23151066.309
        47.700          30.300
                  90191738.331 4  21731003.148                    21731004.473
                        29.400
                  84565579.174 5  20332528.273                    20332529.043
                        30.900
                  81145654.516 5  19530819.711                    19530821.074
                        35.600
                                  22348880.664

 119716019.543 8  93285248.27445  22781207.500                    22781210.621
        49.700          32.100
 125122822.003 7  97498303.85543  23810079.398                    23810082.109
        44.100          22.500
 111271088.206 7  86704737.91645  21174180.641                    21174185.523
        47.200          32.100
 118075234.285 7  92006687.89045  22468974.156                    22468977.250
        46.100          30.400
 118910638.973 7  92657733.15344  22627958.594                    22627965.770
        45.200          28.200
 18  3 13 12 39 55.0000000  0 15G10R17R07G11R15G15R06R24R16R23G17G19
                                G24G28G01
 116977017.832 7  91151041.95744  22260007.742                    22260014.414
        45.000          24.900
                  89366402.621 6  21471750.117                    21471751.145
                        39.700
                  83878401.168 6  20146103.227                    20146104.906
                        38.900
 117784295.894 7  91780001.41244  22413611.203                    22413614.906
        44.200          25.400
                  86538570.502 5  20821518.508                    20821522.660
                        35.500
 121663318.129 7  94802636.22744  23151768.672                    23151772.742
        47.100          29.200
                  90195040.662 4  21731799.648                    21731800.273
                        26.500
                  84566285.079 5  20332697.961                    20332698.801
                        31.800
                  81144709.778 6  19530592.234                    19530593.590
                        38.300
                                  22349681.461

 119713947.085 8  93283633.36445  22780813.008                    22780815.891
        49.300          31.900
 125119424.716 7  97495656.61043  23809432.914                    23809435.000
        43.300          22.500
 111269969.723 8  86703866.36745  21173967.469                    21173973.266
        48.000          33.000
 118078060.143 7  92008889.85745  22469511.492                    22469514.883
        46.400          30.900
 118909420.843 7  92656783.96244  22627726.586                    22627733.727
        44.000          27.700
 18  3 13 12 39 56.0000000  0 15G10R17R07G11R15G15R06R24R16R23G17G19
                                G24G28G01
 116978370.301 7  91152095.83944  22260265.141                    22260271.797
        45.700          26.200
                  89364031.115 6  21471180.234                    21471181.910
                        39.400
                  83878728.012 6  20146181.328                    20146183.613
                        39.300
 117785011.230 7  91780558.82744  22413746.992                    22413750.617
        44.100          25.000
                  86541510.500 5  20822224.859                    20822229.551
                        35.300
 121667031.240 7  94805529.55644  23152475.695                    23152479.195
        47.300          29.200
                  90198343.394 4  21732595.414                    21732595.695
                        25.500
                  84566991.761 5  20332868.563                    20332868.992
                        32.100
                  81143765.659 6  19530366.000                    19530366.586
                        38.000
                                  22350482.891

 119711875.111 8  93282018.84945  22780418.516                    22780421.953
        48.600          32.300
 125116027.752 7  97493009.63043  23808786.305                    23808788.461
        43.700          22.800
 111268851.887 7  86702995.32545  21173754.555                    21173760.598
        47.000          31.900
 118080886.437 7  92011092.17445  22470049.492                    22470052.789
        46.700          30.200
 118908203.421 7  92655835.33344  22627495.164                    22627502.141
        44.400          28.100
 18  3 13 12 39 57.0000000  0 15G10R17R07G11R15G15R06R24R16R23G17G19
                                G24G28G01
 116979723.475 7  91153150.29044  22260522.773                    22260529.309
        46.000          26.200
                  89361660.124 6  21470610.469                    21470611.789
                        39.600
                  83879055.637 6  20146259.258                    20146262.332
                        39.600
 117785727.347 7  91781116.85644  22413883.078                    22413886.773
        43.900          25.600
                  86544450.983 5  20822933.281                    20822936.711
                        35.600
 121670744.742 8  94808423.19844  23153182.609                    23153186.078
        48.200          29.100
                  90201646.645 3  21733390.883                    21733392.031
                        23.600
                  84567699.209 5  20333037.977                    20333038.934
                        31.400
                  81142822.179 6  19530138.102                    19530139.371
                        38.200
                                  22351285.117

 119709803.684 8  93280404.75645  22780024.352                    22780027.801
        49.000          32.600
 125112631.138 7  97490362.91043  23808139.453                    23808142.160
        43.700          22.300
 111267734.735 7  86702124.83345  21173541.602                    21173548.020
        46.600          32.800
 118083713.173 7  92013294.82045  22470587.430                    22470590.879
        46.500          30.500
 118906986.697 7  92654887.24344  22627263.602                    22627270.984
        44.100          27.500
 18  3 13 12 39 58.0000000  0 15G10R17R07G11R15G15R06R24R16R23G17G19
                                G24G28G01
 116981077.331 7  91154205.25144  22260780.445                    22260786.738
        45.400          25.600
                  89359289.659 6  21470040.719                    21470042.219
                        39.400
                  83879384.031 6  20146338.648                    20146340.934
                        39.300
 117786444.311 7  91781675.55044  22414019.898                    22414023.402
        44.500          26.300
                  86547391.876 6  20823641.992                    20823644.512
                        36.400
 121674458.585 8  94811317.11244  23153889.500                    23153892.988
        48.500          28.900
                  90204950.281 4  21734187.219                    21734187.797
                        26.600
                  84568407.454 5  20333208.820                    20333209.223
                        32.200
                  81141879.354 6  19529910.734                    19529912.770
                        37.200
                                  22352086.484

 119707732.731 8  93278791.03845  22779630.594                    22779633.613
        48.700          31.600
 125109234.845 7  97487716.45944  23807494.281                    23807496.219
        44.200          25.100
 111266618.293 7  86701254.88745  21173329.375                    21173335.309
        45.500          32.300
 118086540.349 7  92015497.80445  22471125.914                    22471128.863
        46.200          30.400
 118905770.717 7  92653939.72944  22627031.813                    22627039.051
        44.100          27.400
