     2.11           OBSERVATION DATA    M (MIXED)           RINEX VERSION / TYPE
teqc  2018Mar15                         20180319 14:17:34UTCPGM / RUN BY / DATE
Linux 2.6.32-573.12.1.x86_64|x86_64|gcc -static|Linux 64|=+ COMMENT
END OF STATIC MODE OBSERVATION                              COMMENT
BIT 2 OF LLI FLAGS DATA COLLECTED UNDER A/S CONDITION       COMMENT
-Unknown-                                                   MARKER NAME
4625                                                        MARKER NUMBER
-Unknown-           -Unknown-                               OBSERVER / AGENCY
5127468778          TRIMBLE             4.63                REC # / TYPE / VERS
47477114                            NONE                    ANT # / TYPE
 -2038930.7965  3725740.2257  4742433.6290                  APPROX POSITION XYZ
        0.0000        0.0000        0.0000                  ANTENNA: DELTA H/E/N
     1     1                                                WAVELENGTH FACT L1/2
     7    L1    L2    C1    P1    P2    S1    S2            # / TYPES OF OBSERV
    18                                                      LEAP SECONDS
 SNR is mapped to RINEX snr flag value [0-9]                COMMENT
  L1 & L2: min(max(int(snr_dBHz/6), 0), 9)                  COMMENT
  2018     3    15    13    14   46.0000000     GPS         TIME OF FIRST OBS
                                                            END OF HEADER
 18  3 15 13 14 46.0000000  0 18R01R02G11G12R09R10R11R20R18G17G22G01
                                G10R19G24G32G28G19
                  87405473.700 6  21022717.945                    21022722.598
                        36.800
                  85885773.399 6  20693517.258                    20693519.125
                        38.500
 120934300.449 7  94234527.00444  23013032.164                    23013036.078
        44.500          29.400
 121560788.193 7  94722732.62344  23132256.594                    23132259.910
        42.100          25.300
                  90386167.810 6  21762547.469                    21762547.480
                        38.900
                  79670543.290 5  19216273.969                    19216277.672
                        34.500
                  88628525.099 6  21324370.406                    21324371.910
                        39.200
                  96151621.613 6  23118218.430                    23118220.922
                        37.600
                  88589480.612 6  21337452.773                    21337450.711
                        39.200
 114982520.026 8  89596820.92345  21880456.000                    21880459.492
        48.300          32.800
 129371119.502 6 100808584.63744  24618483.180                    24618483.777
        40.300          25.900
 116993162.254 7  91163526.45145  22263058.641                    22263064.699
        44.700          34.800
 121442662.578 7  94630671.64845  23109772.617                    23109780.504
        45.800          32.800
                  84046715.884 6  20200691.109                    20200690.066
                        38.700
 109424408.523 7  85265794.94245  20822773.023                    20822778.480
        45.100          35.500
 120163470.100 7  93633895.62044  22866348.422                    22866354.086
        45.800          27.400
 125362746.855 7  97685274.56244  23855737.258                    23855741.027
        43.800          28.100
 116496014.851 7  90776122.45744  22168454.664                    22168456.754
        42.900          28.700
 18  3 15 13 14 47.0000000  0 18R01R02G11G12R09R10R11R20R18G17G22G01
                                G10R19G24G32G28G19
                  87408040.827 6  21023335.375                    21023339.277
                        36.700
                  85884534.010 6  20693218.734                    20693220.434
                        38.700
 120936838.058 7  94236504.36944  23013514.805                    23013518.707
        44.900          28.500
 121557420.531 6  94720108.43944  23131615.453                    23131618.945
        41.900          25.600
                  90389562.555 6  21763363.852                    21763364.191
                        38.400
                  79671087.887 5  19216406.000                    19216409.363
                        34.700
                  88625951.905 6  21323750.609                    21323752.762
                        38.900
                  96148401.922 6  23117443.273                    23117447.328
                        37.000
                  88592191.208 6  21338105.180                    21338104.223
                        39.800
 114981862.590 8  89596308.63345  21880331.398                    21880334.563
        48.200          32.900
 129368648.577 6 100806659.23544  24618013.336                    24618013.852
        39.400          24.700
 116993807.931 7  91164029.57045  22263181.313                    22263187.832
        44.500          35.200
 121445574.477 7  94632940.69145  23110326.430                    23110334.449
        44.700          32.600
                  84046071.879 6  20200535.734                    20200535.816
                        38.500
 109425007.332 7  85266261.54846  20822886.664                    20822892.637
        45.300          36.000
 120161389.809 7  93632274.58344  22865952.344                    22865958.211
        45.400          28.300
 125366366.771 7  97688095.27144  23856427.758                    23856429.992
        45.300          28.100
 116493725.848 7  90774338.82044  22168019.672                    22168020.836
        42.600          29.300
 18  3 15 13 14 48.0000000  0 18R01R02G11G12R09R10R11R20R18G17G22G01
                                G10R19G24G32G28G19
                  87410608.527 6  21023953.875                    21023957.105
                        37.000
                  85883295.254 6  20692918.961                    20692922.570
                        38.300
 120939376.273 7  94238482.21544  23013998.094                    23014002.016
        45.200          28.800
 121554053.141 6  94717484.47944  23130974.844                    23130977.941
        41.800          25.600
                  90392957.610 6  21764182.336                    21764181.371
                        38.700
                  79671633.159 5  19216537.094                    19216540.973
                        34.500
                  88623379.114 6  21323131.789                    21323133.211
                        39.000
                  96145182.467 6  23116668.367                    23116672.586
                        36.500
                  88594902.323 6  21338758.180                    21338758.598
                        40.100
 114981205.781 8  89595796.83545  21880206.242                    21880209.707
        48.000          33.100
 129366178.015 6 100804734.12144  24617543.039                    24617543.961
        39.600          24.000
 116994454.396 7  91164533.30846  22263304.617                    22263310.859
        44.600          36.000
 121448486.957 7  94635210.18345  23110880.508                    23110888.688
        44.100          32.600
                  84045428.619 6  20200381.328                    20200381.020
                        38.900
 109425606.833 7  85266728.69746  20823000.930                    20823006.570
        45.200          36.100
 120159310.056 7  93630653.96144  22865556.000                    22865562.328
        44.700          26.900
 125369986.917 7  97690916.17244  23857116.055                    23857118.598
        45.400          26.700
 116491437.411 7  90772555.62345  22167583.914                    22167586.066
        42.400          30.400
 18  3 15 13 14 49.0000000  0 18R01R02G11G12R09R10R11R20R18G17G22G01
                                G10R19G24G32G28G19
                  87413176.839 6  21024570.805                    21024574.598
                        36.800
                  85882057.198 6  20692620.180                    20692624.230
                        38.700
 120941915.169 7  94240460.58144  23014480.563                    23014484.566
        45.600          29.700
 121550686.103 6  94714860.82244  23130334.422                    23130337.746
        41.300          26.400
                  90396352.981 6  21765000.703                    21764999.449
                        38.700
                  79672179.128 5  19216669.859                    19216672.516
                        35.100
                  88620806.689 6  21322512.344                    21322514.422
                        39.500
                  96141963.246 6  23115895.664                    23115898.242
                        36.400
                  88597614.021 6  21339409.484                    21339411.984
                        40.600
 114980549.648 7  89595285.56445  21880081.844                    21880084.609
        47.900          33.800
 129363707.848 6 100802809.31444  24617073.219                    24617073.758
        39.900          26.000
 116995101.644 7  91165037.66045  22263427.383                    22263433.969
        44.300          34.800
 121451400.006 7  94637480.10945  23111435.484                    23111442.801
        44.700          32.800
                  84044786.112 6  20200227.328                    20200226.379
                        38.600
 109426207.035 7  85267196.38445  20823115.031                    20823121.207
        45.200          35.900
 120157230.883 7  93629033.81844  22865160.117                    22865166.668
        43.900          26.200
 125373607.304 7  97693737.28344  23857804.359                    23857806.973
        44.500          26.400
 116489149.625 7  90770772.94144  22167148.648                    22167150.570
        42.800          29.900
 18  3 15 13 14 50.0000000  0 18R01R02G11G12R09R10R11R20R18G17G22G01
                                G10R19G24G32G28G19
                  87415745.730 6  21025189.180                    21025192.453
                        36.400
                  85880819.828 6  20692323.078                    20692325.625
                        38.500
 120944454.727 7  94242439.46044  23014964.234                    23014967.902
        45.600          28.600
 121547319.366 6  94712237.40144  23129693.781                    23129696.930
        41.800          25.800
                  90399748.680 6  21765816.484                    21765816.707
                        38.300
                  79672725.796 5  19216801.617                    19216804.770
                        34.500
                  88618234.637 6  21321893.219                    21321895.707
                        39.100
                  96138744.220 6  23115121.367                    23115124.629
                        36.500
                  88600326.238 6  21340062.789                    21340065.859
                        40.700
 114979894.155 8  89594774.78545  21879957.141                    21879960.113
        48.000          33.300
 129361238.083 6 100800884.81344  24616602.695                    24616603.625
        40.400          25.300
 116995749.682 7  91165542.62745  22263550.836                    22263557.391
        44.400          35.400
 121454313.629 7  94639750.49845  23111990.078                    23111996.953
        45.100          32.100
                  84044144.357 6  20200073.242                    20200072.180
                        38.400
 109426807.952 7  85267664.63645  20823229.242                    20823235.332
        44.800          35.900
 120155152.228 7  93627414.09744  22864764.523                    22864771.426
        43.600          27.400
 125377228.023 6  97696558.66044  23858491.188                    23858496.332
        41.600          26.300
 116486862.418 7  90768990.70745  22166713.641                    22166715.137
        43.000          31.200
 18  3 15 13 14 51.0000000  0 18R01R02G11G12R09R10R11R20R18G17G22G01
                                G10R19G24G32G28G19
                  87418315.159 6  21025806.609                    21025810.477
                        37.100
                  85879583.114 6  20692026.570                    20692027.820
                        38.100
 120946994.873 7  94244418.79044  23015448.000                    23015451.262
        45.900          29.500
 121543952.915 6  94709614.21344  23129053.164                    23129056.668
        41.400          27.300
                  90403144.652 6  21766633.195                    21766634.039
                        38.600
                  79673273.104 5  19216932.992                    19216936.605
                        34.800
                  88615662.881 6  21321274.586                    21321276.508
                        39.500
                  96135525.365 6  23114346.820                    23114351.039
                        37.000
                  88603038.987 6  21340715.875                    21340720.203
                        41.000
 114979239.290 8  89594264.49945  21879831.883                    21879835.531
        48.000          33.300
 129358768.621 6 100798960.55544  24616132.953                    24616133.941
        40.500          24.100
 116996398.423 7  91166048.14645  22263674.813                    22263681.277
        44.600          35.500
 121457227.718 7  94642021.28145  23112544.563                    23112551.402
        46.100          32.300
                  84043503.311 6  20199918.688                    20199918.305
                        38.600
 109427409.547 7  85268133.41045  20823343.828                    20823349.926
        44.500          35.800
 120153074.112 7  93625794.80444  22864368.891                    22864375.469
        43.400          26.200
 125380848.944 6  97699380.15644  23859180.531                    23859184.793
        40.700          27.200
 116484575.758 7  90767208.89245  22166279.164                    22166280.105
        43.000          30.900
 18  3 15 13 14 52.0000000  0 18R01R02G11G12R09R10R11R20R18G17G22G01
                                G10R19G24G32G28G19
                  87420885.059 6  21026424.891                    21026428.762
                        36.900
                  85878346.995 6  20691728.586                    20691729.840
                        37.900
 120949535.573 7  94246398.55644  23015931.336                    23015934.352
        45.400          28.900
 121540586.657 6  94706991.18144  23128412.406                    23128416.680
        41.600          26.600
                  90406540.851 6  21767452.258                    21767452.117
                        38.600
                  79673821.021 5  19217064.930                    19217068.223
                        35.100
                  88613091.447 6  21320656.781                    21320658.219
                        39.400
                  96132306.751 6  23113571.336                    23113577.004
                        36.100
                  88605752.197 6  21341368.398                    21341374.113
                        41.100
 114978584.953 8  89593754.62945  21879707.914                    21879711.332
        48.100          32.800
 129356299.412 6 100797036.50644  24615663.023                    24615663.844
        40.500          24.000
 116997047.853 7  91166554.19645  22263798.609                    22263804.730
        44.800          35.200
 121460142.306 7  94644292.47545  23113099.875                    23113106.500
        47.000          33.900
                  84042862.956 6  20199765.125                    20199764.711
                        38.700
 109428011.768 7  85268602.67645  20823458.445                    20823464.254
        44.800          35.800
 120150996.387 7  93624175.82044  22863973.820                    22863980.449
        43.700          27.200
 125384469.973 7  97702201.70144  23859870.945                    23859873.445
        43.500          27.700
 116482289.611 7  90765427.48445  22165843.758                    22165845.316
        42.200          30.200
 18  3 15 13 14 53.0000000  0 18R01R02G11G12R09R10R11R20R18G17G22G01
                                G10R19G24G32G28G19
                  87423455.545 6  21027043.023                    21027047.000
                        37.300
                  85877111.495 6  20691430.789                    20691431.199
                        37.900
 120952076.906 7  94248378.81844  23016415.078                    23016418.176
        44.900          27.800
 121537220.704 6  94704368.38144  23127771.484                    23127776.082
        41.100          25.900
                  90409937.329 6  21768271.281                    21768269.945
                        39.100
                  79674369.619 5  19217197.305                    19217200.348
                        34.900
                  88610520.385 6  21320037.758                    21320040.004
                        39.700
                  96129088.327 5  23112796.992                    23112803.066
                        35.400
                  88608465.943 6  21342022.016                    21342027.805
                        41.200
 114977931.234 8  89593245.23745  21879583.117                    21879586.582
        48.500          32.800
 129353830.597 6 100795112.75544  24615192.945                    24615193.941
        40.100          24.100
 116997698.038 7  91167060.83345  22263922.102                    22263928.668
        44.900          35.800
 121463057.338 7  94646564.02245  23113653.813                    23113661.004
        46.300          33.100
                  84042223.312 6  20199610.617                    20199610.355
                        39.100
 109428614.651 7  85269072.45545  20823572.813                    20823579.027
        44.500          35.500
 120148919.158 7  93622557.22144  22863579.250                    22863584.805
        43.400          27.300
 125388091.210 7  97705023.40944  23860561.680                    23860563.297
        44.900          28.800
 116480004.049 7  90763646.52844  22165408.648                    22165410.180
        42.600          29.800
 18  3 15 13 14 54.0000000  0 18R01R02G11G12R09R10R11R20R18G17G22G01
                                G10R19G24G32G28G19
                  87426026.666 6  21027661.922                    21027665.477
                        36.900
                  85875876.733 6  20691131.813                    20691134.254
                        38.100
 120954618.968 7  94250359.64444  23016898.703                    23016901.266
        45.200          29.000
 121533855.130 6  94701745.87344  23127131.094                    23127135.445
        40.800          25.000
                  90413334.198 6  21769087.289                    21769087.973
                        38.800
                  79674918.977 5  19217329.906                    19217333.426
                        35.200
                  88607949.740 6  21319419.367                    21319421.016
                        39.200
                  96125870.199 5  23112024.547                    23112028.363
                        35.200
                  88611180.337 6  21342676.313                    21342682.164
                        41.200
 114977278.270 8  89592736.43545  21879459.188                    21879462.445
        48.800          32.600
 129351362.215 6 100793189.33944  24614723.516                    24614724.344
        40.400          25.000
 116998349.092 7  91167568.13745  22264045.805                    22264052.496
        44.700          35.400
 121465972.958 7  94648836.02745  23114208.445                    23114215.926
        45.700          32.600
                  84041584.499 6  20199457.227                    20199457.672
                        38.600
 109429218.370 7  85269542.88345  20823687.500                    20823693.805
        44.200          35.500
 120146842.609 7  93620939.12944  22863184.078                    22863189.574
        42.800          26.300
 125391712.765 7  97707845.40444  23861249.797                    23861253.090
        44.300          26.800
 116477719.178 7  90761866.10645  22164973.867                    22164975.340
        42.500          30.200
 18  3 15 13 14 55.0000000  0 18R01R02G11G12R09R10R11R20R18G17G22G01
                                G10R19G24G32G28G19
                  87428598.307 6  21028280.461                    21028283.734
                        36.900
                  85874642.604 6  20690833.258                    20690836.277
                        38.000
 120957161.603 7  94252340.90944  23017382.531                    23017385.203
        45.000          29.100
 121530489.803 6  94699123.55943  23126490.125                    23126495.480
        39.700          22.000
                  90416731.332 6  21769906.844                    21769905.609
                        38.900
                  79675468.982 5  19217462.727                    19217465.762
                        34.900
                  88605379.400 6  21318800.461                    21318803.215
                        39.400
                  96122652.235 6  23111250.906                    23111254.605
                        36.400
                  88613895.224 6  21343330.664                    21343336.063
                        40.900
 114976625.894 8  89592228.08645  21879335.164                    21879338.309
        48.500          33.500
 129348894.121 6 100791266.14844  24614253.875                    24614254.621
        40.000          25.000
 116999000.843 7  91168075.99545  22264169.391                    22264176.066
        44.400          35.700
 121468889.088 7  94651108.38645  23114762.836                    23114770.504
        44.700          32.300
                  84040946.381 6  20199303.617                    20199304.180
                        39.200
 109429822.752 7  85270013.83245  20823802.688                    20823809.102
        44.200          35.700
 120144766.496 7  93619321.37844  22862788.391                    22862794.453
        43.100          27.200
 125395334.538 7  97710667.57844  23861937.633                    23861942.348
        42.000          28.900
 116475434.837 7  90760086.10045  22164538.867                    22164540.875
        42.600          30.500
 18  3 15 13 14 56.0000000  0 18R01R02G11G12R09R10R11R20R18G17G22G01
                                G10R19G24G32G28G19
                  87431170.501 6  21028898.156                    21028902.293
                        36.900
                  85873409.108 6  20690537.594                    20690539.316
                        38.100
 120959704.873 7  94254322.68244  23017866.633                    23017868.758
        45.500          28.600
 121527124.740 6  94696501.44543  23125849.766                    23125855.000
        40.000          21.800
                  90420128.723 6  21770724.984                    21770724.297
                        38.700
                  79676019.650 5  19217595.625                    19217598.969
                        34.600
                  88602809.382 6  21318182.102                    21318184.719
                        39.400
                  96119434.453 6  23110477.305                    23110481.387
                        36.700
                  88616610.558 6  21343985.594                    21343990.145
                        40.200
 114975974.118 8  89591720.21345  21879211.008                    21879214.316
        48.700          33.100
 129346426.408 6 100789343.26544  24613785.492                    24613785.480
        40.000          24.800
 116999653.350 7  91168584.44745  22264293.438                    22264300.785
        44.400          35.100
 121471805.750 7  94653381.15145  23115317.773                    23115325.355
        44.200          32.300
                  84040308.955 6  20199150.414                    20199150.598
                        39.300
 109430427.804 7  85270485.30445  20823918.070                    20823924.156
        44.400          35.300
 120142690.886 7  93617704.02344  22862394.195                    22862399.402
        44.000          27.700
 125398956.535 6  97713489.92144  23862627.336                    23862631.496
        41.400          28.200
 116473151.046 7  90758306.52044  22164104.320                    22164106.070
        43.100          29.700
 18  3 15 13 14 57.0000000  0 18R01R02G11G12R09R10R11R20R18G17G22G01
                                G10R19G24G32G28G19
                  87433743.238 6  21029517.844                    21029520.934
                        36.900
                  85872176.306 6  20690241.281                    20690242.590
                        38.200
 120962248.779 7  94256304.94144  23018351.172                    23018352.586
        45.800          29.300
 121523759.984 6  94693879.56543  23125209.133                    23125214.137
        40.200          22.300
                  90423526.456 6  21771541.609                    21771542.055
                        38.500
                  79676571.012 5  19217728.445                    19217732.203
                        34.800
                  88600239.766 6  21317564.000                    21317566.184
                        39.400
                  96116216.880 6  23109702.945                    23109707.906
                        37.100
                  88619326.412 6  21344640.922                    21344644.988
                        39.800
 114975323.001 8  89591212.85445  21879086.711                    21879090.695
        48.100          33.200
 129343959.074 6 100787420.67843  24613315.406                    24613315.668
        39.700          23.500
 117000306.618 7  91169093.49745  22264418.141                    22264425.250
        44.900          35.300
 121474722.917 7  94655654.30145  23115872.797                    23115880.117
        44.500          32.700
                  84039672.260 6  20198997.789                    20198997.129
                        39.200
 109431033.594 7  85270957.34846  20824033.219                    20824039.547
        44.600          36.000
 120140615.820 7  93616087.10444  22861999.609                    22862004.594
        45.200          28.700
 125402578.778 7  97716312.42644  23863318.234                    23863320.547
        42.400          29.400
 116470867.891 7  90756527.44045  22163670.336                    22163671.746
        43.900          31.400
 18  3 15 13 14 58.0000000  0 18R01R02G11G12R09R10R11R20R18G17G22G01
                                G10R19G24G32G28G19
                  87436316.563 6  21030136.734                    21030139.938
                        36.700
                  85870944.173 6  20689944.758                    20689945.449
                        38.000
 120964793.321 7  94258287.69844  23018835.508                    23018836.902
        45.500          28.700
 121520395.551 6  94691257.90543  23124569.164                    23124573.953
        39.800          21.800
                  90426924.471 6  21772360.211                    21772359.270
                        38.500
                  79677123.064 5  19217861.578                    19217864.770
                        34.500
                  88597670.513 6  21316946.141                    21316947.969
                        39.400
                  96112999.580 6  23108931.070                    23108934.563
                        36.700
                  88622042.771 6  21345295.742                    21345298.148
                        39.600
 114974672.509 8  89590705.97945  21878963.320                    21878966.680
        48.200          33.400
 129341492.071 6 100785498.34243  24612845.313                    24612846.125
        40.400          22.900
 117000960.617 7  91169603.11145  22264543.078                    22264549.820
        45.300          35.800
 121477640.575 7  94657927.83445  23116428.594                    23116435.766
        44.200          32.400
                  84039036.323 6  20198844.992                    20198844.457
                        39.100
 109431640.068 7  85271429.92245  20824148.875                    20824154.402
        44.300          35.400
 120138541.325 7  93614470.62044  22861604.797                    22861609.586
        45.500          28.700
 125406201.208 7  97719135.07344  23864008.813                    23864009.703
        44.700          28.000
 116468585.295 7  90754748.80345  22163235.727                    22163237.313
        44.100          30.900
 18  3 15 13 14 59.0000000  0 18R01R02G11G12R09R10R11R20R18G17G22G01
                                G10R19G24G32G28G19
                  87438890.439 6  21030755.219                    21030759.176
                        36.500
                  85869712.688 6  20689647.914                    20689649.621
                        38.200
 120967338.502 7  94260270.95944  23019319.844                    23019320.992
        45.400          28.700
 121517031.389 6  94688636.43743  23123929.039                    23123933.629
        39.900          21.500
                  90430322.789 6  21773178.734                    21773178.285
                        37.700
                  79677675.782 5  19217995.375                    19217998.141
                        34.700
                  88595101.611 6  21316328.039                    21316330.160
                        39.100
                  96109782.502 6  23108159.438                    23108161.086
                        37.000
                  88624759.671 6  21345950.500                    21345952.344
                        38.800
 114974022.664 8  89590199.60545  21878839.438                    21878842.938
        48.500          32.500
 129339025.460 6 100783576.32444  24612375.742                    24612376.785
        40.000          24.400
 117001615.381 7  91170113.30745  22264667.641                    22264674.164
        45.300          35.600
 121480558.761 7  94660201.77645  23116984.297                    23116990.559
        44.900          32.000
                  84038401.134 6  20198692.023                    20198692.219
                        39.100
 109432247.267 7  85271903.06345  20824264.008                    20824270.023
        44.500          35.500
 120136467.317 7  93612854.51844  22861210.414                    22861215.125
        46.000          29.100
 125409823.846 7  97721957.90644  23864697.695                    23864699.813
        45.700          29.300
 116466303.306 7  90752970.63145  22162801.703                    22162802.703
        43.600          30.100
 18  3 15 13 15  0.0000000  0 18R01R02G11G12R09R10R11R20R18G17G22G01
                                G10R19G24G32G28G19
                  87441464.913 6  21031373.508                    21031379.199
                        36.600
                  85868481.853 6  20689350.867                    20689352.730
                        38.100
 120969884.320 7  94262254.71444  23019804.320                    23019805.477
        45.800          28.600
 121513667.551 6  94686015.22543  23123289.031                    23123293.180
        40.800          21.700
                  90433721.400 6  21773996.797                    21773996.719
                        38.200
                  79678229.186 5  19218128.719                    19218131.750
                        33.700
                  88592533.053 6  21315709.227                    21315712.145
                        39.400
                  96106565.602 6  23107384.555                    23107387.668
                        37.200
                  88627477.186 6  21346604.641                    21346607.895
                        38.300
 114973373.445 8  89589693.72245  21878716.148                    21878719.484
        48.600          33.600
 129336559.170 6 100781654.55044  24611906.445                    24611907.336
        40.000          25.000
 117002270.895 7  91170624.08345  22264792.078                    22264798.816
        44.900          35.000
 121483477.432 7  94662476.09545  23117540.063                    23117545.969
        45.300          32.100
                  84037766.694 6  20198539.742                    20198539.422
                        39.100
 109432855.157 7  85272376.74645  20824379.656                    20824385.902
        44.300          35.200
 120134393.884 7  93611238.84844  22860815.984                    22860820.520
        46.500          28.900
 125413446.704 7  97724780.93844  23865387.180                    23865389.020
        45.800          29.700
 116464021.895 7  90751192.90244  22162366.641                    22162369.148
        43.000          29.700
 18  3 15 13 15  1.0000000  0 18R01R02G11G12R09R10R11R20R18G17G22G01
                                G10R19G24G32G28G19
                  87444039.886 6  21031994.180                    21031997.684
                        36.600
                  85867251.650 6  20689053.641                    20689056.207
                        38.000
 120972430.703 7  94264238.91844  23020289.188                    23020289.871
        46.200          29.500
 121510303.939 6  94683394.20544  23122649.609                    23122653.324
        40.600          24.100
                  90437120.304 6  21774814.477                    21774814.801
                        38.100
                  79678783.229 5  19218261.633                    19218265.293
                        34.300
                  88589964.823 6  21315092.945                    21315094.422
                        39.200
                  96103348.967 6  23106610.070                    23106614.445
                        36.700
                  88630195.218 6  21347259.031                    21347260.805
                        37.600
 114972724.826 8  89589188.31145  21878592.805                    21878595.766
        48.800          33.300
 129334093.180 6 100779732.99643  24611437.602                    24611437.992
        39.700          23.000
 117002927.128 7  91171135.41345  22264916.992                    22264923.930
        45.100          35.700
 121486396.584 7  94664750.78645  23118095.672                    23118101.426
        45.700          32.100
                  84037132.935 6  20198387.234                    20198386.969
                        38.700
 109433463.667 7  85272850.91445  20824495.602                    20824501.992
        44.600          35.100
 120132320.904 7  93609623.53044  22860420.727                    22860426.551
        45.700          27.900
 125417069.763 7  97727604.13244  23866075.688                    23866079.141
        45.000          28.800
 116461741.012 7  90749415.58144  22161932.594                    22161934.578
        42.500          29.700
 18  3 15 13 15  2.0000000  0 18R01R02G11G12R09R10R11R20R18G17G22G01
                                G10R19G24G32G28G19
                  87446615.394 6  21032614.461                    21032617.758
                        36.700
                  85866022.096 6  20688758.242                    20688760.199
                        38.100
 120974977.708 7  94266223.59744  23020773.281                    23020774.598
        46.800          29.300
 121506940.620 6  94680773.44143  23122009.359                    23122013.453
        41.100          23.400
                  90440519.435 6  21775634.805                    21775633.430
                        38.300
                  79679337.943 5  19218396.289                    19218399.402
                        34.500
                  88587396.905 6  21314473.430                    21314475.754
                        39.500
                  96100132.461 5  23105837.750                    23105840.836
                        35.800
                  88632913.806 6  21347913.805                    21347914.832
                        37.700
 114972076.792 8  89588683.34445  21878469.867                    21878472.629
        48.200          33.400
 129331627.527 6 100777811.70943  24610968.180                    24610968.973
        39.500          23.600
 117003584.093 7  91171647.31046  22265042.172                    22265048.938
        45.100          36.100
 121489316.208 7  94667025.86145  23118651.078                    23118657.301
        46.500          33.400
                  84036499.876 6  20198234.766                    20198235.066
                        38.700
 109434072.869 7  85273325.61845  20824611.875                    20824617.813
        44.800          35.300
 120130248.398 7  93608008.58044  22860026.109                    22860032.422
        44.900          28.100
 125420693.049 7  97730427.48744  23866763.734                    23866768.789
        43.300          29.300
 116459460.696 7  90747638.71745  22161498.867                    22161501.090
        43.000          30.200
 18  3 15 13 15  3.0000000  0 18R01R02G11G12R09R10R11R20R18G17G22G01
                                G10R19G24G32G28G19
                  87449191.477 6  21033232.773                    21033237.234
                        36.900
                  85864793.212 6  20688462.367                    20688463.184
                        38.300
 120977525.378 7  94268208.79245  23021258.453                    23021259.383
        47.000          30.100
 121503577.609 6  94678152.93444  23121369.297                    23121373.547
        41.000          26.000
                  90443918.882 6  21776451.797                    21776452.391
                        38.500
                  79679893.320 5  19218529.906                    19218533.461
                        34.600
                  88584829.352 6  21313856.594                    21313858.402
                        39.300
                  96096916.184 5  23105065.008                    23105067.535
                        35.300
                  88635632.887 6  21348569.031                    21348568.934
                        37.300
 114971429.422 8  89588178.89945  21878346.031                    21878349.586
        48.100          33.500
 129329162.196 6 100775890.66243  24610499.336                    24610499.563
        39.400          23.800
 117004241.847 7  91172159.83745  22265167.156                    22265174.301
        45.200          34.800
 121492236.358 7  94669301.33945  23119206.422                    23119212.617
        46.400          33.000
                  84035867.561 6  20198082.906                    20198083.234
                        38.600
 109434682.801 7  85273800.88945  20824727.555                    20824733.637
        44.500          35.200
 120128176.383 7  93606394.02344  22859630.930                    22859637.793
        43.900          27.000
 125424316.600 7  97733251.03144  23867452.453                    23867457.969
        42.600          27.900
 116457180.974 7  90745862.31344  22161065.477                    22161067.156
        43.100          29.800
 18  3 15 13 15  4.0000000  0 18R01R02G11G12R09R10R11R20R18G17G22G01
                                G10R19G24G32G28G19
                  87451768.117 6  21033852.078                    21033856.508
                        36.300
                  85863564.924 6  20688166.398                    20688167.848
                        38.600
 120980073.583 7  94270194.39645  23021743.977                    23021744.699
        46.300          30.800
 121500214.825 6  94675532.61444  23120729.578                    23120733.629
        41.200          26.300
                  90447318.617 6  21777270.375                    21777270.457
                        38.600
                  79680449.322 5  19218663.742                    19218667.535
                        34.900
                  88582262.112 6  21313238.844                    21313240.418
                        39.400
                  96093700.043 5  23104291.414                    23104293.930
                        35.900
                  88638352.437 6  21349223.266                    21349222.941
                        37.300
 114970782.638 8  89587674.91445  21878223.102                    21878226.293
        48.400          34.000
 129326697.190 6 100773969.84944  24610029.773                    24610030.852
        39.600          24.600
 117004900.295 7  91172672.91045  22265292.398                    22265299.527
        45.500          35.500
 121495156.986 7  94671577.19645  23119761.852                    23119768.590
        46.200          33.300
                  84035235.924 6  20197931.594                    20197931.164
                        38.700
 109435293.352 7  85274276.63745  20824843.961                    20824849.711
        44.500          35.400
 120126104.854 7  93604779.84844  22859237.141                    22859243.961
        43.000          27.300
 125427940.321 7  97736074.68544  23868143.898                    23868147.488
        43.500          27.500
 116454901.796 7  90744086.33345  22160631.383                    22160633.340
        43.200          30.400
 18  3 15 13 15  5.0000000  0 18R01R02G11G12R09R10R11R20R18G17G22G01
                                G10R19G24G32G28G19
                  87454345.266 6  21034474.164                    21034476.219
                        36.600
                  85862337.232 6  20687870.289                    20687872.754
                        38.500
 120982622.430 7  94272180.50445  23022228.313                    23022229.422
        46.300          30.200
 121496852.320 6  94672912.51644  23120089.758                    23120093.867
        41.800          25.000
                  90450718.583 6  21778090.703                    21778089.492
                        38.700
                  79681005.974 5  19218798.211                    19218801.750
                        35.000
                  88579695.238 6  21312621.367                    21312623.316
                        39.400
                  96090484.064 6  23103517.758                    23103520.570
                        36.400
                  88641072.508 6  21349877.695                    21349877.383
                        37.600
 114970136.434 8  89587171.37445  21878099.930                    21878103.578
        48.600          33.800
 129324232.586 6 100772049.37343  24609561.156                    24609561.938
        39.000          22.800
 117005559.465 7  91173186.55645  22265418.063                    22265425.250
        45.200          35.100
 121498078.081 7  94673853.41845  23120317.328                    23120324.629
        45.200          31.900
                  84034605.002 6  20197780.234                    20197779.254
                        38.500
 109435904.588 7  85274752.92145  20824960.320                    20824966.281
        45.000          35.300
 120124033.814 7  93603166.05844  22858843.055                    22858849.789
        43.100          26.000
 125431564.182 7  97738898.45744  23868833.820                    23868837.270
        45.300          28.100
 116452623.170 7  90742310.79345  22160197.422                    22160199.750
        43.100          30.000
 18  3 15 13 15  6.0000000  0 18R01R02G11G12R09R10R11R20R18G17G22G01
                                G10R19G24G32G28G19
                  87456922.935 6  21035092.945                    21035096.516
                        36.300
                  85861110.151 6  20687574.148                    20687576.438
                        38.400
 120985171.844 7  94274167.05844  23022713.633                    23022715.027
        46.700          29.900
 121493490.055 7  94670292.58444  23119449.953                    23119454.258
        42.300          25.600
                  90454118.812 6  21778907.695                    21778908.148
                        38.400
                  79681563.271 5  19218932.789                    19218936.078
                        35.100
                  88577128.654 6  21312003.797                    21312005.438
                        39.400
                  96087268.317 6  23102744.148                    23102747.738
                        37.000
                  88643793.095 6  21350531.773                    21350532.340
                        38.500
 114969490.827 8  89586668.29945  21877976.984                    21877980.883
        48.800          33.200
 129321768.229 6 100770129.07943  24609091.242                    24609092.727
        39.000          22.600
 117006219.379 7  91173700.78345  22265543.836                    22265550.703
        45.600          35.700
 121500999.650 7  94676129.99145  23120873.086                    23120880.727
        45.400          32.400
                  84033974.780 6  20197628.227                    20197628.012
                        38.800
 109436516.472 7  85275229.71245  20825076.867                    20825082.359
        45.300          35.200
 120121963.277 7  93601552.67344  22858449.016                    22858455.434
        43.700          26.900
 125435188.228 7  97741722.40044  23869523.453                    23869526.598
        46.300          27.100
 116450345.069 7  90740535.65344  22159764.594                    22159766.297
        43.600          29.800
 18  3 15 13 15  7.0000000  0 18R01R02G11G12R09R10R11R20R18G17G22G01
                                G10R19G24G32G28G19
                  87459501.177 6  21035712.172                    21035717.078
                        36.500
                  85859883.727 6  20687278.164                    20687281.199
                        38.100
 120987721.897 7  94276154.10745  23023198.609                    23023200.602
        46.000          30.000
 121490128.114 7  94667672.90044  23118810.547                    23118814.633
        42.400          25.800
                  90457519.367 6  21779725.883                    21779726.988
                        38.500
                  79682121.229 5  19219067.359                    19219070.355
                        34.900
                  88574562.412 6  21311385.547                    21311388.047
                        39.400
                  96084052.751 6  23101970.492                    23101975.047
                        36.800
                  88646514.193 6  21351186.625                    21351188.387
                        38.900
 114968845.864 8  89586165.73145  21877854.352                    21877858.047
        48.800          33.400
 129319304.244 6 100768209.09143  24608622.781                    24608623.746
        38.400          22.600
 117006880.052 7  91174215.60545  22265669.641                    22265676.441
        45.500          35.600
 121503921.748 7  94678406.96145  23121429.547                    23121436.363
        44.900          31.700
                  84033345.297 6  20197477.375                    20197476.277
                        38.600
 109437129.041 7  85275707.03945  20825193.555                    20825199.074
        45.400          35.100
 120119893.278 7  93599939.70444  22858055.750                    22858061.035
        44.200          27.100
 125438812.482 7  97744546.53844  23870212.406                    23870215.840
        44.700          26.500
 116448067.572 7  90738760.98145  22159331.352                    22159333.230
        42.800          30.000
 18  3 15 13 15  8.0000000  0 18R01R02G11G12R09R10R11R20R18G17G22G01
                                G10R19G24G32G28G19
                  87462079.965 6  21036333.297                    21036337.363
                        36.500
                  85858657.957 6  20686983.492                    20686985.469
                        38.300
 120990272.586 7  94278141.65445  23023683.914                    23023685.684
        46.300          31.400
 121486766.416 7  94665053.39343  23118171.328                    23118174.258
        42.000          22.800
                  90460920.224 6  21780545.336                    21780545.051
                        38.500
                  79682679.854 5  19219202.414                    19219205.391
                        35.200
                  88571996.521 6  21310768.852                    21310770.141
                        39.100
                  96080837.443 6  23101196.523                    23101201.738
                        36.800
                  88649235.793 6  21351842.234                    21351844.086
                        39.600
 114968201.510 8  89585663.63945  21877731.734                    21877735.094
        48.500          32.800
 129316840.629 6 100766289.38343  24608154.320                    24608155.172
        38.700          22.800
 117007541.494 7  91174731.02446  22265795.141                    22265802.207
        45.100          36.100
 121506844.327 7  94680684.30645  23121985.375                    23121992.289
        45.300          32.600
                  84032716.507 6  20197326.211                    20197325.688
                        38.900
 109437742.289 7  85276184.89545  20825309.906                    20825315.660
        46.100          34.800
 120117823.764 7  93598327.10044  22857662.070                    22857667.699
        44.300          27.200
 125442436.987 6  97747370.87344  23870899.813                    23870906.082
        41.400          26.500
 116445790.610 7  90736986.72045  22158897.391                    22158899.781
        42.600          30.100
 18  3 15 13 15  9.0000000  0 18R01R02G11G12R09R10R11R20R18G17G22G01
                                G10R19G24G32G28G19
                  87464659.287 6  21036954.039                    21036956.922
                        36.800
                  85857432.851 6  20686688.930                    20686690.172
                        38.100
 120992823.879 7  94280129.67745  23024169.672                    23024171.320
        46.400          30.400
 121483405.043 6  94662434.09843  23117531.453                    23117534.438
        41.600          23.400
                  90464321.284 6  21781365.773                    21781364.348
                        38.700
                  79683239.158 5  19219336.688                    19219340.453
                        34.800
                  88569430.973 6  21310150.852                    21310153.598
                        38.900
                  96077622.337 6  23100423.273                    23100428.938
                        36.900
                  88651957.914 6  21352496.836                    21352500.250
                        39.900
 114967557.763 8  89585162.01445  21877609.602                    21877612.758
        48.500          33.400
 129314377.329 6 100764369.93443  24607685.828                    24607686.484
        38.400          22.900
 117008203.621 7  91175246.98046  22265921.258                    22265928.871
        45.200          36.000
 121509767.428 7  94682962.06045  23122541.867                    23122548.324
        45.300          32.700
                  84032088.462 6  20197175.664                    20197174.711
                        38.900
 109438356.186 7  85276663.26545  20825426.727                    20825432.602
        46.200          34.700
 120115754.752 7  93596714.89144  22857268.547                    22857273.730
        44.500          26.900
 125446061.781 6  97750195.40044  23871589.688                    23871595.391
        38.900          26.500
 116443514.266 7  90735212.94745  22158464.789                    22158466.664
        42.800          30.600
 18  3 15 13 15 10.0000000  0 18R01R02G11G12R09R10R11R20R18G17G22G01
                                G10R19G24G32G28G19
                  87467239.155 6  21037573.789                    21037578.105
                        36.500
                  85856208.444 6  20686393.813                    20686395.711
                        38.500
 120995375.812 7  94282118.19645  23024655.164                    23024657.281
        46.300          30.800
 121480043.933 6  94659815.00944  23116891.422                    23116894.555
        41.400          24.900
                  90467722.666 6  21782182.008                    21782183.313
                        38.600
                  79683799.136 5  19219471.898                    19219475.547
                        34.100
                  88566865.781 6  21309534.266                    21309536.488
                        38.900
                  96074407.495 6  23099650.609                    23099656.496
                        37.000
                  88654680.534 6  21353153.109                    21353156.984
                        40.200
 114966914.652 8  89584660.88945  21877487.367                    21877490.766
        48.500          33.000
 129311914.333 6 100762450.71443  24607216.727                    24607217.656
        38.400          22.800
 117008866.511 7  91175763.53145  22266047.664                    22266054.566
        45.500          35.300
 121512691.012 7  94685240.19245  23123098.523                    23123105.035
        45.400          31.700
                  84031461.124 6  20197024.570                    20197023.879
                        38.900
 109438970.767 7  85277142.15745  20825543.695                    20825549.633
        45.900          35.100
 120113686.253 7  93595103.05444  22856874.617                    22856879.891
        44.900          26.200
 125449686.782 6  97753020.01944  23872282.391                    23872284.566
        41.400          24.100
 116441238.460 7  90733439.58644  22158031.961                    22158033.754
        42.800          29.700
 18  3 15 13 15 11.0000000  0 18R01R02G11G12R09R10R11R20R18G17G22G01
                                G10R19G24G32G28G19
                  87469819.551 6  21038195.000                    21038198.402
                        36.700
                  85854984.627 6  20686098.672                    20686100.375
                        38.300
 120997928.315 7  94284107.17245  23025140.281                    23025142.512
        45.900          31.000
 121476683.063 6  94657196.10944  23116251.156                    23116255.105
        40.300          25.400
                  90471124.349 6  21783000.961                    21783002.621
                        38.600
                  79684359.759 5  19219606.844                    19219610.613
                        34.700
                  88564300.881 6  21308916.570                    21308919.039
                        38.900
                  96071192.738 6  23098877.711                    23098882.844
                        36.100
                  88657403.653 6  21353809.953                    21353813.516
                        40.800
 114966272.104 8  89584160.20745  21877364.703                    21877368.215
        48.700          33.600
 129309451.677 6 100760531.75344  24606748.359                    24606749.047
        38.100          24.800
 117009530.143 7  91176280.65846  22266173.734                    22266180.805
        45.900          36.000
 121515615.070 7  94687518.70745  23123654.602                    23123661.543
        45.100          32.300
                  84030834.486 6  20196873.781                    20196873.156
                        38.900
 109439586.004 7  85277621.56345  20825660.781                    20825666.871
        46.300          35.300
 120111618.251 7  93593491.60744  22856481.297                    22856486.469
        44.900          27.600
 125453311.870 7  97755844.70744  23872973.719                    23872974.328
        44.100          25.800
 116438963.188 7  90731666.64845  22157598.383                    22157600.320
        42.800          30.800
 18  3 15 13 15 12.0000000  0 18R01R02G11G12R09R10R11R20R18G17G22G01
                                G10R19G24G32G28G19
                  87472400.498 6  21038815.695                    21038818.738
                        37.000
                  85853761.421 6  20685802.992                    20685806.184
                        38.600
 121000481.409 7  94286096.60045  23025626.430                    23025629.063
        46.500          30.200
 121473322.411 6  94654577.39544  23115611.758                    23115616.102
        40.300          25.700
                  90474526.258 6  21783821.391                    21783821.484
                        38.800
                  79684921.029 5  19219742.602                    19219746.152
                        35.000
                  88561736.286 6  21308300.109                    21308302.543
                        39.100
                  96067978.227 5  23098105.531                    23098110.008
                        35.600
                  88660127.241 6  21354466.977                    21354470.172
                        40.900
 114965630.149 8  89583659.98745  21877242.680                    21877246.004
        48.800          33.500
 129306989.335 6 100758613.05443  24606279.461                    24606280.098
        38.400          22.300
 117010194.445 7  91176798.31346  22266300.609                    22266307.492
        46.000          36.100
 121518539.552 7  94689797.55045  23124211.219                    23124218.027
        44.900          32.200
                  84030208.564 6  20196723.008                    20196723.133
                        39.100
 109440201.874 7  85278101.46145  20825777.641                    20825784.016
        45.900          35.800
 120109550.688 7  93591880.50844  22856087.336                    22856092.660
        44.900          28.600
 125456937.116 7  97758669.56044  23873663.250                    23873664.645
        45.100          26.900
 116436688.454 7  90729894.13045  22157166.258                    22157167.648
        43.000          30.200
 18  3 15 13 15 13.0000000  0 18R01R02G11G12R09R10R11R20R18G17G22G01
                                G10R19G24G32G28G19
                  87474981.968 6  21039436.180                    21039439.949
                        36.700
                  85852538.840 6  20685508.586                    20685511.230
                        38.500
 121003035.115 7  94288086.50845  23026112.195                    23026114.809
        46.200          31.000
 121469962.066 6  94651958.95244  23114971.633                    23114976.609
        39.800          25.200
                  90477928.402 6  21784642.813                    21784640.445
                        38.600
                  79685482.950 5  19219877.859                    19219881.645
                        34.400
                  88559172.057 6  21307683.523                    21307685.184
                        39.100
                  96064763.853 5  23097333.086                    23097335.590
                        35.400
                  88662851.321 6  21355123.852                    21355126.555
                        40.400
 114964988.800 8  89583160.23645  21877120.531                    21877123.570
        48.700          33.300
 129304527.346 6 100756694.63043  24605811.414                    24605812.070
        38.500          23.800
 117010859.484 7  91177316.53945  22266427.164                    22266433.996
        46.000          35.800
 121521464.568 7  94692076.80745  23124767.547                    23124774.758
        45.100          31.800
                  84029583.364 6  20196573.188                    20196572.742
                        39.100
 109440818.438 7  85278581.90145  20825895.250                    20825901.152
        45.700          35.900
 120107483.685 7  93590269.86044  22855694.227                    22855699.609
        45.400          28.200
 125460562.582 7  97761494.62844  23874351.586                    23874354.313
        44.300          26.200
 116434414.310 7  90728122.07545  22156732.813                    22156734.668
        43.400          30.700
 18  3 15 13 15 14.0000000  0 18R01R02G11G12R09R10R11R20R18G17G22G01
                                G10R19G24G32G28G19
                  87477564.010 6  21040057.906                    21040060.605
                        36.900
                  85851316.915 6  20685215.359                    20685216.902
                        38.300
 121005589.492 7  94290076.94445  23026598.617                    23026601.191
        46.400          30.900
 121466602.024 6  94649340.77644  23114332.313                    23114337.180
        39.500          26.400
                  90481330.909 6  21785458.867                    21785460.125
                        38.700
                  79686045.575 5  19220013.406                    19220017.488
                        34.600
                  88556608.237 6  21307066.117                    21307068.133
                        39.100
                  96061549.646 6  23096560.430                    23096563.285
                        36.000
                  88665575.961 6  21355780.938                    21355783.219
                        40.700
 114964348.127 8  89582661.01345  21876998.359                    21877001.559
        49.000          33.400
 129302065.710 6 100754776.46944  24605342.719                    24605343.441
        38.900          24.000
 117011525.316 7  91177835.37145  22266553.508                    22266560.402
        45.700          35.700
 121524390.108 7  94694356.47145  23125324.055                    23125331.219
        45.200          32.400
                  84028958.926 6  20196423.391                    20196422.492
                        38.500
 109441435.701 7  85279062.88046  20826012.992                    20826018.809
        46.000          36.000
 120105417.213 7  93588659.64144  22855301.141                    22855306.691
        45.000          28.200
 125464188.343 7  97764319.93644  23875040.484                    23875043.930
        42.600          27.400
 116432140.782 7  90726350.50045  22156300.477                    22156302.445
        42.600          30.200
 18  3 15 13 15 15.0000000  0 18R01R02G11G12R09R10R11R20R18G17G22G01
                                G10R19G24G32G28G19
                  87480146.545 6  21040678.758                    21040682.344
                        37.100
                  85850095.556 6  20684921.273                    20684922.363
                        37.900
 121008144.400 7  94292067.79545  23027084.695                    23027087.820
        46.300          30.400
 121463242.195 6  94646722.77544  23113693.492                    23113698.313
        40.100          26.000
                  90484733.647 6  21786278.883                    21786279.160
                        38.300
                  79686608.796 5  19220149.094                    19220153.348
                        34.600
                  88554044.685 6  21306449.703                    21306451.727
                        39.100
                  96058335.670 6  23095785.844                    23095791.539
                        36.600
                  88668301.068 6  21356437.844                    21356440.332
                        40.800
 114963708.000 8  89582162.21045  21876876.492                    21876880.102
        48.900          32.800
 129299604.344 6 100752858.50443  24604874.055                    24604875.031
        39.000          22.600
 117012191.809 7  91178354.72445  22266679.977                    22266687.164
        45.700          35.800
 121527316.054 7  94696636.44345  23125880.344                    23125888.199
        44.900          31.800
                  84028335.157 6  20196273.305                    20196272.824
                        38.900
 109442053.553 7  85279544.31945  20826130.656                    20826136.582
        46.200          35.500
 120103351.167 7  93587049.76044  22854907.844                    22854913.461
        44.900          28.100
 125467814.307 6  97767145.38444  23875730.625                    23875733.902
        41.500          27.900
 116429867.722 7  90724579.28945  22155867.594                    22155869.461
        42.300          30.200
 18  3 15 13 15 16.0000000  0 18R01R02G11G12R09R10R11R20R18G17G22G01
                                G10R19G24G32G28G19
                  87482729.608 6  21041299.906                    21041303.527
                        36.500
                  85848874.823 6  20684626.711                    20684628.254
                        37.700
 121010699.908 7  94294059.10445  23027570.922                    23027574.234
        46.100          31.100
 121459882.646 6  94644104.99144  23113054.055                    23113059.180
        39.900          24.500
                  90488136.663 6  21787098.188                    21787098.078
                        38.900
                  79687172.667 5  19220285.180                    19220289.184
                        34.800
                  88551481.446 6  21305833.125                    21305835.164
                        38.500
                  96055121.849 6  23095013.414                    23095019.012
                        37.400
                  88671026.691 6  21357094.422                    21357096.848
                        40.300
 114963068.489 8  89581663.88945  21876754.703                    21876758.402
        48.600          32.600
 129297143.366 6 100750940.85943  24604405.969                    24604406.605
        39.000          22.500
 117012859.026 7  91178874.64645  22266807.047                    22266814.590
        45.200          35.500
 121530242.522 7  94698916.82045  23126437.586                    23126444.875
        45.200          32.300
                  84027712.087 6  20196123.508                    20196123.387
                        38.500
 109442672.105 7  85280026.31145  20826247.914                    20826254.289
        46.500          35.700
 120101285.639 7  93585440.27344  22854514.648                    22854520.512
        44.100          28.400
 125471440.401 7  97769970.89944  23876422.453                    23876423.922
        43.600          29.500
 116427595.222 7  90722808.52045  22155435.305                    22155437.207
        42.700          30.200
 18  3 15 13 15 17.0000000  0 18R01R02G11G12R09R10R11R20R18G17G22G01
                                G10R19G24G32G28G19
                  87485313.238 6  21041920.734                    21041924.434
                        37.500
                  85847654.724 6  20684332.914                    20684334.000
                        37.900
 121013255.988 7  94296050.85245  23028057.188                    23028060.422
        45.900          30.400
 121456523.386 6  94641487.41744  23112415.023                    23112420.227
        39.900          24.200
                  90491539.923 6  21787918.078                    21787917.434
                        39.100
                  79687737.194 5  19220421.180                    19220424.594
                        34.700
                  88548918.534 6  21305216.422                    21305218.098
                        39.800
                  96051908.307 6  23094240.766                    23094246.488
                        37.700
                  88673752.820 6  21357751.477                    21357752.988
                        40.100
 114962429.545 8  89581166.00045  21876633.172                    21876636.289
        48.400          33.200
 129294682.644 6 100749023.41644  24603937.023                    24603938.723
        39.200          24.200
 117013526.985 7  91179395.14445  22266933.906                    22266941.719
        45.500          35.300
 121533169.459 7  94701197.55744  23126994.586                    23127002.098
        44.100          29.600
                  84027089.704 6  20195973.641                    20195972.906
                        38.800
 109443291.307 7  85280508.80945  20826366.242                    20826372.289
        46.000          35.300
 120099220.579 7  93583831.16044  22854121.016                    22854128.156
        43.400          28.400
 125475066.649 7  97772796.53044  23877112.727                    23877114.336
        45.500          28.700
 116425323.291 7  90721038.18645  22155003.438                    22155004.770
        42.700          30.500
 18  3 15 13 15 18.0000000  0 18R01R02G11G12R09R10R11R20R18G17G22G01
                                G10R19G24G32G28G19
                  87487897.353 6  21042542.820                    21042546.336
                        36.700
                  85846435.250 6  20684038.070                    20684039.762
                        38.300
 121015812.683 7  94298043.07745  23028544.031                    23028547.137
        45.800          30.500
 121453164.316 6  94638869.97743  23111775.922                    23111781.105
        39.600          22.300
                  90494943.438 6  21788736.391                    21788737.602
                        38.700
                  79688302.345 5  19220558.188                    19220561.602
                        34.500
                  88546355.929 6  21304598.922                    21304601.246
                        39.700
                  96048694.920 6  23093468.258                    23093474.566
                        37.500
                  88676479.440 6  21358407.148                    21358409.832
                        39.700
 114961791.198 8  89580668.58945  21876511.766                    21876515.383
        48.500          31.700
 129292222.239 6 100747106.22743  24603469.195                    24603470.168
        39.200          22.900
 117014195.611 7  91179916.15945  22267061.281                    22267069.047
        44.900          35.200
 121536096.862 7  94703478.65944  23127551.891                    23127559.094
        44.300          29.900
                  84026468.015 6  20195824.250                    20195823.320
                        38.700
 109443911.178 7  85280991.82845  20826483.813                    20826490.074
        45.800          35.700
 120097155.974 7  93582222.39644  22853728.273                    22853735.227
        43.300          28.400
 125478693.095 7  97775622.32244  23877802.297                    23877804.539
        45.000          29.900
 116423051.860 7  90719268.23145  22154570.250                    22154572.117
        42.900          30.100
 18  3 15 13 15 19.0000000  0 18R01R02G11G12R09R10R11R20R18G17G22G01
                                G10R19G24G32G28G19
                  87490482.077 6  21043163.602                    21043168.113
                        36.600
                  85845216.439 6  20683745.211                    20683746.320
                        37.100
 121018369.960 7  94300035.75045  23029030.148                    23029033.469
        45.800          30.200
 121449805.589 6  94636252.79843  23111136.891                    23111141.883
        39.200          22.300
                  90498347.257 6  21789556.313                    21789557.297
                        38.600
                  79688868.168 5  19220694.961                    19220697.840
                        35.200
                  88543793.719 6  21303982.844                    21303985.500
                        39.300
                  96045481.782 5  23092696.656                    23092701.777
                        34.500
                  88679206.575 6  21359064.336                    21359066.746
                        39.300
 114961153.462 8  89580171.65545  21876390.336                    21876393.641
        48.400          32.300
 129289762.177 6 100745189.29843  24603001.672                    24603002.086
        38.900          22.500
 117014864.996 7  91180437.75645  22267188.734                    22267195.941
        44.700          35.700
 121539024.778 7  94705760.16445  23128109.375                    23128116.047
        45.200          30.700
                  84025847.047 6  20195674.602                    20195674.324
                        38.700
 109444531.742 7  85281475.38445  20826601.703                    20826608.090
        45.500          35.100
 120095091.865 7  93580614.03344  22853335.672                    22853342.363
        43.900          28.000
 125482319.733 7  97778448.29244  23878491.891                    23878494.891
        44.500          29.800
 116420781.011 7  90717498.73244  22154138.695                    22154140.539
        42.800          28.900
 18  3 15 13 15 20.0000000  0 18R01R02G11G12R09R10R11R20R18G17G22G01
                                G10R19G24G32G28G19
                  87493067.323 6  21043785.625                    21043790.113
                        36.600
                  85843998.276 6  20683451.828                    20683452.938
                        37.900
 121020927.858 7  94302028.91045  23029517.063                    23029520.449
        45.800          30.300
 121446447.117 6  94633635.78843  23110496.758                    23110502.270
        39.600          21.700
                  90501751.351 6  21790377.156                    21790376.008
                        39.100
                  79689434.654 5  19220831.281                    19220834.539
                        34.600
                  88541231.770 6  21303366.711                    21303368.313
                        38.900
                  96042268.800 5  23091924.508                    23091928.672
                        34.900
                  88681934.218 6  21359720.930                    21359723.273
                        39.200
 114960516.357 8  89579675.21745  21876269.008                    21876272.508
        48.600          31.500
 129287302.396 6 100743272.56443  24602533.000                    24602534.293
        38.600          21.800
 117015535.125 7  91180959.93246  22267316.492                    22267323.602
        44.900          36.100
 121541953.177 7  94708042.04145  23128666.867                    23128673.195
        45.300          31.300
                  84025226.802 6  20195525.148                    20195525.543
                        38.900
 109445152.954 7  85281959.44645  20826719.805                    20826726.289
        45.400          35.200
 120093028.236 7  93579006.01844  22852943.539                    22852949.680
        44.700          26.800
 125485946.630 7  97781274.46044  23879181.344                    23879185.336
        43.800          29.600
 116418510.745 7  90715729.69045  22153706.461                    22153708.199
        43.700          30.500
 18  3 15 13 15 21.0000000  0 18R01R02G11G12R09R10R11R20R18G17G22G01
                                G10R19G24G32G28G19
                  87495653.069 6  21044409.016                    21044411.496
                        36.700
                  85842780.718 6  20683158.477                    20683159.402
                        37.600
 121023486.354 7  94304022.54745  23030003.984                    23030007.285
        46.000          30.400
 121443088.876 6  94631018.95243  23109858.000                    23109863.055
        40.000          21.700
                  90505155.660 6  21791197.086                    21791196.660
                        39.000
                  79690001.771 5  19220968.227                    19220971.539
                        35.200
                  88538670.185 6  21302750.398                    21302752.477
                        39.000
                  96039055.976 5  23091152.680                    23091155.770
                        34.800
                  88684662.381 6  21360377.484                    21360380.027
                        38.800
 114959879.844 8  89579179.23745  21876147.828                    21876151.379
        48.300          32.300
 129284842.988 6 100741356.14043  24602065.242                    24602066.547
        38.500          23.000
 117016205.940 7  91181482.63945  22267444.164                    22267451.688
        44.700          35.700
 121544882.029 7  94710324.28045  23129223.703                    23129230.457
        45.800          30.900
                  84024607.258 6  20195376.789                    20195376.582
                        39.300
 109445774.830 7  85282444.02345  20826838.281                    20826844.547
        45.600          35.200
 120090965.079 7  93577398.34744  22852551.359                    22852556.711
        45.100          27.800
 125489573.712 7  97784100.76944  23879871.180                    23879875.656
        43.400          28.300
 116416241.013 7  90713961.06344  22153274.398                    22153276.461
        42.900          29.700
 18  3 15 13 15 22.0000000  0 18R01R02G11G12R09R10R11R20R18G17G22G01
                                G10R19G24G32G28G19
                  87498239.389 6  21045029.883                    21045033.586
                        36.500
                  85841563.829 6  20682864.820                    20682866.070
                        38.300
 121026045.456 7  94306016.64644  23030491.219                    23030494.379
        45.400          29.100
 121439730.932 6  94628402.35243  23109219.633                    23109223.465
        41.600          22.200
                  90508560.285 6  21792016.055                    21792016.508
                        39.100
                  79690569.549 5  19221104.977                    19221108.348
                        35.800
                  88536108.935 6  21302133.375                    21302135.836
                        39.100
                  96035843.333 5  23090379.594                    23090383.012
                        35.900
                  88687391.087 6  21361033.383                    21361036.898
                        38.600
 114959243.954 8  89578683.73945  21876026.992                    21876030.793
        48.400          32.800
 129282383.939 6 100739439.99643  24601597.180                    24601598.813
        38.300          22.300
 117016877.485 7  91182005.92545  22267571.609                    22267579.074
        44.900          35.500
 121547811.372 7  94712606.89845  23129781.211                    23129787.828
        45.800          31.500
                  84023988.451 6  20195228.695                    20195228.520
                        39.000
 109446397.398 7  85282929.13745  20826956.586                    20826962.988
        45.500          35.400
 120088902.429 7  93575791.03844  22852158.523                    22852163.969
        45.200          27.800
 125493200.947 7  97786927.18745  23880560.945                    23880565.969
        43.300          30.700
 116413971.838 7  90712192.88844  22152843.023                    22152844.617
        43.600          29.900
 18  3 15 13 15 23.0000000  0 18R01R02G11G12R09R10R11R20R18G17G22G01
                                G10R19G24G32G28G19
                  87500826.281 6  21045651.953                    21045655.430
                        36.400
                  85840347.589 6  20682571.688                    20682573.457
                        38.100
 121028605.220 7  94308011.27444  23030978.188                    23030981.410
        45.000          28.900
 121436373.302 6  94625785.99544  23108580.938                    23108584.633
        41.700          24.100
                  90511965.237 6  21792834.648                    21792835.500
                        38.800
                  79691138.039 5  19221241.852                    19221245.637
                        35.000
                  88533548.080 6  21301518.133                    21301520.020
                        38.900
                  96032630.932 6  23089607.109                    23089610.547
                        36.300
                  88690120.301 6  21361690.789                    21361693.602
                        38.700
 114958608.678 8  89578188.71345  21875906.367                    21875909.352
        48.200          33.200
 129279925.233 6 100737524.10743  24601129.250                    24601130.355
        38.500          21.700
 117017549.814 7  91182529.83145  22267699.648                    22267707.109
        45.100          35.500
 121550741.246 7  94714889.94245  23130338.703                    23130345.434
        45.200          31.800
                  84023370.404 6  20195079.398                    20195079.047
                        38.600
 109447020.675 7  85283414.80845  20827075.398                    20827081.262
        45.500          35.400
 120086840.352 7  93574184.17844  22851765.969                    22851771.914
        44.800          26.900
 125496828.483 7  97789753.83444  23881251.695                    23881256.672
        42.600          29.000
 116411703.284 7  90710425.19945  22152411.570                    22152412.992
        44.000          30.800
 18  3 15 13 15 24.0000000  0 18R01R02G11G12R09R10R11R20R18G17G22G01
                                G10R19G24G32G28G19
                  87503413.682 6  21046275.781                    21046278.488
                        36.700
                  85839132.020 6  20682278.195                    20682281.285
                        38.000
 121031165.558 7  94310006.35344  23031465.203                    23031468.285
        45.000          29.400
 121433015.954 6  94623169.85444  23107942.492                    23107945.465
        41.900          26.400
                  90515370.457 6  21793655.984                    21793655.359
                        38.800
                  79691707.168 5  19221379.602                    19221383.141
                        34.700
                  88530987.532 6  21300901.930                    21300903.473
                        39.300
                  96029418.641 6  23088834.125                    23088838.559
                        37.000
                  88692849.999 6  21362348.063                    21362350.781
                        38.500
 114957974.024 8  89577694.17845  21875785.258                    21875789.051
        48.200          32.100
 129277466.846 6 100735608.47943  24600661.258                    24600662.602
        39.200          21.700
 117018222.901 7  91183054.32645  22267827.484                    22267834.672
        45.100          35.500
 121553671.608 7  94717173.35945  23130895.961                    23130902.992
        44.600          30.900
                  84022753.050 6  20194931.156                    20194930.238
                        38.600
 109447644.599 7  85283900.98645  20827193.797                    20827200.637
        44.600          35.500
 120084778.731 7  93572577.68044  22851373.523                    22851379.566
        44.300          27.000
 125500456.195 7  97792580.60844  23881942.156                    23881946.813
        43.300          28.200
 116409435.286 7  90708657.92045  22151980.086                    22151981.543
        44.000          30.500
 18  3 15 13 15 25.0000000  0 18R01R02G11G12R09R10R11R20R18G17G22G01
                                G10R19G24G32G28G19
                  87506001.617 6  21046898.695                    21046901.297
                        36.900
                  85837917.150 6  20681985.867                    20681987.883
                        38.200
 121033726.516 7  94312001.89644  23031952.609                    23031956.035
        45.100          29.000
 121429658.896 7  94620553.96544  23107304.398                    23107307.406
        42.100          26.800
                  90518775.937 6  21794475.938                    21794475.711
                        38.600
                  79692276.984 5  19221517.453                    19221520.500
                        34.200
                  88528427.325 6  21300286.211                    21300287.559
                        39.000
                  96026206.670 6  23088062.320                    23088066.773
                        36.800
                  88695580.248 6  21363004.992                    21363007.676
                        38.800
 114957339.984 8  89577200.11945  21875664.383                    21875668.254
        48.200          33.200
 129275008.828 6 100733693.15543  24600193.727                    24600195.117
        39.200          21.500
 117018896.688 7  91183579.36545  22267956.063                    22267962.734
        45.200          35.800
 121556602.484 7  94719457.17245  23131453.508                    23131461.039
        43.800          31.200
                  84022136.419 6  20194783.352                    20194782.551
                        38.400
 109448269.231 7  85284387.70946  20827312.930                    20827319.199
        44.300          36.000
 120082717.626 7  93570971.59644  22850981.047                    22850987.098
        43.900          26.400
 125504084.108 7  97795407.54044  23882632.336                    23882637.598
        42.700          28.200
 116407167.825 7  90706891.06545  22151548.469                    22151549.887
        44.300          30.100
 18  3 15 13 15 26.0000000  0 18R01R02G11G12R09R10R11R20R18G17G22G01
                                G10R19G24G32G28G19
                  87508590.112 6  21047519.227                    21047523.750
                        36.900
                  85836702.877 6  20681694.203                    20681695.629
                        37.900
 121036288.080 7  94313997.91845  23032439.984                    23032443.316
        45.400          30.000
 121426302.077 7  94617938.27344  23106665.328                    23106668.457
        43.200          28.200
                  90522181.686 6  21795294.766                    21795295.047
                        38.700
                  79692847.433 5  19221654.602                    19221658.055
                        34.600
                  88525867.438 6  21299670.539                    21299671.852
                        39.100
                  96022994.840 6  23087289.703                    23087294.602
                        37.200
                  88698310.959 6  21363662.070                    21363664.793
                        38.900
 114956706.537 8  89576706.52145  21875544.227                    21875547.734
        48.100          33.100
 129272551.110 6 100731778.05743  24599725.773                    24599727.227
        39.200          22.300
 117019571.214 7  91184104.97545  22268084.344                    22268090.645
        45.000          35.200
 121559533.831 7  94721741.34345  23132011.555                    23132018.484
        44.100          31.200
                  84021520.466 6  20194635.305                    20194634.324
                        38.100
 109448894.481 7  85284874.91545  20827432.320                    20827438.340
        44.700          35.800
 120080657.054 7  93569365.94844  22850588.711                    22850594.879
        43.300          25.800
 125507712.193 7  97798234.60944  23883322.539                    23883327.289
        42.100          28.100
 116404900.945 7  90705124.66445  22151116.883                    22151118.289
        44.300          30.900
 18  3 15 13 15 27.0000000  0 18R01R02G11G12R09R10R11R20R18G17G22G01
                                G10R19G24G32G28G19
                  87511179.100 6  21048141.453                    21048145.660
                        36.900
                  85835489.207 6  20681401.773                    20681403.215
                        38.100
 121038850.216 7  94315994.39145  23032927.055                    23032930.809
        45.800          30.600
 121422945.495 7  94615322.77144  23106026.461                    23106030.211
        42.600          26.900
                  90525587.688 6  21796116.273                    21796116.199
                        38.600
                  79693418.540 5  19221792.648                    19221795.887
                        34.700
                  88523307.864 6  21299053.820                    21299055.598
                        39.200
                  96019783.261 6  23086517.000                    23086522.488
                        36.000
                  88701042.177 6  21364319.438                    21364322.641
                        39.100
 114956073.676 8  89576213.38145  21875423.891                    21875427.125
        48.400          33.200
 129270093.635 6 100729863.12243  24599258.688                    24599259.742
        39.200          21.800
 117020246.445 7  91184631.11645  22268213.352                    22268219.363
        45.900          35.500
 121562465.625 7  94724025.84945  23132569.906                    23132576.438
        44.700          31.200
                  84020905.220 6  20194487.016                    20194487.012
                        38.500
 109449520.396 7  85285362.65045  20827551.789                    20827557.348
        44.900          35.600
 120078596.959 7  93567760.69744  22850197.117                    22850202.715
        43.400          27.300
 125511340.512 6  97801061.85344  23884013.828                    23884017.836
        41.400          28.100
 116402634.618 7  90703358.69644  22150686.188                    22150687.480
        43.600          29.700
 18  3 15 13 15 28.0000000  0 18R01R02G11G12R09R10R11R20R18G17G22G01
                                G10R19G24G32G28G19
                  87513768.615 6  21048767.023                    21048768.703
                        36.800
                  85834276.126 6  20681109.164                    20681110.852
                        37.700
 121041412.954 7  94317991.32045  23033415.289                    23033418.633
        45.800          30.800
 121419589.183 7  94612707.47944  23105387.555                    23105391.426
        42.600          25.300
                  90528993.942 6  21796935.953                    21796936.207
                        38.600
                  79693990.290 5  19221929.984                    19221933.613
                        34.900
                  88520748.628 6  21298438.180                    21298440.324
                        39.000
                  96016571.834 6  23085745.227                    23085750.387
                        36.200
                  88703773.924 6  21364979.016                    21364980.723
                        39.300
 114955441.422 8  89575720.71645  21875303.375                    21875306.926
        48.300          33.000
 129267636.583 6 100727948.52444  24598790.961                    24598792.078
        40.600          25.100
 117020922.402 7  91185157.82945  22268342.133                    22268348.164
        45.800          35.400
 121565397.867 7  94726310.70245  23133128.711                    23133134.039
        44.900          30.800
                  84020290.689 6  20194339.469                    20194339.230
                        38.500
 109450146.957 7  85285850.87945  20827670.984                    20827676.465
        44.900          35.900
 120076537.341 7  93566155.83344  22849805.148                    22849810.969
        43.800          27.000
 125514969.010 7  97803889.22844  23884705.125                    23884707.715
        42.800          28.700
 116400368.787 7  90701593.11945  22150253.961                    22150255.676
        43.700          30.600
 18  3 15 13 15 29.0000000  0 18R01R02G11G12R09R10R11R20R18G17G22G01
                                G10R19G24G32G28G19
                  87516358.667 6  21049387.836                    21049391.707
                        36.700
                  85833063.663 6  20680816.789                    20680818.793
                        37.600
 121043976.320 7  94319988.74445  23033902.906                    23033906.465
        45.300          31.000
 121416233.138 6  94610092.38744  23104748.859                    23104752.781
        41.800          24.500
                  90532400.466 6  21797754.969                    21797755.969
                        38.600
                  79694562.681 5  19222068.023                    19222071.918
                        34.700
                  88518189.710 6  21297821.820                    21297824.160
                        39.100
                  96013360.608 6  23084972.336                    23084977.512
                        36.000
                  88706506.133 6  21365637.813                    21365638.301
                        39.800
 114954809.771 8  89575228.52445  21875183.141                    21875186.688
        48.200          33.000
 129265179.812 6 100726034.15344  24598323.297                    24598324.512
        39.500          24.800
 117021599.077 7  91185685.10246  22268470.477                    22268477.426
        45.600          36.500
 121568330.608 7  94728595.95145  23133686.594                    23133692.371
        45.800          30.600
                  84019676.853 6  20194191.789                    20194191.336
                        38.600
 109450774.175 7  85286339.62745  20827789.719                    20827795.684
        44.600          35.700
 120074478.212 7  93564551.35444  22849413.570                    22849419.313
        43.600          27.600
 125518597.646 7  97806716.72544  23885397.031                    23885398.523
        45.000          27.600
 116398103.515 7  90699827.97545  22149823.836                    22149824.852
        43.900          31.000
 18  3 15 13 15 30.0000000  0 18R01R02G11G12R09R10R11R20R18G17G22G01
                                G10R19G24G32G28G19
                  87518949.286 6  21050010.195                    21050014.906
                        36.600
                  85831851.863 6  20680525.422                    20680526.734
                        38.100
 121046540.272 7  94321986.62845  23034390.953                    23034394.441
        44.900          31.100
 121412877.362 6  94607477.49743  23104109.648                    23104113.813
        40.800          22.300
                  90535807.297 6  21798576.117                    21798575.820
                        38.700
                  79695135.737 5  19222206.336                    19222209.543
                        34.700
                  88515631.166 6  21297206.547                    21297208.895
                        38.700
                  96010149.584 6  23084202.438                    23084205.465
                        36.700
                  88709238.818 6  21366297.008                    21366296.703
                        40.600
 114954178.726 8  89574736.79845  21875063.266                    21875066.840
        48.200          32.600
 129262723.396 6 100724120.06144  24597855.789                    24597856.883
        39.200          25.100
 117022276.475 7  91186212.93745  22268599.211                    22268606.137
        45.600          35.700
 121571263.823 7  94730881.57645  23134244.648                    23134250.660
        46.200          31.200
                  84019063.745 6  20194045.102                    20194044.176
                        38.800
 109451402.115 7  85286828.92845  20827909.289                    20827915.148
        44.300          35.000
 120072419.547 7  93562947.21544  22849021.891                    22849027.477
        44.100          27.300
 125522226.490 7  97809544.40144  23886087.094                    23886088.906
        45.400          27.200
 116395838.838 7  90698063.29445  22149392.594                    22149394.008
        44.400          30.500
 18  3 15 13 15 31.0000000  0 18R01R02G11G12R09R10R11R20R18G17G22G01
                                G10R19G24G32G28G19
                  87521540.439 6  21050635.336                    21050638.215
                        36.800
                  85830640.734 6  20680233.477                    20680234.926
                        38.100
 121049104.861 7  94323985.02145  23034879.086                    23034882.449
        45.000          30.800
 121409521.875 6  94604862.82943  23103470.820                    23103475.492
        40.300          22.000
                  90539214.364 6  21799396.750                    21799396.680
                        38.500
                  79695709.448 5  19222345.000                    19222348.180
                        35.200
                  88513072.970 6  21296591.125                    21296592.660
                        38.700
                  96006938.679 6  23083430.867                    23083434.078
                        36.300
                  88711971.988 6  21366956.680                    21366956.113
                        40.600
 114953548.291 7  89574245.55045  21874943.117                    21874946.746
        47.800          32.100
 129260267.335 6 100722206.25444  24597388.852                    24597389.996
        39.900          26.100
 117022954.615 7  91186741.36545  22268728.375                    22268735.500
        46.000          35.500
 121574197.528 7  94733167.59245  23134802.859                    23134809.035
        45.800          30.800
                  84018451.347 6  20193896.953                    20193896.773
                        39.000
 109452030.689 7  85287318.72045  20828028.672                    20828034.977
        44.500          35.400
 120070361.401 7  93561343.45844  22848629.969                    22848635.754
        43.200          26.700
 125525855.539 7  97812372.27144  23886776.547                    23886779.402
        44.400          27.500
 116393574.699 7  90696299.03045  22148961.586                    22148963.637
        43.800          31.000
 18  3 15 13 15 32.0000000  0 18R01R02G11G12R09R10R11R20R18G17G22G01
                                G10R19G24G32G28G19
                  87524132.117 6  21051258.656                    21051261.027
                        36.700
                  85829430.275 6  20679941.977                    20679943.355
                        37.900
 121051670.004 7  94325983.84545  23035366.789                    23035370.434
        45.600          30.900
 121406166.603 6  94602248.31243  23102831.820                    23102836.520
        40.400          21.700
                  90542621.729 6  21800215.773                    21800217.508
                        38.700
                  79696283.802 5  19222483.281                    19222486.594
                        35.400
                  88510515.081 6  21295975.648                    21295977.281
                        38.800
                  96003728.046 6  23082658.563                    23082661.898
                        36.100
                  88714705.672 6  21367615.586                    21367614.973
                        40.400
 114952918.450 8  89573754.76745  21874823.391                    21874826.746
        48.000          32.700
 129257811.564 6 100720292.67044  24596921.516                    24596922.535
        39.400          26.700
 117023633.458 7  91187270.34745  22268857.742                    22268864.633
        46.300          35.700
 121577131.724 7  94735454.00445  23135360.375                    23135366.949
        44.800          30.200
                  84017839.640 6  20193750.383                    20193749.836
                        38.600
 109452659.926 7  85287809.03345  20828148.906                    20828154.738
        44.600          35.400
 120068303.735 7  93559740.06444  22848238.461                    22848244.219
        44.200          27.300
 125529484.801 7  97815200.29044  23887466.375                    23887469.949
        43.400          28.300
 116391311.081 7  90694535.17745  22148530.328                    22148532.605
        43.700          30.600
 18  3 15 13 15 33.0000000  0 18R01R02G11G12R09R10R11R20R18G17G22G01
                                G10R19G24G32G28G19
                  87526724.366 6  21051881.273                    21051885.637
                        36.500
                  85828220.480 6  20679649.570                    20679652.285
                        37.500
 121054235.769 7  94327983.14645  23035855.438                    23035858.840
        46.100          30.400
 121402811.673 6  94599634.04443  23102193.969                    23102197.676
        40.400          21.500
                  90546029.379 6  21801036.852                    21801037.750
                        38.700
                  79696858.840 5  19222621.773                    19222625.270
                        34.500
                  88507957.541 6  21295360.383                    21295362.293
                        39.300
                  96000517.601 6  23081886.289                    23081890.078
                        36.200
                  88717439.885 6  21368273.633                    21368274.141
                        40.300
 114952289.245 8  89573264.48545  21874703.727                    21874707.023
        48.500          33.000
 129255356.167 6 100718379.37244  24596454.414                    24596455.059
        39.000          25.200
 117024313.066 7  91187799.91845  22268986.656                    22268993.621
        46.100          35.100
 121580066.425 7  94737740.81145  23135918.219                    23135926.227
        44.500          30.900
                  84017228.679 6  20193603.555                    20193603.355
                        38.900
 109453289.848 7  85288299.87545  20828269.000                    20828274.898
        44.700          35.600
 120066246.571 7  93558137.05144  22847846.867                    22847853.016
        44.000          27.600
 125533114.290 7  97818028.45544  23888157.477                    23888160.297
        43.300          27.900
 116389048.105 7  90692771.82245  22148100.617                    22148101.910
        43.200          30.900
 18  3 15 13 15 34.0000000  0 18R01R02G11G12R09R10R11R20R18G17G22G01
                                G10R19G24G32G28G19
                  87529317.146 6  21052504.648                    21052509.363
                        36.700
                  85827011.243 6  20679357.984                    20679360.309
                        37.200
 121056802.133 7  94329982.89444  23036343.727                    23036347.164
        45.600          29.500
 121399457.010 6  94597020.00743  23101555.844                    23101559.543
        39.800          22.300
                  90549437.279 6  21801858.875                    21801858.480
                        38.900
                  79697434.521 5  19222761.430                    19222764.332
                        35.000
                  88505400.330 6  21294744.063                    21294747.500
                        39.100
                  95997307.356 5  23081114.844                    23081117.676
                        35.900
                  88720174.620 6  21368932.500                    21368932.594
                        40.400
 114951660.636 8  89572774.66545  21874584.430                    21874587.316
        48.500          32.700
 129252901.095 6 100716466.31744  24595987.727                    24595988.215
        39.200          24.400
 117024993.378 7  91188330.02645  22269116.555                    22269123.461
        46.400          35.600
 121583001.621 7  94740027.98445  23136475.711                    23136484.609
        42.700          31.300
                  84016618.440 6  20193456.438                    20193456.344
                        38.600
 109453920.440 7  85288791.24745  20828388.609                    20828394.727
        44.500          35.200
 120064189.923 7  93556534.44944  22847455.953                    22847461.504
        44.500          28.200
 125536743.938 7  97820856.74944  23888850.070                    23888850.879
        45.300          28.700
 116386785.638 7  90691008.85644  22147669.242                    22147671.273
        43.000          29.800
 18  3 15 13 15 35.0000000  0 18R01R02G11G12R09R10R11R20R18G17G22G01
                                G10R19G24G32G28G19
                  87531910.446 6  21053128.172                    21053132.176
                        36.500
                  85825802.633 6  20679066.164                    20679069.344
                        37.200
 121059369.082 7  94331983.09945  23036832.305                    23036835.234
        45.300          30.500
 121396102.612 6  94594406.18244  23100917.664                    23100921.203
        41.300          24.700
                  90552845.464 6  21802678.922                    21802679.129
                        38.700
                  79698010.851 5  19222899.633                    19222903.715
                        34.900
                  88502843.477 6  21294129.500                    21294131.723
                        38.600
                  95994097.295 6  23080343.352                    23080345.258
                        36.200
                  88722909.853 6  21369590.789                    21369592.055
                        39.800
 114951032.630 8  89572285.31045  21874464.773                    21874467.895
        48.800          33.100
 129250446.355 6 100714553.52644  24595519.992                    24595521.082
        39.700          27.200
 117025674.438 7  91188860.70645  22269245.641                    22269252.922
        46.400          35.800
 121585937.346 7  94742315.55045  23137034.961                    23137042.844
        42.500          31.900
                  84016008.925 6  20193310.055                    20193310.074
                        39.100
 109454551.719 7  85289283.15545  20828508.563                    20828514.621
        44.400          35.700
 120062133.729 7  93554932.20744  22847065.047                    22847070.262
        45.000          27.900
 125540373.748 7  97823685.17544  23889540.305                    23889541.340
        46.300          28.800
 116384523.752 7  90689246.34645  22147239.023                    22147240.934
        43.100          30.200
 18  3 15 13 15 36.0000000  0 18R01R02G11G12R09R10R11R20R18G17G22G01
                                G10R19G24G32G28G19
                  87534504.313 6  21053752.695                    21053756.664
                        36.800
                  85824594.670 6  20678776.500                    20678778.469
                        37.600
 121061936.693 7  94333983.82845  23037320.359                    23037323.508
        44.900          30.500
 121392748.516 6  94591792.60944  23100279.492                    23100283.594
        40.100          25.500
                  90556253.934 6  21803498.031                    21803499.957
                        38.900
                  79698587.848 5  19223039.070                    19223042.609
                        35.200
                  88500286.937 6  21293513.695                    21293516.609
                        38.900
                  95990887.484 6  23079572.000                    23079573.914
                        36.300
                  88725645.586 6  21370249.133                    21370250.879
                        39.800
 114950405.266 8  89571796.45145  21874345.266                    21874348.633
        49.100          33.100
 129247991.971 6 100712641.02744  24595052.844                    24595054.168
        39.400          25.200
 117026356.222 7  91189391.95945  22269375.367                    22269383.035
        46.000          35.400
 121588873.556 7  94744603.47045  23137594.711                    23137601.527
        42.300          30.400
                  84015400.139 6  20193163.953                    20193164.066
                        38.900
 109455183.696 7  85289775.60645  20828628.766                    20828634.824
        44.500          35.600
 120060078.088 7  93553330.39344  22846673.328                    22846679.086
        45.000          27.400
 125544003.792 7  97826513.81244  23890230.398                    23890232.445
        46.000          29.500
 116382262.454 7  90687484.30145  22146809.617                    22146810.539
        43.000          31.400
 18  3 15 13 15 37.0000000  0 18R01R02G11G12R09R10R11R20R18G17G22G01
                                G10R19G24G32G28G19
                  87537098.687 6  21054376.914                    21054380.359
                        36.900
                  85823387.318 6  20678485.797                    20678487.234
                        37.500
 121064504.854 7  94335984.99345  23037809.281                    23037812.918
        44.900          30.300
 121389394.646 6  94589179.22044  23099640.883                    23099645.617
        39.500          26.400
                  90559662.686 6  21804319.750                    21804320.086
                        38.600
                  79699165.485 5  19223178.500                    19223181.699
                        34.600
                  88497730.739 6  21292900.086                    21292902.090
                        38.900
                  95987677.773 6  23078800.711                    23078802.094
                        36.200
                  88728381.811 6  21370907.055                    21370909.871
                        39.400
 114949778.457 8  89571308.02445  21874226.094                    21874229.594
        48.900          31.900
 129245537.854 6 100710728.74044  24594586.102                    24594586.938
        39.700          25.300
 117027038.733 7  91189923.78545  22269505.484                    22269512.656
        46.300          35.500
 121591810.204 7  94746891.73945  23138154.695                    23138160.387
        44.600          31.500
                  84014792.023 6  20193017.492                    20193017.133
                        38.900
 109455816.309 7  85290268.55845  20828749.984                    20828755.000
        44.300          35.200
 120058022.939 7  93551728.95844  22846282.867                    22846288.344
        45.500          27.800
 125547634.052 7  97829342.61344  23890919.992                    23890923.379
        44.300          28.100
 116380001.678 7  90685722.66045  22146379.094                    22146380.504
        43.200          30.700
 18  3 15 13 15 38.0000000  0 18R01R02G11G12R09R10R11R20R18G17G22G01
                                G10R19G24G32G28G19
                  87539693.597 5  21055001.273                    21055004.816
                        35.800
                  85822180.645 6  20678194.875                    20678196.242
                        37.500
 121067073.636 7  94337986.64644  23038298.289                    23038301.660
        44.900          29.700
 121386041.057 6  94586566.05643  23099001.500                    23099007.563
        38.700          23.800
                  90563071.668 6  21805141.273                    21805140.738
                        39.300
                  79699743.797 5  19223317.992                    19223321.184
                        34.400
                  88495174.868 6  21292284.523                    21292286.676
                        38.500
                  95984468.308 6  23078026.352                    23078031.238
                        37.200
                  88731118.594 6  21371565.219                    21371568.742
                        39.400
 114949152.290 8  89570820.09845  21874107.273                    21874110.313
        49.200          32.800
 129243084.131 6 100708816.74844  24594118.727                    24594119.984
        40.200          25.400
 117027721.983 7  91190456.19046  22269635.375                    22269642.586
        46.700          36.500
 121594747.338 7  94749180.40045  23138714.523                    23138719.359
        46.000          32.200
                  84014184.639 6  20192871.766                    20192871.512
                        38.700
 109456449.583 7  85290762.01645  20828870.203                    20828875.633
        45.200          35.500
 120055968.273 7  93550127.89844  22845891.117                    22845897.453
        45.100          27.500
 125551264.531 7  97832171.58644  23891609.805                    23891614.598
        42.300          28.700
 116377741.488 7  90683961.46045  22145948.125                    22145950.063
        42.700          30.500
 18  3 15 13 15 39.0000000  0 18R01R02G11G12R09R10R11R20R18G17G22G01
                                G10R19G24G32G28G19
                  87542289.043 6  21055625.406                    21055628.449
                        36.600
                  85820974.642 6  20677904.695                    20677905.648
                        37.900
 121069643.050 7  94339988.78944  23038787.211                    23038790.516
        44.200          29.800
 121382687.772 6  94583953.13543  23098363.398                    23098369.320
        37.500          23.000
                  90566480.927 6  21805961.461                    21805961.906
                        38.900
                  79700322.754 5  19223457.883                    19223461.004
                        34.700
                  88492619.362 6  21291670.070                    21291672.055
                        38.500
                  95981259.069 5  23077253.695                    23077259.590
                        35.900
                  88733855.905 6  21372224.055                    21372228.176
                        39.300
 114948526.729 8  89570332.64645  21873988.117                    21873990.770
        49.100          32.800
 129240630.718 6 100706904.99044  24593651.773                    24593653.137
        39.900          26.400
 117028405.954 7  91190989.15346  22269765.742                    22269772.598
        46.800          36.400
 121597684.956 7  94751469.46945  23139273.609                    23139278.348
        45.500          30.700
                  84013577.976 6  20192725.656                    20192725.652
                        38.800
 109457083.544 7  85291256.01046  20828990.984                    20828996.375
        45.100          36.100
 120053914.106 7  93548527.22244  22845499.180                    22845506.418
        43.600          26.500
 125554895.228 7  97835000.68644  23892301.273                    23892305.406
        42.200          28.500
 116375481.873 7  90682200.72945  22145518.250                    22145519.879
        42.600          30.500
 18  3 15 13 15 40.0000000  0 18R01R02G11G12R09R10R11R20R18G17G22G01
                                G10R19G24G32G28G19
                  87544885.055 6  21056248.641                    21056252.840
                        36.700
                  85819769.294 6  20677613.672                    20677615.273
                        37.700
 121072213.063 7  94341991.40445  23039276.352                    23039279.516
        44.500          30.200
 121379334.697 6  94581340.39643  23097725.375                    23097731.063
        37.800          22.900
                  90569890.503 6  21806781.992                    21806782.672
                        38.900
                  79700902.370 5  19223597.258                    19223600.449
                        34.600
                  88490064.178 6  21291055.320                    21291057.113
                        38.900
                  95978050.096 5  23076482.813                    23076488.434
                        35.800
                  88736593.747 6  21372882.563                    21372887.082
                        39.700
 114947901.756 8  89569845.65145  21873869.094                    21873872.188
        48.700          32.400
 129238177.659 6 100704993.51044  24593184.844                    24593186.090
        40.500          26.700
 117029090.621 7  91191522.64346  22269895.672                    22269902.730
        47.100          36.100
 121600623.062 7  94753758.93445  23139831.625                    23139837.973
        46.600          31.800
                  84012972.028 6  20192580.039                    20192580.465
                        38.900
 109457718.138 7  85291750.50345  20829111.648                    20829117.820
        45.100          35.800
 120051860.396 7  93546926.89544  22845108.820                    22845115.438
        43.000          26.300
 125558526.103 7  97837829.91144  23892992.914                    23892996.238
        42.100          28.200
 116373222.809 7  90680440.42145  22145088.969                    22145090.352
        43.600          30.500
 18  3 15 13 15 41.0000000  0 18R01R02G11G12R09R10R11R20R18G17G22G01
                                G10R19G24G32G28G19
                  87547481.545 6  21056873.883                    21056877.711
                        36.600
                  85818564.587 6  20677322.867                    20677324.945
                        37.900
 121074783.640 7  94343994.45144  23039765.438                    23039768.453
        44.400          29.900
 121375981.906 6  94578727.86744  23097088.578                    23097093.313
        39.700          25.100
                  90573300.299 6  21807604.578                    21807603.496
                        39.100
                  79701482.636 5  19223737.547                    19223740.676
                        34.400
                  88487509.313 6  21290441.063                    21290442.418
                        38.900
                  95974841.241 5  23075711.727                    23075716.449
                        35.400
                  88739332.028 6  21373541.813                    21373546.590
                        39.500
 114947277.393 8  89569359.13345  21873750.313                    21873753.602
        48.500          32.700
 129235724.917 6 100703082.28044  24592718.273                    24592719.324
        40.500          25.900
 117029776.017 7  91192056.70445  22270025.875                    22270033.047
        47.300          35.600
 121603561.610 7  94756048.75345  23140390.648                    23140396.859
        45.900          30.200
                  84012366.760 6  20192435.172                    20192434.504
                        38.600
 109458353.387 7  85292245.50345  20829232.328                    20829238.520
        45.300          35.800
 120049807.211 7  93545326.98744  22844718.023                    22844724.473
        42.300          26.000
 125562157.167 7  97840659.29444  23893683.547                    23893687.340
        42.100          28.200
 116370964.277 7  90678680.52745  22144659.039                    22144660.551
        43.900          30.900
 18  3 15 13 15 42.0000000  0 18R01R02G11G12R09R10R11R20R18G17G22G01
                                G10R19G24G32G28G19
                  87550078.593 6  21057498.563                    21057501.680
                        36.900
                  85817360.491 6  20677032.898                    20677034.520
                        37.900
 121077354.835 7  94345997.99444  23040254.758                    23040257.852
        44.200          29.800
 121372629.388 6  94576115.53443  23096451.648                    23096454.773
        41.900          22.500
                  90576710.404 6  21808424.477                    21808424.520
                        38.700
                  79702063.539 5  19223877.617                    19223880.781
                        34.700
                  88484954.814 6  21289826.563                    21289828.340
                        39.200
                  95971632.543 5  23074940.055                    23074943.961
                        35.000
                  88742070.786 6  21374201.188                    21374205.805
                        39.600
 114946653.642 8  89568873.09145  21873631.531                    21873634.691
        48.400          32.400
 129233272.479 6 100701171.29544  24592251.789                    24592253.031
        40.400          25.700
 117030462.146 7  91192591.34046  22270156.375                    22270164.305
        47.000          36.800
 121606500.666 7  94758338.95345  23140948.383                    23140956.016
        44.600          30.800
                  84011762.234 6  20192289.234                    20192289.344
                        38.600
 109458989.284 7  85292741.01045  20829353.180                    20829359.027
        45.300          35.600
 120047754.455 7  93543727.44344  22844327.977                    22844333.734
        42.100          26.400
 125565788.410 6  97843488.81744  23894374.563                    23894378.250
        41.400          29.100
 116368706.295 7  90676921.05945  22144229.313                    22144230.840
        43.700          30.500
 18  3 15 13 15 43.0000000  0 18R01R02G11G12R09R10R11R20R18G17G22G01
                                G10R19G24G32G28G19
                  87552676.148 6  21058123.078                    21058126.531
                        36.800
                  85816157.007 6  20676743.789                    20676744.180
                        37.700
 121079926.597 7  94348001.96244  23040744.352                    23040746.609
        44.100          29.100
 121369277.128 7  94573503.37143  23095813.711                    23095816.918
        43.000          23.900
                  90580120.737 6  21809245.586                    21809245.836
                        38.700
                  79702645.107 5  19224017.195                    19224021.070
                        34.400
                  88482400.644 6  21289210.938                    21289213.363
                        38.800
                  95968424.089 5  23074171.148                    23074172.496
                        35.800
                  88744810.021 6  21374861.414                    21374865.633
                        39.500
 114946030.472 8  89568387.50645  21873512.570                    21873516.035
        48.400          32.700
 129230820.380 6 100699260.56244  24591785.688                    24591786.023
        40.700          26.200
 117031149.016 7  91193126.55546  22270287.039                    22270294.871
        47.200          36.300
 121609440.214 7  94760629.51845  23141506.703                    23141515.641
        43.200          31.000
                  84011158.404 6  20192144.594                    20192144.203
                        38.700
 109459625.875 7  85293237.05345  20829474.367                    20829479.938
        45.000          35.200
 120045702.302 7  93542128.36344  22843938.023                    22843943.313
        43.500          26.200
 125569419.821 6  97846318.48344  23895065.953                    23895070.020
        41.700          28.700
 116366448.891 7  90675162.04045  22143800.289                    22143801.082
        44.300          30.600
 18  3 15 13 15 44.0000000  0 18R01R02G11G12R09R10R11R20R18G17G22G01
                                G10R19G24G32G28G19
                  87555274.239 6  21058748.336                    21058751.613
                        37.000
                  85814954.141 6  20676453.797                    20676455.203
                        37.800
 121082498.975 7  94350006.42044  23041233.828                    23041236.531
        44.500          29.700
 121365925.187 7  94570891.42443  23095175.992                    23095178.750
        43.100          23.200
                  90583531.333 6  21810066.484                    21810067.258
                        38.500
                  79703227.307 5  19224158.117                    19224161.621
                        34.600
                  88479846.770 6  21288597.359                    21288598.707
                        39.000
                  95965215.717 5  23073400.141                    23073401.406
                        35.800
                  88747549.770 6  21375522.586                    21375524.941
                        39.700
 114945407.902 8  89567902.38545  21873394.445                    21873397.734
        48.900          32.400
 129228368.594 6 100697350.08044  24591318.703                    24591319.789
        40.400          26.100
 117031836.592 7  91193662.33345  22270418.156                    22270425.867
        47.600          35.700
 121612380.265 7  94762920.45945  23142066.711                    23142074.973
        42.300          30.500
                  84010555.267 6  20191998.914                    20191998.863
                        38.600
 109460263.105 7  85293733.59545  20829595.930                    20829601.445
        45.300          35.000
 120043650.589 7  93540529.62344  22843547.586                    22843552.371
        44.500          26.600
 125573051.440 6  97849148.32044  23895756.734                    23895761.121
        41.300          29.300
 116364192.029 7  90673403.44445  22143370.367                    22143371.949
        43.800          30.600
 18  3 15 13 15 45.0000000  0 18R01R02G11G12R09R10R11R20R18G17G22G01
                                G10R19G24G32G28G19
                  87557872.866 6  21059372.672                    21059376.746
                        37.200
                  85813751.855 6  20676163.383                    20676164.824
                        37.800
 121085071.889 7  94352011.29044  23041723.531                    23041725.871
        44.200          29.400
 121362573.443 7  94568279.61444  23094538.391                    23094540.840
        42.300          24.000
                  90586942.212 6  21810887.258                    21810888.004
                        38.700
                  79703810.160 5  19224298.008                    19224302.473
                        34.800
                  88477293.193 6  21287982.469                    21287984.309
                        38.700
                  95962007.566 6  23072628.297                    23072629.602
                        36.500
                  88750290.032 6  21376183.602                    21376185.344
                        39.700
 114944785.917 8  89567417.72245  21873276.344                    21873279.141
        48.800          32.100
 129225917.115 6 100695439.84744  24590852.078                    24590853.242
        40.700          27.200
 117032524.886 7  91194198.67545  22270549.000                    22270556.809
        47.300          35.600
 121615320.765 7  94765211.70845  23142627.883                    23142634.320
        43.400          30.300
                  84009952.836 6  20191854.758                    20191854.539
                        38.700
 109460900.993 7  85294230.64445  20829717.602                    20829722.836
        45.600          35.900
 120041599.323 7  93538931.22244  22843157.633                    22843162.414
        44.600          26.800
 125576683.246 6  97851978.29544  23896447.492                    23896452.324
        40.400          28.900
 116361935.697 7  90671645.25945  22142940.609                    22142942.039
        43.300          30.700
 18  3 15 13 15 46.0000000  0 18R01R02G11G12R09R10R11R20R18G17G22G01
                                G10R19G24G32G28G19
                  87560472.039 6  21059997.758                    21060001.703
                        36.400
                  85812550.226 6  20675874.273                    20675875.406
                        37.700
 121087645.480 7  94354016.68744  23042213.008                    23042215.207
        44.400          29.300
 121359222.046 7  94565668.08944  23093900.469                    23093903.074
        42.200          26.000
                  90590353.339 6  21811709.992                    21811709.770
                        38.600
                  79704393.663 5  19224439.234                    19224442.340
                        34.900
                  88474740.014 6  21287368.758                    21287370.305
                        38.900
                  95958799.659 6  23071857.094                    23071859.281
                        36.700
                  88753030.794 6  21376844.219                    21376845.727
                        39.800
 114944164.557 8  89566933.54345  21873157.703                    21873160.957
        48.300          32.300
 129223465.996 6 100693529.87444  24590385.750                    24590386.852
        41.300          26.400
 117033213.932 8  91194735.60446  22270680.203                    22270687.879
        48.300          36.000
 121618261.735 7  94767503.33845  23143188.266                    23143193.723
        44.100          31.500
                  84009351.129 6  20191709.930                    20191709.934
                        38.700
 109461539.550 7  85294728.22245  20829838.727                    20829844.547
        45.200          35.500
 120039548.613 7  93537333.23144  22842767.359                    22842772.059
        44.900          28.100
 125580315.299 6  97854808.43844  23897140.461                    23897142.891
        41.400          28.300
 116359679.966 7  90669887.55445  22142511.914                    22142512.566
        43.800          30.700
 18  3 15 13 15 47.0000000  0 18R01R02G11G12R09R10R11R20R18G17G22G01
                                G10R19G24G32G28G19
                  87563071.709 6  21060624.422                    21060626.516
                        36.600
                  85811349.252 6  20675585.453                    20675587.043
                        38.000
 121090219.653 7  94356022.53644  23042703.188                    23042704.984
        44.300          29.100
 121355870.854 6  94563056.74844  23093261.641                    23093265.965
        41.300          24.700
                  90593764.763 6  21812531.016                    21812530.762
                        38.500
                  79704977.857 5  19224580.297                    19224583.590
                        34.900
                  88472187.175 6  21286754.094                    21286755.883
                        38.900
                  95955592.020 6  23071086.359                    23071088.234
                        36.300
                  88755772.019 6  21377505.086                    21377506.199
                        39.900
 114943543.801 8  89566449.84145  21873040.086                    21873042.875
        48.100          32.900
 129221015.235 6 100691620.19444  24589919.398                    24589920.359
        41.600          28.200
 117033903.679 8  91195273.07745  22270811.398                    22270819.141
        48.300          35.600
 121621203.176 7  94769795.35345  23143748.336                    23143753.703
        45.600          31.800
                  84008750.150 6  20191565.602                    20191565.480
                        38.800
 109462178.800 7  85295226.34346  20829960.078                    20829966.273
        45.100          36.100
 120037498.400 7  93535735.63444  22842376.406                    22842382.391
        44.900          27.400
 125583947.496 7  97857638.68144  23897833.328                    23897834.031
        44.100          29.200
 116357424.761 7  90668130.24945  22142082.773                    22142083.879
        43.900          31.200
 18  3 15 13 15 48.0000000  0 18R01R02G11G12R09R10R11R20R18G17G22G01
                                G10R19G24G32G28G19
                  87565671.932 6  21061248.742                    21061252.273
                        36.100
                  85810148.918 6  20675295.953                    20675298.316
                        38.100
 121092794.394 7  94358028.83544  23043192.508                    23043194.543
        44.100          28.700
 121352519.902 6  94560445.62343  23092623.531                    23092627.848
        39.300          23.400
                  90597176.422 6  21813353.242                    21813352.316
                        38.300
                  79705562.672 5  19224721.898                    19224725.051
                        34.800
                  88469634.650 6  21286140.164                    21286141.586
                        39.000
                  95952384.544 6  23070313.984                    23070316.809
                        36.700
                  88758513.749 6  21378165.766                    21378166.633
                        40.200
 114942923.654 8  89565966.61445  21872921.672                    21872924.609
        48.100          33.100
 129218564.737 6 100689710.72144  24589453.023                    24589454.184
        41.200          27.700
 117034594.186 8  91195811.14046  22270942.727                    22270950.461
        48.000          36.000
 121624145.063 7  94772087.73945  23144308.391                    23144313.594
        46.700          31.600
                  84008149.873 6  20191421.203                    20191420.590
                        38.900
 109462818.699 7  85295724.97246  20830081.820                    20830088.207
        44.900          36.000
 120035448.679 7  93534138.42744  22841986.477                    22841992.484
        44.500          27.600
 125587579.846 7  97860469.07644  23898524.570                    23898525.484
        45.800          29.600
 116355170.133 7  90666373.39645  22141653.078                    22141654.742
        42.600          30.300
 18  3 15 13 15 49.0000000  0 18R01R02G11G12R09R10R11R20R18G17G22G01
                                G10R19G24G32G28G19
                  87568272.683 6  21061873.633                    21061878.492
                        36.400
                  85808949.211 6  20675005.969                    20675009.367
                        37.500
 121095369.706 7  94360035.56944  23043682.914                    23043684.547
        44.200          29.300
 121349169.212 6  94557834.74644  23091985.242                    23091990.805
        38.700          24.100
                  90600588.356 6  21814173.602                    21814173.391
                        38.500
                  79706148.135 5  19224863.063                    19224866.141
                        34.800
                  88467082.409 6  21285526.461                    21285527.789
                        39.100
                  95949177.229 5  23069541.516                    23069545.844
                        35.800
                  88761255.986 6  21378826.094                    21378826.961
                        39.700
 114942304.082 8  89565483.82045  21872803.703                    21872806.934
        48.100          32.800
 129216114.615 6 100687801.54044  24588987.086                    24588988.020
        41.200          27.100
 117035285.372 8  91196349.72945  22271074.063                    22271082.176
        48.300          35.900
 121627087.441 7  94774380.52145  23144867.828                    23144873.828
        46.700          30.600
                  84007550.289 6  20191277.656                    20191276.773
                        38.600
 109463459.290 7  85296224.12946  20830203.500                    20830209.930
        45.300          36.200
 120033399.506 7  93532541.66644  22841596.477                    22841601.961
        44.900          28.700
 125591212.359 7  97863299.64044  23899214.586                    23899217.020
        45.400          28.800
 116352916.040 7  90664616.96645  22141224.586                    22141225.645
        43.100          30.100
 18  3 15 13 15 50.0000000  0 18R01R02G11G12R09R10R11R20R18G17G22G01
                                G10R19G24G32G28G19
                  87570873.971 6  21062499.648                    21062503.246
                        36.800
                  85807750.182 6  20674717.297                    20674719.918
                        38.300
 121097945.662 7  94362042.80144  23044173.383                    23044174.719
        44.500          29.100
 121345818.821 6  94555224.09743  23091348.125                    23091353.438
        38.700          22.600
                  90604000.587 6  21814994.930                    21814995.285
                        38.900
                  79706734.248 5  19225003.734                    19225007.547
                        34.400
                  88464530.518 6  21284912.477                    21284913.664
                        39.300
                  95945970.142 5  23068770.211                    23068774.230
                        35.500
                  88763998.781 6  21379486.953                    21379487.965
                        39.800
 114941685.137 8  89565001.52645  21872685.617                    21872688.938
        48.200          32.500
 129213664.793 6 100685892.58944  24588520.445                    24588521.625
        40.800          27.200
 117035977.308 8  91196888.89346  22271206.164                    22271213.781
        48.600          36.600
 121630030.334 7  94776673.70845  23145426.820                    23145433.438
        45.300          30.200
                  84006951.436 6  20191133.781                    20191133.078
                        39.100
 109464100.560 7  85296723.81545  20830326.156                    20830331.863
        45.400          35.900
 120031350.783 7  93530945.27544  22841206.484                    22841212.590
        44.700          28.200
 125594845.100 7  97866130.38244  23899904.492                    23899908.578
        43.900          28.600
 116350662.526 7  90662860.97345  22140796.023                    22140797.078
        43.400          30.200
 18  3 15 13 15 51.0000000  0 18R01R02G11G12R09R10R11R20R18G17G22G01
                                G10R19G24G32G28G19
                  87573475.824 6  21063127.070                    21063129.492
                        36.700
                  85806551.845 6  20674429.258                    20674432.168
                        37.600
 121100522.251 7  94364050.53944  23044663.414                    23044665.520
        44.600          28.300
 121342468.746 6  94552613.70943  23090710.648                    23090715.801
        40.200          22.300
                  90607413.091 6  21815817.047                    21815816.844
                        38.500
                  79707321.052 5  19225145.711                    19225149.621
                        34.800
                  88461979.043 6  21284298.508                    21284299.746
                        38.600
                  95942763.215 5  23067998.734                    23068003.684
                        35.200
                  88766742.100 6  21380147.531                    21380148.633
                        39.800
 114941066.821 8  89564519.72345  21872567.820                    21872572.055
        48.200          32.500
 129211215.381 6 100683983.96544  24588054.711                    24588055.816
        41.000          26.900
 117036669.999 8  91197428.64646  22271337.320                    22271345.379
        48.100          36.500
 121632973.744 7  94778967.28745  23145985.734                    23145993.410
        44.100          30.400
                  84006353.312 6  20190990.125                    20190989.629
                        39.000
 109464742.515 7  85297224.03845  20830448.320                    20830454.039
        45.700          35.400
 120029302.611 7  93529349.30544  22840816.656                    22840823.035
        44.700          27.200
 125598478.135 7  97868961.33244  23900595.305                    23900599.457
        42.700          28.900
 116348409.605 7  90661105.45445  22140366.570                    22140368.219
        43.200          30.700
 18  3 15 13 15 52.0000000  0 18R01R02G11G12R09R10R11R20R18G17G22G01
                                G10R19G24G32G28G19
                  87576078.177 6  21063752.695                    21063755.488
                        36.700
                  85805354.119 6  20674140.805                    20674143.234
                        37.700
 121103099.402 7  94366058.69944  23045153.859                    23045155.445
        44.600          28.700
 121339118.917 6  94550003.45943  23090074.961                    23090078.004
        40.800          21.300
                  90610825.859 6  21816639.586                    21816637.918
                        38.900
                  79707908.500 5  19225286.813                    19225290.723
                        34.600
                  88459427.866 6  21283684.234                    21283686.254
                        38.500
                  95939556.506 5  23067225.828                    23067232.168
                        35.100
                  88769485.864 6  21380808.133                    21380809.266
                        39.400
 114940449.113 8  89564038.39745  21872450.875                    21872454.164
        48.300          32.900
 129208766.281 6 100682075.59444  24587588.445                    24587589.809
        41.000          27.600
 117037363.403 8  91197968.95946  22271469.781                    22271477.660
        48.300          36.500
 121635917.636 7  94781261.23744  23146545.438                    23146553.633
        42.200          29.800
                  84005755.901 6  20190845.617                    20190845.832
                        38.900
 109465385.125 7  85297724.77445  20830570.609                    20830576.207
        45.800          35.300
 120027254.941 7  93527753.72544  22840426.578                    22840433.336
        44.200          26.600
 125602111.312 7  97871792.36944  23901287.797                    23901290.379
        44.300          28.800
 116346157.228 7  90659350.35345  22139938.938                    22139939.691
        43.400          30.800
 18  3 15 13 15 53.0000000  0 18R01R02G11G12R09R10R11R20R18G17G22G01
                                G10R19G24G32G28G19
                  87578681.067 6  21064378.117                    21064381.188
                        36.600
                  85804156.998 6  20673851.617                    20673854.430
                        37.400
 121105677.209 7  94368067.37944  23045644.750                    23045645.988
        44.500          29.100
 121335769.394 6  94547393.40943  23089437.141                    23089440.172
        40.700          20.900
                  90614238.881 6  21817460.922                    21817460.633
                        38.800
                  79708496.599 5  19225428.398                    19225432.969
                        34.800
                  88456877.018 6  21283070.641                    21283072.738
                        38.500
                  95936350.030 6  23066455.758                    23066460.797
                        36.500
                  88772230.143 6  21381469.078                    21381470.230
                        39.100
 114939831.999 8  89563557.53345  21872333.156                    21872336.586
        48.300          32.900
 129206317.487 6 100680167.44144  24587122.914                    24587124.180
        41.300          29.200
 117038057.509 8  91198509.82046  22271602.063                    22271609.387
        48.800          36.600
 121638862.037 7  94783555.56445  23147106.063                    23147113.891
        42.000          30.800
                  84005159.209 6  20190702.234                    20190701.672
                        38.700
 109466028.391 7  85298226.01945  20830693.172                    20830698.387
        46.300          35.500
 120025207.766 7  93526158.53844  22840037.383                    22840043.754
        43.300          27.700
 125605744.664 7  97874623.53644  23901980.031                    23901981.820
        45.500          29.300
 116343905.432 7  90657595.71045  22139509.906                    22139511.422
        43.400          31.400
 18  3 15 13 15 54.0000000  0 18R01R02G11G12R09R10R11R20R18G17G22G01
                                G10R19G24G32G28G19
                  87581284.500 6  21065003.453                    21065007.824
                        36.900
                  85802960.486 6  20673563.445                    20673566.160
                        36.900
 121108255.564 7  94370076.49144  23046134.797                    23046136.668
        44.700          29.200
 121332420.145 6  94544783.54843  23088799.594                    23088802.441
        39.900          20.900
                  90617652.197 6  21818282.023                    21818282.480
                        38.600
                  79709085.334 5  19225570.375                    19225574.590
                        34.700
                  88454326.468 6  21282456.836                    21282458.375
                        38.400
                  95933143.670 6  23065686.086                    23065690.230
                        36.200
                  88774974.928 6  21382129.328                    21382130.508
                        38.900
 114939215.496 7  89563077.13945  21872215.656                    21872219.051
        47.900          32.800
 129203869.023 6 100678259.54844  24586656.469                    24586657.758
        40.400          27.600
 117038752.322 8  91199051.22146  22271734.102                    22271741.324
        48.500          36.100
 121641806.915 7  94785850.23444  23147667.898                    23147673.711
        42.600          29.900
                  84004563.224 6  20190559.688                    20190559.359
                        38.900
 109466672.335 7  85298727.79845  20830815.656                    20830821.258
        46.300          35.600
 120023161.050 7  93524563.71544  22839647.477                    22839654.344
        42.600          28.300
 125609378.198 7  97877454.87044  23902671.094                    23902673.441
        45.200          28.500
 116341654.185 7  90655841.48645  22139081.250                    22139083.242
        42.700          30.000
 18  3 15 13 15 55.0000000  0 18R01R02G11G12R09R10R11R20R18G17G22G01
                                G10R19G24G32G28G19
                  87583888.478 6  21065630.422                    21065634.121
                        36.800
                  85801764.653 6  20673275.227                    20673277.484
                        36.900
 121110834.556 7  94372086.09544  23046626.258                    23046627.703
        44.600          28.700
 121329071.171 6  94542173.88443  23088161.914                    23088165.559
        38.600          21.700
                  90621065.763 6  21819105.477                    21819103.945
                        38.300
                  79709674.753 5  19225713.055                    19225716.938
                        34.700
                  88451776.326 6  21281844.008                    21281844.570
                        38.500
                  95929937.559 5  23064916.492                    23064919.203
                        35.800
                  88777720.234 6  21382789.750                    21382791.891
                        38.900
 114938599.629 8  89562597.24545  21872098.789                    21872102.008
        48.100          32.800
 129201420.933 6 100676351.94244  24586191.023                    24586191.621
        40.500          28.100
 117039447.938 8  91199593.23846  22271866.273                    22271873.473
        48.700          36.400
 121644752.263 7  94788145.29245  23148229.313                    23148234.746
        43.900          30.500
                  84003967.976 6  20190416.445                    20190416.023
                        39.100
 109467316.972 7  85299230.11445  20830937.703                    20830943.703
        46.100          35.500
 120021114.887 7  93522969.34944  22839258.453                    22839264.898
        42.700          28.800
 125613011.964 7  97880286.39544  23903360.992                    23903364.641
        43.600          28.100
 116339403.532 7  90654087.72845  22138652.539                    22138654.484
        42.600          30.400
 18  3 15 13 15 56.0000000  0 18R01R02G11G12R09R10R11R20R18G17G22G01
                                G10R19G24G32G28G19
                  87586493.006 6  21066256.805                    21066260.449
                        36.700
                  85800569.483 6  20672987.797                    20672988.754
                        37.200
 121113414.175 7  94374096.19144  23047116.555                    23047118.051
        44.800          28.400
 121325722.457 6  94539564.46743  23087523.281                    23087528.938
        36.200          22.900
                  90624479.625 6  21819926.250                    21819925.906
                        38.300
                  79710264.833 5  19225855.219                    19225858.762
                        34.700
                  88449226.515 6  21281229.445                    21281230.309
                        38.700
                  95926731.601 5  23064144.523                    23064149.059
                        35.200
                  88780466.070 6  21383451.523                    21383452.957
                        39.100
 114937984.361 8  89562117.81845  21871981.820                    21871985.109
        48.100          32.700
 129198973.179 6 100674444.59444  24585724.859                    24585726.375
        41.000          28.100
 117040144.272 8  91200135.83045  22271999.234                    22272006.648
        48.400          35.900
 121647698.076 7  94790440.72245  23148790.180                    23148795.352
        44.900          30.600
                  84003373.435 6  20190273.352                    20190273.313
                        39.100
 109467962.272 7  85299732.94545  20831060.852                    20831066.656
        46.300          35.900
 120019069.196 7  93521375.35044  22838869.695                    22838875.672
        42.700          27.200
 125616645.982 7  97883118.10344  23904052.617                    23904056.047
        43.000          26.800
 116337153.422 7  90652334.40045  22138224.828                    22138226.434
        42.300          30.700
 18  3 15 13 15 57.0000000  0 18R01R02G11G12R09R10R11R20R18G17G22G01
                                G10R19G24G32G28G19
                  87589098.078 6  21066883.938                    21066886.566
                        36.200
                  85799374.977 6  20672700.703                    20672701.320
                        37.100
 121115994.361 7  94376106.72944  23047608.406                    23047609.473
        45.100          29.000
 121322373.937 5  94536955.24543  23086885.359                    23086891.117
        34.800          22.900
                  90627893.779 6  21820746.586                    21820748.645
                        38.300
                  79710855.571 5  19225997.781                    19226001.828
                        34.900
                  88446677.028 6  21280616.883                    21280617.332
                        38.600
                  95923525.993 5  23063374.125                    23063378.234
                        35.400
                  88783212.391 6  21384112.570                    21384114.523
                        38.900
 114937369.723 8  89561638.88345  21871864.500                    21871867.793
        48.600          32.700
 129196525.761 6 100672537.50244  24585259.188                    24585260.336
        41.100          27.600
 117040841.336 8  91200678.98945  22272131.367                    22272138.813
        48.500          35.800
 121650644.420 7  94792736.58845  23149350.383                    23149356.125
        45.600          30.900
                  84002779.594 6  20190130.492                    20190130.273
                        38.600
 109468608.228 7  85300236.29045  20831183.781                    20831189.613
        46.500          35.700
 120017024.070 7  93519781.76944  22838481.078                    22838486.453
        43.900          28.000
 125620280.195 7  97885949.95444  23904744.891                    23904747.242
        43.400          27.800
 116334903.903 7  90650581.53045  22137797.328                    22137797.941
        42.300          30.900
 18  3 15 13 15 58.0000000  0 18R01R02G11G12R09R10R11R20R18G17G22G01
                                G10R19G24G32G28G19
                  87591703.702 6  21067509.469                    21067514.074
                        36.700
                  85798181.155 6  20672413.242                    20672412.871
                        37.300
 121118575.202 7  94378117.76044  23048098.984                    23048100.527
        45.100          29.200
 121319025.764 6  94534346.35543  23086249.555                    23086254.043
        37.500          23.900
                  90631308.214 6  21821570.227                    21821570.383
                        38.400
                  79711446.979 5  19226140.484                    19226143.914
                        34.600
                  88444127.901 6  21280002.375                    21280004.207
                        38.800
                  95920320.574 5  23062602.055                    23062607.586
                        35.600
                  88785959.224 6  21384773.836                    21384776.016
                        39.700
 114936755.708 8  89561160.43445  21871747.594                    21871750.633
        48.500          33.000
 129194078.729 6 100670630.71744  24584793.977                    24584794.660
        41.100          28.100
 117041539.187 8  91201222.77046  22272264.609                    22272271.773
        49.000          36.400
 121653591.257 7  94795032.84545  23149910.445                    23149916.957
        45.500          30.700
                  84002186.485 6  20189987.508                    20189987.703
                        38.800
 109469254.877 7  85300740.17146  20831306.898                    20831312.043
        46.500          36.000
 120014979.479 7  93518188.60244  22838091.531                    22838097.398
        44.900          27.900
 125623914.538 7  97888781.92244  23905436.000                    23905439.059
        43.100          28.000
 116332654.955 7  90648829.10545  22137368.875                    22137370.508
        42.900          30.400
 18  3 15 13 15 59.0000000  0 18R01R02G11G12R09R10R11R20R18G17G22G01
                                G10R19G24G32G28G19
                  87594309.869 6  21068136.266                    21068140.516
                        37.000
                  85796987.944 6  20672124.109                    20672125.934
                        37.500
 121121156.600 7  94380129.24044  23048590.250                    23048592.031
        44.900          28.700
 121315677.921 6  94531737.73344  23085613.836                    23085616.980
        39.400          24.300
                  90634722.902 6  21822393.852                    21822392.504
                        38.500
                  79712039.027 5  19226282.617                    19226286.566
                        35.200
                  88441579.140 6  21279389.359                    21279391.730
                        38.900
                  95917115.295 5  23061831.594                    23061837.023
                        35.800
                  88788706.543 6  21385435.570                    21385437.852
                        39.700
 114936142.274 8  89560682.43845  21871630.672                    21871634.410
        48.000          32.500
 129191632.011 6 100668724.18144  24584328.195                    24584329.270
        41.200          28.300
 117042237.710 8  91201767.07445  22272397.820                    22272404.734
        48.800          35.700
 121656538.545 7  94797329.45545  23150470.766                    23150477.863
        44.700          30.500
                  84001594.076 6  20189845.633                    20189845.316
                        39.000
 109469902.218 7  85301244.58845  20831429.781                    20831435.707
        46.600          35.800
 120012935.349 7  93516595.78544  22837703.070                    22837708.113
        45.200          28.500
 125627549.143 7  97891614.09544  23906126.875                    23906130.668
        42.400          28.600
 116330406.575 7  90647077.12245  22136941.453                    22136942.547
        43.000          31.000
 18  3 15 13 16  0.0000000  0 18R01R02G11G12R09R10R11R20R18G17G22G01
                                G10R19G24G32G28G19
                  87596916.559 6  21068763.922                    21068767.246
                        36.900
                  85795795.323 6  20671836.680                    20671839.215
                        37.600
 121123738.613 7  94382141.20344  23049081.461                    23049083.160
        44.700          29.200
 121312330.320 6  94529129.26644  23084977.297                    23084980.262
        41.300          26.500
                  90638137.824 6  21823214.906                    21823215.020
                        38.300
                  79712631.733 5  19226425.656                    19226429.266
                        34.700
                  88439030.690 6  21278776.117                    21278777.609
                        39.000
                  95913910.232 5  23061061.289                    23061066.496
                        35.300
                  88791454.375 6  21386097.078                    21386099.531
                        40.000
 114935529.438 8  89560204.90545  21871514.539                    21871517.977
        48.000          32.600
 129189185.608 6 100666817.88644  24583862.758                    24583863.855
        41.300          27.600
 117042936.980 8  91202311.96145  22272530.758                    22272537.820
        48.800          35.900
 121659486.322 7  94799626.43245  23151031.578                    23151038.977
        43.900          30.200
                  84001002.382 6  20189703.602                    20189703.160
                        39.100
 109470550.193 7  85301749.50545  20831553.281                    20831559.258
        46.700          35.500
 120010891.702 7  93515003.33144  22837313.555                    22837318.820
        45.800          28.400
 125631183.973 6  97894446.43644  23906818.266                    23906822.383
        41.100          28.100
 116328158.740 7  90645325.56345  22136513.195                    22136514.477
        42.800          30.600
 18  3 15 13 16  1.0000000  0 18R01R02G11G12R09R10R11R20R18G17G22G01
                                G10R19G24G32G28G19
                  87599523.755 6  21069391.297                    21069394.801
                        36.900
                  85794603.342 6  20671549.336                    20671551.945
                        37.800
 121126321.192 7  94384153.60444  23049573.078                    23049574.641
        45.000          29.900
 121308982.980 6  94526520.95944  23084341.539                    23084343.801
        41.800          25.200
                  90641553.058 6  21824035.445                    21824036.684
                        37.900
                  79713225.064 5  19226569.211                    19226572.875
                        34.800
                  88436482.539 6  21278163.289                    21278165.211
                        38.600
                  95910705.349 5  23060291.297                    23060295.078
                        34.900
                  88794202.707 6  21386758.922                    21386761.402
                        40.100
 114934917.205 7  89559727.84145  21871397.914                    21871401.363
        47.800          32.400
 129186739.526 6 100664911.85044  24583396.766                    24583398.102
        41.000          28.600
 117043636.942 8  91202857.37845  22272664.094                    22272670.980
        48.800          34.900
 121662434.553 7  94801923.73444  23151592.680                    23151599.559
        43.500          29.700
                  84000411.381 6  20189561.422                    20189561.207
                        39.200
 109471198.816 7  85302254.92845  20831677.047                    20831682.543
        46.800          35.600
 120008848.524 7  93513411.24244  22836924.875                    22836930.262
        45.800          28.800
 125634818.896 6  97897278.81644  23907510.477                    23907514.094
        41.300          28.900
 116325911.407 7  90643574.39545  22136085.523                    22136086.992
        43.000          30.400
 18  3 15 13 16  2.0000000  0 18R01R02G11G12R09R10R11R20R18G17G22G01
                                G10R19G24G32G28G19
                  87602131.465 6  21070018.930                    21070021.961
                        36.800
                  85793411.979 6  20671262.938                    20671265.250
                        37.600
 121128904.371 7  94386166.48245  23050064.602                    23050066.664
        45.400          30.400
 121305635.915 6  94523912.83543  23083704.359                    23083706.945
        41.500          23.400
                  90644968.536 6  21824859.953                    21824859.320
                        38.200
                  79713819.049 5  19226712.367                    19226716.660
                        35.000
                  88433934.708 6  21277550.711                    21277552.621
                        39.100
                  95907500.595 5  23059520.781                    23059524.910
                        35.400
                  88796951.531 6  21387421.320                    21387424.059
                        40.400
 114934305.531 8  89559251.20345  21871281.367                    21871284.746
        48.000          32.400
 129184293.745 6 100663006.05244  24582931.711                    24582932.926
        41.000          27.500
 117044337.595 8  91203403.32145  22272796.586                    22272804.074
        48.900          35.400
 121665383.258 7  94804221.39644  23152153.953                    23152161.141
        44.500          29.900
                  83999821.095 6  20189419.859                    20189418.875
                        39.200
 109471848.095 7  85302760.86545  20831800.602                    20831806.316
        47.000          35.400
 120006805.847 7  93511819.54344  22836535.859                    22836541.379
        45.100          28.200
 125638454.033 7  97900111.36544  23908202.984                    23908206.121
        42.400          28.000
 116323664.664 7  90641823.68945  22135657.883                    22135659.379
        42.900          31.200
 18  3 15 13 16  3.0000000  0 18R01R02G11G12R09R10R11R20R18G17G22G01
                                G10R19G24G32G28G19
                  87604739.697 6  21070645.305                    21070649.285
                        36.700
                  85792221.250 6  20670976.219                    20670977.652
                        37.900
 121131488.181 7  94388179.85344  23050556.375                    23050558.344
        45.400          28.900
 121302289.111 6  94521304.89843  23083066.625                    23083069.852
        41.600          23.000
                  90648384.230 6  21825683.164                    21825681.836
                        38.500
                  79714413.660 5  19226856.016                    19226859.434
                        34.800
                  88431387.204 6  21276937.305                    21276939.105
                        38.800
                  95904296.026 5  23058749.266                    23058754.574
                        34.800
                  88799700.823 6  21388084.609                    21388086.996
                        40.300
 114933694.467 8  89558775.05545  21871164.945                    21871168.590
        48.100          32.400
 129181848.311 6 100661100.52244  24582466.367                    24582467.445
        40.800          28.100
 117045038.974 8  91203949.83246  22272930.273                    22272937.695
        48.800          36.000
 121668332.412 7  94806519.40045  23152715.688                    23152722.117
        45.300          30.400
                  83999231.501 6  20189278.094                    20189277.891
                        39.600
 109472498.015 7  85303267.29545  20831923.930                    20831929.957
        47.500          35.200
 120004763.586 7  93510228.18244  22836147.164                    22836153.035
        45.000          28.000
 125642089.341 7  97902944.04944  23908894.359                    23908897.801
        42.700          28.500
 116321418.480 7  90640073.41845  22135230.367                    22135232.234
        43.400          31.000
 18  3 15 13 16  4.0000000  0 18R01R02G11G12R09R10R11R20R18G17G22G01
                                G10R19G24G32G28G19
                  87607348.487 6  21071273.148                    21071276.559
                        37.200
                  85791031.184 6  20670689.609                    20670691.449
                        37.600
 121134072.544 7  94390193.66145  23051047.875                    23051050.074
        45.700          30.200
 121298942.561 6  94518697.14343  23082428.836                    23082433.004
        40.300          22.300
                  90651800.219 6  21826503.680                    21826504.375
                        38.300
                  79715008.941 5  19227000.039                    19227003.668
                        35.000
                  88428840.081 6  21276324.766                    21276326.434
                        39.000
                  95901091.754 5  23057977.992                    23057984.012
                        35.500
                  88802450.608 6  21388747.453                    21388749.633
                        40.400
 114933084.030 8  89558299.38645  21871048.992                    21871052.320
        48.700          32.800
 129179403.186 6 100659195.22944  24582001.008                    24582001.957
        41.300          27.700
 117045741.067 8  91204496.91245  22273063.914                    22273071.730
        48.900          35.900
 121671282.055 7  94808817.80344  23153277.789                    23153283.402
        45.800          29.800
                  83998642.623 6  20189136.773                    20189135.918
                        39.400
 109473148.612 7  85303774.26145  20832047.414                    20832053.590
        47.300          35.400
 120002721.807 7  93508637.17344  22835758.641                    22835764.480
        44.300          27.900
 125645724.887 7  97905776.93344  23909586.367                    23909589.703
        43.200          27.800
 116319172.834 7  90638323.57145  22134803.477                    22134804.750
        43.200          31.400
 18  3 15 13 16  5.0000000  0 18R01R02G11G12R09R10R11R20R18G17G22G01
                                G10R19G24G32G28G19
                  87609957.769 6  21071900.664                    21071904.016
                        36.800
                  85789841.780 6  20670403.148                    20670405.219
                        37.400
 121136657.515 7  94392207.94045  23051540.000                    23051542.004
        45.200          30.100
 121295596.233 6  94516089.54943  23081790.844                    23081795.738
        38.400          22.500
                  90655216.472 6  21827326.148                    21827326.719
                        38.200
                  79715604.867 5  19227143.367                    19227147.262
                        34.500
                  88426293.278 6  21275711.508                    21275713.117
                        38.800
                  95897887.690 5  23057209.367                    23057213.555
                        35.700
                  88805200.863 6  21389409.773                    21389412.109
                        39.900
 114932474.175 8  89557824.17645  21870933.039                    21870936.234
        48.200          33.200
 129176958.404 6 100657290.21344  24581535.758                    24581536.762
        40.900          28.500
 117046443.940 8  91205044.61046  22273197.602                    22273205.477
        49.000          36.100
 121674232.163 7  94811116.58645  23153838.563                    23153845.047
        45.800          30.200
                  83998054.468 6  20188995.352                    20188994.617
                        39.300
 109473799.872 7  85304281.73245  20832171.383                    20832177.594
        46.800          35.400
 120000680.571 7  93507046.58944  22835369.977                    22835375.965
        43.600          28.300
 125649360.589 7  97908609.94744  23910279.063                    23910281.238
        43.400          28.800
 116316927.746 7  90636574.14345  22134376.320                    22134377.734
        43.400          31.000
 18  3 15 13 16  6.0000000  0 18R01R02G11G12R09R10R11R20R18G17G22G01
                                G10R19G24G32G28G19
                  87612567.595 6  21072528.031                    21072531.809
                        37.100
                  85788653.032 6  20670116.008                    20670118.438
                        37.200
 121139243.082 7  94394222.67844  23052032.086                    23052034.016
        45.500          29.300
 121292250.188 6  94513482.21343  23081154.328                    23081158.770
        38.300          22.300
                  90658633.008 6  21828149.836                    21828148.680
                        38.200
                  79716201.481 5  19227286.227                    19227290.957
                        34.700
                  88423746.796 6  21275098.508                    21275100.680
                        38.700
                  95894683.768 6  23056439.328                    23056443.039
                        36.200
                  88807951.623 6  21390072.484                    21390074.977
                        39.800
 114931864.942 8  89557349.45045  21870817.180                    21870820.527
        48.200          32.400
 129174513.972 6 100655385.45644  24581070.555                    24581071.164
        41.500          28.500
 117047147.516 8  91205592.85246  22273331.367                    22273338.980
        48.700          36.000
 121677182.783 7  94813415.79445  23154399.750                    23154406.648
        46.000          30.700
                  83997467.014 6  20188853.508                    20188853.973
                        38.700
 109474451.781 7  85304789.71145  20832295.492                    20832301.559
        46.800          35.600
 119998639.849 7  93505456.40344  22834981.539                    22834987.684
        43.200          28.200
 125652996.505 7  97911443.13044  23910971.734                    23910973.313
        44.100          29.400
 116314683.227 7  90634825.16945  22133949.367                    22133950.398
        43.600          31.400
 18  3 15 13 16  7.0000000  0 18R01R02G11G12R09R10R11R20R18G17G22G01
                                G10R19G24G32G28G19
                  87615177.890 6  21073155.508                    21073159.730
                        36.800
                  85787464.874 6  20669830.539                    20669832.605
                        37.100
 121141829.191 7  94396237.83445  23052524.227                    23052526.254
        45.400          30.000
 121288904.365 6  94510875.10243  23080518.109                    23080522.324
        38.900          22.900
                  90662049.726 6  21828972.664                    21828972.234
                        38.500
                  79716798.708 5  19227431.641                    19227434.488
                        34.900
                  88421200.620 6  21274486.195                    21274488.266
                        38.700
                  95891480.015 5  23055669.938                    23055673.688
                        35.900
                  88810702.860 6  21390735.273                    21390738.203
                        39.900
 114931256.264 8  89556875.15845  21870701.070                    21870704.719
        48.200          32.200
 129172069.832 6 100653480.93344  24580605.813                    24580606.441
        41.800          29.300
 117047851.783 8  91206141.63446  22273465.805                    22273473.605
        49.000          36.300
 121680133.853 7  94815715.34845  23154960.438                    23154968.184
        44.700          30.600
                  83996880.244 6  20188712.711                    20188712.555
                        38.700
 109475104.315 7  85305298.17545  20832419.828                    20832425.727
        47.000          35.500
 119996599.547 7  93503866.56244  22834593.234                    22834599.609
        42.900          28.500
 125656632.505 7  97914276.39444  23911662.664                    23911665.633
        44.300          29.500
 116312439.240 7  90633076.60945  22133522.242                    22133523.668
        42.900          30.700
 18  3 15 13 16  8.0000000  0 18R01R02G11G12R09R10R11R20R18G17G22G01
                                G10R19G24G32G28G19
                  87617788.752 6  21073784.578                    21073787.957
                        37.000
                  85786277.378 6  20669544.641                    20669546.082
                        36.900
 121144415.963 7  94398253.50444  23053016.445                    23053018.566
        45.600          29.600
 121285558.905 6  94508268.30344  23079882.281                    23079886.098
        39.700          24.400
                  90665466.791 6  21829794.297                    21829795.078
                        38.400
                  79717396.612 5  19227575.445                    19227579.031
                        34.900
                  88418654.800 6  21273873.820                    21273876.301
                        39.000
                  95888276.499 5  23054898.789                    23054903.086
                        35.900
                  88813454.620 6  21391398.102                    21391400.758
                        39.600
 114930648.194 8  89556401.33545  21870585.563                    21870589.035
        48.100          33.300
 129169626.032 7 100651576.67444  24580140.672                    24580141.137
        42.400          28.600
 117048556.791 8  91206690.99146  22273599.641                    22273607.441
        49.000          36.700
 121683085.451 7  94818015.31245  23155521.266                    23155529.668
        43.200          31.300
                  83996294.213 6  20188571.680                    20188571.508
                        38.900
 109475757.551 7  85305807.18245  20832544.125                    20832549.648
        46.600          35.900
 119994559.794 7  93502277.15444  22834205.844                    22834211.352
        42.800          27.200
 125660268.804 7  97917109.90044  23912353.367                    23912357.887
        42.500          28.700
 116310195.843 7  90631328.50745  22133095.367                    22133096.547
        43.400          30.500
 18  3 15 13 16  9.0000000  0 18R01R02G11G12R09R10R11R20R18G17G22G01
                                G10R19G24G32G28G19
                  87620400.127 6  21074412.109                    21074415.434
                        36.500
                  85785090.456 6  20669259.375                    20669260.340
                        37.200
 121147003.284 7  94400269.61245  23053508.570                    23053510.969
        45.100          30.000
 121282213.668 6  94505661.66144  23079246.242                    23079249.820
        40.900          26.100
                  90668884.074 6  21830617.867                    21830617.512
                        38.500
                  79717995.130 5  19227720.148                    19227723.410
                        35.200
                  88416109.300 6  21273260.492                    21273263.605
                        39.100
                  95885073.150 6  23054128.203                    23054132.801
                        36.000
                  88816206.900 6  21392060.477                    21392063.766
                        39.300
 114930040.736 8  89555927.99545  21870469.695                    21870473.215
        48.200          32.200
 129167182.543 6 100649672.66744  24579675.766                    24579676.273
        41.900          28.500
 117049262.510 8  91207240.89646  22273733.945                    22273741.406
        48.900          36.500
 121686037.459 7  94820315.58045  23156083.656                    23156091.352
        42.200          30.500
                  83995708.873 6  20188430.633                    20188431.367
                        38.800
 109476411.427 7  85306316.69545  20832668.898                    20832674.223
        46.100          35.800
 119992520.489 7  93500688.11844  22833817.773                    22833823.039
        43.600          28.500
 125663905.315 6  97919943.54044  23913045.492                    23913049.820
        41.900          29.800
 116307952.926 7  90629580.77744  22132668.063                    22132669.977
        43.700          29.900
 18  3 15 13 16 10.0000000  0 18R01R02G11G12R09R10R11R20R18G17G22G01
                                G10R19G24G32G28G19
                  87623012.076 6  21075040.055                    21075044.070
                        36.700
                  85783904.182 6  20668973.008                    20668974.156
                        37.000
 121149591.255 7  94402286.22445  23054001.070                    23054003.496
        45.400          30.700
 121278868.759 6  94503055.26244  23078609.586                    23078613.578
        41.100          25.100
                  90672301.660 6  21831440.711                    21831440.379
                        38.300
                  79718594.353 5  19227864.375                    19227868.047
                        35.200
                  88413564.137 6  21272648.742                    21272651.406
                        39.200
                  95881870.007 5  23053356.859                    23053362.309
                        35.500
                  88818959.717 6  21392723.125                    21392726.816
                        39.300
 114929433.891 8  89555455.13445  21870353.992                    21870357.762
        48.200          32.500
 129164739.446 7 100647768.96844  24579210.898                    24579211.457
        42.200          29.600
 117049968.978 8  91207791.38946  22273868.016                    22273876.012
        48.600          36.100
 121688989.990 7  94822616.22645  23156646.289                    23156652.910
        42.400          30.300
                  83995124.280 6  20188290.258                    20188290.609
                        39.200
 109477066.003 7  85306826.76045  20832793.352                    20832798.801
        46.300          35.700
 119990481.710 7  93499099.46644  22833429.961                    22833435.277
        44.500          27.700
 125667541.952 7  97922777.25244  23913739.453                    23913741.973
        43.600          29.700
 116305710.661 7  90627833.55245  22132241.813                    22132243.535
        43.500          30.200
 18  3 15 13 16 11.0000000  0 18R01R02G11G12R09R10R11R20R18G17G22G01
                                G10R19G24G32G28G19
                  87625624.585 6  21075669.008                    21075673.133
                        36.900
                  85782718.563 6  20668686.797                    20668687.941
                        36.800
 121152179.801 7  94404303.28845  23054493.492                    23054495.926
        45.400          30.000
 121275524.135 6  94500449.05843  23077973.000                    23077976.973
        40.600          23.400
                  90675719.531 6  21832263.180                    21832263.449
                        38.500
                  79719194.237 5  19228009.211                    19228012.477
                        35.000
                  88411019.360 6  21272037.242                    21272038.832
                        38.900
                  95878667.116 5  23052586.938                    23052592.332
                        34.800
                  88821713.019 6  21393386.500                    21393389.586
                        39.200
 114928827.701 8  89554982.78045  21870238.945                    21870242.266
        48.500          32.600
 129162296.681 6 100645865.52044  24578745.391                    24578746.855
        41.700          28.600
 117050676.188 8  91208342.45845  22274002.828                    22274010.391
        48.700          35.700
 121691943.037 7  94824917.25145  23157209.133                    23157214.992
        44.100          30.400
                  83994540.424 6  20188150.266                    20188150.281
                        38.700
 109477721.265 7  85307337.35445  20832917.813                    20832923.609
        46.400          35.800
 119988443.475 7  93497511.21544  22833042.188                    22833047.402
        45.300          28.500
 125671178.813 7  97925611.14644  23914432.188                    23914433.914
        45.400          28.900
 116303468.977 7  90626086.78045  22131814.719                    22131816.391
        43.300          30.200
 18  3 15 13 16 12.0000000  0 18R01R02G11G12R09R10R11R20R18G17G22G01
                                G10R19G24G32G28G19
                  87628237.637 6  21076297.039                    21076300.547
                        37.000
                  85781533.615 6  20668399.266                    20668402.488
                        36.800
 121154768.982 7  94406320.83445  23054986.250                    23054988.949
        45.100          30.400
 121272179.774 6  94497843.04143  23077335.805                    23077340.762
        38.600          21.500
                  90679137.648 6  21833086.359                    21833086.563
                        38.500
                  79719794.795 5  19228154.367                    19228157.480
                        35.100
                  88408474.926 6  21271424.586                    21271426.949
                        38.900
                  95875464.408 5  23051817.656                    23051821.801
                        35.000
                  88824466.826 6  21394049.641                    21394052.473
                        39.200
 114928222.113 8  89554510.89445  21870123.797                    21870127.051
        48.600          33.000
 129159854.227 6 100643962.31044  24578281.258                    24578282.164
        41.500          28.100
 117051384.156 8  91208894.11646  22274137.711                    22274144.898
        48.800          36.400
 121694896.532 7  94827218.63445  23157772.000                    23157777.164
        45.200          30.900
                  83993957.291 6  20188010.156                    20188010.160
                        39.000
 109478377.219 7  85307848.49245  20833042.594                    20833048.469
        46.600          35.900
 119986405.747 7  93495923.35344  22832654.805                    22832659.418
        45.600          28.300
 125674815.868 7  97928445.22244  23915123.688                    23915126.059
        45.400          28.100
 116301227.866 7  90624340.46545  22131388.305                    22131390.020
        43.600          30.200
 18  3 15 13 16 13.0000000  0 18R01R02G11G12R09R10R11R20R18G17G22G01
                                G10R19G24G32G28G19
                  87630851.203 6  21076926.727                    21076929.141
                        36.900
                  85780349.316 6  20668114.094                    20668116.926
                        36.600
 121157358.733 7  94408338.82044  23055479.016                    23055482.004
        45.200          29.700
 121268835.662 5  94495237.23643  23076697.273                    23076704.191
        35.200          21.300
                  90682556.078 6  21833908.133                    21833908.961
                        38.300
                  79720395.988 5  19228299.258                    19228302.488
                        34.500
                  88405930.821 6  21270812.648                    21270814.262
                        38.600
                  95872261.886 5  23051048.586                    23051052.156
                        34.400
                  88827221.141 6  21394712.930                    21394715.691
                        39.100
 114927617.151 8  89554039.49245  21870008.734                    21870011.918
        48.400          33.100
 129157412.178 6 100642059.41244  24577816.586                    24577816.918
        41.700          27.800
 117052092.837 8  91209446.32745  22274272.516                    22274279.875
        48.500          35.700
 121697850.499 7  94829520.40744  23158333.938                    23158339.004
        45.700          29.300
                  83993374.857 6  20187870.203                    20187870.148
                        38.900
 109479033.852 7  85308360.15146  20833167.688                    20833173.387
        47.200          36.100
 119984368.527 7  93494335.89644  22832266.359                    22832271.871
        45.600          28.000
 125678453.112 7  97931279.47344  23915814.703                    23915818.137
        44.000          28.500
 116298987.287 7  90622594.56245  22130962.164                    22130963.383
        43.600          30.900
 18  3 15 13 16 14.0000000  0 18R01R02G11G12R09R10R11R20R18G17G22G01
                                G10R19G24G32G28G19
                  87633465.328 6  21077555.211                    21077558.203
                        36.800
                  85779165.754 6  20667829.711                    20667832.258
                        37.100
 121159949.109 7  94410357.29044  23055971.633                    23055974.633
        45.000          29.400
 121265491.817 5  94492631.64543  23076061.320                    23076067.535
        34.300          19.600
                  90685974.755 6  21834732.969                    21834731.855
                        38.600
                  79720997.862 5  19228444.172                    19228447.332
                        34.600
                  88403387.103 6  21270200.289                    21270202.246
                        38.900
                  95869059.602 5  23050279.391                    23050281.750
                        35.600
                  88829976.006 6  21395376.445                    21395378.523
                        38.800
 114927012.808 8  89553568.56645  21869893.578                    21869896.949
        48.700          33.000
 129154970.472 7 100640156.78644  24577352.008                    24577352.734
        42.200          27.700
 117052802.283 8  91209999.14045  22274407.445                    22274414.762
        48.200          35.600
 121700804.976 7  94831822.59945  23158895.578                    23158901.453
        46.200          30.300
                  83992793.140 6  20187729.797                    20187729.844
                        38.900
 109479691.177 7  85308872.34845  20833292.711                    20833298.664
        47.400          35.600
 119982331.810 7  93492748.82844  22831878.734                    22831884.293
        45.400          28.100
 125682090.629 7  97934113.93744  23916505.789                    23916509.949
        42.900          28.600
 116296747.316 7  90620849.13744  22130535.656                    22130537.555
        43.700          29.900
 18  3 15 13 16 15.0000000  0 18R01R02G11G12R09R10R11R20R18G17G22G01
                                G10R19G24G32G28G19
                  87636079.968 6  21078183.320                    21078187.113
                        36.700
                  85777982.803 6  20667545.328                    20667547.074
                        37.100
 121162540.114 7  94412376.24744  23056464.383                    23056467.711
        44.700          29.200
 121262148.271 6  94490026.28043  23075425.633                    23075430.965
        36.300          18.300
                  90689393.698 6  21835556.266                    21835555.824
                        38.100
                  79721600.380 5  19228589.266                    19228592.762
                        34.500
                  88400843.705 6  21269587.883                    21269590.563
                        38.800
                  95865857.521 5  23049507.836                    23049512.645
                        35.400
                  88832731.387 6  21396040.422                    21396041.734
                        38.300
 114926409.082 8  89553098.13345  21869778.289                    21869782.227
        48.300          32.800
 129152529.069 6 100638254.39644  24576886.820                    24576888.109
        41.400          27.100
 117053512.452 8  91210552.52145  22274542.484                    22274550.156
        48.000          35.800
 121703759.952 7  94834125.18544  23159457.672                    23159463.898
        45.600          29.900
                  83992212.131 6  20187590.531                    20187590.418
                        39.100
 109480349.173 7  85309385.07945  20833418.586                    20833423.961
        47.000          35.200
 119980295.597 7  93491162.15344  22831490.945                    22831496.711
        45.200          27.800
 125685728.348 7  97936948.53944  23917198.867                    23917202.156
        42.600          28.700
 116294507.920 7  90619104.15644  22130110.297                    22130111.203
        43.400          29.700
 18  3 15 13 16 16.0000000  0 18R01R02G11G12R09R10R11R20R18G17G22G01
                                G10R19G24G32G28G19
                  87638695.157 6  21078811.719                    21078815.809
                        36.500
                  85776800.426 6  20667261.234                    20667262.246
                        37.500
 121165131.701 7  94414395.66344  23056957.852                    23056961.043
        44.900          28.900
 121258805.081 6  94487421.18943  23074790.469                    23074794.730
        39.000          19.300
                  90692812.926 6  21836378.664                    21836379.031
                        38.300
                  79722203.536 5  19228734.508                    19228738.109
                        34.500
                  88398300.658 6  21268976.703                    21268978.750
                        38.800
                  95862655.637 5  23048737.719                    23048742.727
                        35.700
                  88835487.250 6  21396704.734                    21396705.328
                        38.300
 114925805.940 8  89552628.15045  21869663.781                    21869667.516
        48.300          33.000
 129150087.996 6 100636352.25444  24576422.773                    24576423.430
        41.700          28.300
 117054223.344 8  91211106.46645  22274677.820                    22274685.930
        48.100          35.900
 121706715.425 7  94836428.16644  23160019.688                    23160026.258
        44.400          29.300
                  83991631.835 6  20187450.883                    20187451.043
                        39.100
 109481007.831 7  85309898.31845  20833543.188                    20833549.199
        46.700          35.700
 119978259.899 7  93489575.89444  22831103.422                    22831109.496
        44.600          28.200
 125689366.240 7  97939783.26744  23917891.406                    23917894.043
        43.400          27.800
 116292269.082 7  90617359.59945  22129683.469                    22129685.145
        43.400          30.400
 18  3 15 13 16 17.0000000  0 18R01R02G11G12R09R10R11R20R18G17G22G01
                                G10R19G24G32G28G19
                  87641310.862 6  21079442.016                    21079445.414
                        36.300
                  85775618.659 6  20666976.234                    20666977.789
                        37.100
 121167723.907 7  94416415.56744  23057451.508                    23057453.883
        45.100          29.300
 121255462.126 6  94484816.28543  23074155.625                    23074158.746
        40.100          21.300
                  90696232.447 6  21837201.797                    21837202.004
                        38.500
                  79722807.344 5  19228880.047                    19228884.375
                        34.600
                  88395757.960 6  21268364.250                    21268366.371
                        39.000
                  95859454.061 5  23047967.531                    23047972.820
                        35.800
                  88838243.592 6  21397368.969                    21397369.004
                        38.700
 114925203.445 8  89552158.67745  21869549.383                    21869552.844
        48.600          32.600
 129147647.270 6 100634450.38744  24575958.359                    24575958.938
        41.600          28.500
 117054934.995 8  91211661.00245  22274813.250                    22274820.492
        48.200          35.100
 121709671.395 7  94838731.52844  23160580.789                    23160588.785
        43.800          29.900
                  83991052.285 6  20187311.695                    20187311.691
                        38.700
 109481667.168 7  85310412.09445  20833668.398                    20833674.355
        46.100          35.800
 119976224.702 7  93487990.02544  22830716.297                    22830722.270
        44.600          28.200
 125693004.313 7  97942618.13744  23918583.633                    23918586.703
        43.200          28.700
 116290030.792 7  90615615.48145  22129257.711                    22129259.355
        43.600          30.800
 18  3 15 13 16 18.0000000  0 18R01R02G11G12R09R10R11R20R18G17G22G01
                                G10R19G24G32G28G19
                  87643927.095 6  21080070.898                    21080074.746
                        36.000
                  85774437.520 6  20666691.617                    20666693.172
                        37.200
 121170316.702 7  94418435.93044  23057944.680                    23057947.496
        44.900          29.900
 121252119.454 6  94482211.60144  23073519.117                    23073522.766
        40.700          26.500
                  90699652.215 6  21838025.250                    21838025.363
                        38.500
                  79723411.796 5  19229025.984                    19229029.523
                        35.200
                  88393215.598 6  21267753.398                    21267755.184
                        38.600
                  95856252.619 5  23047197.992                    23047203.172
                        35.300
                  88841000.395 6  21398032.531                    21398032.777
                        38.700
 114924601.516 8  89551689.64645  21869434.734                    21869438.371
        48.400          32.500
 129145206.887 6 100632548.78644  24575493.922                    24575494.648
        41.600          27.400
 117055647.322 8  91212216.06445  22274949.086                    22274956.074
        48.000          35.900
 121712627.836 7  94841035.24244  23161143.508                    23161151.449
        43.200          29.800
                  83990473.436 6  20187173.047                    20187172.395
                        38.300
 109482327.184 7  85310926.38445  20833793.938                    20833800.195
        46.300          35.800
 119974190.023 7  93486404.56444  22830328.992                    22830334.969
        44.100          27.900
 125696642.574 7  97945453.13744  23919275.805                    23919278.887
        43.400          28.900
 116287793.095 7  90613871.81945  22128831.641                    22128833.504
        43.400          30.400
 18  3 15 13 16 19.0000000  0 18R01R02G11G12R09R10R11R20R18G17G22G01
                                G10R19G24G32G28G19
                  87646543.865 6  21080700.023                    21080703.789
                        36.300
                  85773257.064 6  20666407.031                    20666408.469
                        37.700
 121172910.065 7  94420456.73845  23058438.031                    23058441.031
        44.900          30.200
 121248777.049 6  94479607.11944  23072882.773                    23072887.109
        39.900          25.900
                  90703072.201 6  21838850.594                    21838848.773
                        38.900
                  79724016.904 5  19229172.367                    19229176.047
                        34.900
                  88390673.556 6  21267141.430                    21267143.164
                        38.500
                  95853051.358 5  23046428.891                    23046433.523
                        34.300
                  88843757.704 6  21398695.563                    21398696.488
                        38.500
 114924000.196 8  89551221.08945  21869320.406                    21869323.883
        48.800          32.100
 129142766.825 6 100630647.43244  24575029.172                    24575030.117
        41.700          28.000
 117056360.406 8  91212771.71846  22275083.953                    22275091.535
        48.100          36.200
 121715584.784 7  94843339.34145  23161706.836                    23161713.949
        42.800          30.400
                  83989895.294 6  20187034.406                    20187033.621
                        38.600
 109482987.839 7  85311441.18745  20833920.320                    20833925.930
        46.200          35.900
 119972155.797 7  93484819.45544  22829941.703                    22829947.836
        43.700          27.900
 125700281.030 7  97948288.29044  23919968.102                    23919970.895
        43.700          28.100
 116285555.938 7  90612128.57844  22128405.813                    22128407.797
        43.600          29.800
 18  3 15 13 16 20.0000000  0 18R01R02G11G12R09R10R11R20R18G17G22G01
                                G10R19G24G32G28G19
                  87649161.179 6  21081329.563                    21081333.398
                        36.200
                  85772077.302 6  20666123.242                    20666124.207
                        37.500
 121175504.029 7  94422478.01045  23058931.664                    23058934.832
        44.900          30.100
 121245434.943 6  94477002.87944  23072246.250                    23072251.145
        39.800          25.300
                  90706492.536 6  21839671.539                    21839672.258
                        38.900
                  79724622.680 5  19229317.938                    19229322.215
                        35.100
                  88388131.878 6  21266529.961                    21266532.027
                        38.700
                  95849850.264 5  23045661.727                    23045663.574
                        34.100
                  88846515.514 6  21399359.164                    21399360.629
                        38.600
 114923399.496 8  89550753.00945  21869205.938                    21869209.418
        48.900          31.900
 129140327.150 6 100628746.39544  24574564.711                    24574565.824
        41.000          27.500
 117057074.209 7  91213327.92746  22275220.211                    22275227.348
        47.900          36.200
 121718542.176 7  94845643.75645  23162270.375                    23162276.648
        43.600          30.600
                  83989317.868 6  20186895.344                    20186894.809
                        38.800
 109483649.144 7  85311956.48245  20834046.094                    20834051.941
        46.600          35.400
 119970122.111 7  93483234.77144  22829554.367                    22829560.883
        43.200          28.600
 125703919.694 7  97951123.60644  23920661.281                    23920663.648
        44.100          28.100
 116283319.323 7  90610385.76544  22127980.352                    22127981.648
        43.900          29.600
 18  3 15 13 16 21.0000000  0 18R01R02G11G12R09R10R11R20R18G17G22G01
                                G10R19G24G32G28G19
                  87651779.021 6  21081959.758                    21081963.105
                        36.200
                  85770898.210 6  20665839.523                    20665840.805
                        37.900
 121178098.630 7  94424499.76545  23059425.555                    23059428.664
        44.600          30.000
 121242093.082 6  94474398.84544  23071609.305                    23071615.820
        38.100          24.000
                  90709913.083 6  21840496.602                    21840496.230
                        39.100
                  79725229.101 5  19229464.711                    19229467.914
                        34.600
                  88385590.528 6  21265919.188                    21265920.555
                        38.900
                  95846649.394 5  23044889.836                    23044893.832
                        34.400
                  88849273.859 6  21400022.492                    21400024.633
                        39.300
 114922799.399 8  89550285.40745  21869091.773                    21869095.270
        48.800          32.400
 129137887.742 6 100626845.56944  24574101.070                    24574101.656
        41.900          28.700
 117057788.708 7  91213884.67045  22275356.219                    22275363.383
        47.800          35.700
 121721500.033 7  94847948.54445  23162834.547                    23162839.953
        44.500          30.900
                  83988741.165 6  20186756.781                    20186756.313
                        38.900
 109484311.073 7  85312472.27045  20834171.891                    20834177.523
        46.700          35.500
 119968088.958 7  93481650.51644  22829168.406                    22829174.320
        43.700          29.300
 125707558.541 7  97953959.08744  23921353.258                    23921355.934
        44.100          28.500
 116281083.311 7  90608643.43045  22127555.539                    22127556.762
        44.200          30.200
 18  3 15 13 16 22.0000000  0 18R01R02G11G12R09R10R11R20R18G17G22G01
                                G10R19G24G32G28G19
                  87654397.379 6  21082589.227                    21082592.047
                        36.300
                  85769719.737 6  20665555.617                    20665556.480
                        37.900
 121180693.775 7  94426521.96144  23059919.359                    23059922.309
        44.600          29.400
 121238751.436 6  94471795.00443  23070974.273                    23070979.477
        37.700          21.700
                  90713333.897 6  21841320.039                    21841319.828
                        38.900
                  79725836.205 5  19229611.141                    19229614.793
                        35.300
                  88383049.494 6  21265307.344                    21265309.629
                        38.500
                  95843448.694 5  23044119.828                    23044124.238
                        34.900
                  88852032.732 6  21400686.727                    21400689.461
                        39.500
 114922199.901 8  89549818.26845  21868977.781                    21868981.031
        48.800          32.100
 129135448.698 7 100624945.02144  24573636.992                    24573637.176
        42.000          28.500
 117058503.958 7  91214441.99945  22275492.234                    22275499.531
        47.900          35.400
 121724458.359 7  94850253.71545  23163396.945                    23163402.688
        44.700          30.100
                  83988165.170 6  20186618.109                    20186618.039
                        38.700
 109484973.703 7  85312988.60745  20834297.883                    20834304.031
        46.100          35.500
 119966056.233 7  93480066.60744  22828781.852                    22828787.484
        43.600          28.000
 125711197.577 7  97956794.71744  23922045.141                    23922048.488
        42.700          28.400
 116278847.880 7  90606901.54045  22127129.719                    22127131.289
        43.900          31.100
 18  3 15 13 16 23.0000000  0 18R01R02G11G12R09R10R11R20R18G17G22G01
                                G10R19G24G32G28G19
                  87657016.316 6  21083218.609                    21083222.848
                        36.400
                  85768541.897 6  20665270.547                    20665272.691
                        37.800
 121183289.543 7  94428544.63344  23060413.688                    23060416.313
        44.300          29.700
 121235410.118 6  94469191.42443  23070338.734                    23070343.652
        38.800          22.000
                  90716755.002 6  21842143.031                    21842143.762
                        38.700
                  79726443.945 5  19229757.992                    19229761.191
                        35.000
                  88380508.809 6  21264696.133                    21264697.566
                        38.900
                  95840248.271 5  23043350.164                    23043354.523
                        34.700
                  88854792.076 6  21401351.883                    21401355.137
                        40.100
 114921601.032 8  89549351.61245  21868864.086                    21868867.313
        48.900          33.100
 129133009.993 6 100623044.72544  24573172.625                    24573173.215
        41.700          28.300
 117059219.961 7  91214999.92345  22275628.266                    22275635.512
        47.900          34.900
 121727417.192 7  94852559.29745  23163959.922                    23163966.188
        45.100          30.100
                  83987589.896 6  20186479.117                    20186479.449
                        39.000
 109485637.026 7  85313505.48245  20834424.125                    20834429.953
        46.000          35.300
 119964024.083 7  93478483.13444  22828394.734                    22828400.699
        43.900          28.400
 125714836.871 6  97959630.53344  23922737.125                    23922741.125
        41.600          28.100
 116276612.983 7  90605160.05945  22126703.844                    22126705.496
        43.700          30.600
 18  3 15 13 16 24.0000000  0 18R01R02G11G12R09R10R11R20R18G17G22G01
                                G10R19G24G32G28G19
                  87659635.746 6  21083849.656                    21083852.875
                        36.400
                  85767364.684 6  20664985.523                    20664989.270
                        37.500
 121185885.899 7  94430567.75844  23060907.641                    23060910.223
        43.400          29.100
 121232069.092 6  94466588.05143  23069703.586                    23069707.492
        40.900          22.600
                  90720176.372 6  21842968.023                    21842967.520
                        38.700
                  79727052.356 5  19229904.273                    19229907.922
                        34.600
                  88377968.479 6  21264084.398                    21264086.734
                        39.300
                  95837048.046 5  23042580.813                    23042585.359
                        35.700
                  88857551.905 6  21402017.086                    21402020.242
                        40.200
 114921002.776 8  89548885.44045  21868750.359                    21868753.457
        48.900          33.200
 129130571.637 6 100621144.69644  24572708.672                    24572709.043
        41.400          28.500
 117059936.691 8  91215558.41145  22275764.945                    22275772.465
        48.000          35.500
 121730376.565 7  94854865.32145  23164522.883                    23164529.316
        45.900          31.600
                  83987015.354 6  20186341.758                    20186341.746
                        38.900
 109486301.027 7  85314022.88745  20834550.703                    20834556.344
        45.800          35.300
 119961992.437 7  93476900.05144  22828008.656                    22828014.008
        45.000          27.500
 125718476.352 7  97962466.47244  23923430.773                    23923433.688
        42.600          28.700
 116274378.676 7  90603419.04145  22126279.539                    22126280.707
        44.100          30.700
 18  3 15 13 16 25.0000000  0 18R01R02G11G12R09R10R11R20R18G17G22G01
                                G10R19G24G32G28G19
                  87662255.720 6  21084479.023                    21084482.285
                        36.500
                  85766188.103 6  20664702.023                    20664705.461
                        37.500
 121188482.856 7  94432591.34845  23061401.773                    23061404.480
        43.800          30.100
 121228728.353 6  94463984.84843  23069068.320                    23069071.633
        41.700          22.600
                  90723598.007 6  21843791.414                    21843791.977
                        38.400
                  79727661.421 5  19230051.125                    19230054.457
                        35.000
                  88375428.479 6  21263473.570                    21263475.871
                        38.900
                  95833848.009 5  23041812.352                    23041816.574
                        35.400
                  88860312.246 6  21402682.859                    21402685.594
                        40.800
 114920405.117 8  89548419.73145  21868636.281                    21868639.719
        48.300          32.700
 129128133.621 6 100619244.94044  24572244.859                    24572245.484
        41.000          28.400
 117060654.132 8  91216117.45445  22275901.711                    22275908.535
        48.000          34.900
 121733336.356 7  94857171.67445  23165084.961                    23165092.336
        45.000          30.400
                  83986441.511 6  20186203.625                    20186202.695
                        38.700
 109486965.661 7  85314540.77445  20834677.297                    20834682.727
        46.200          35.600
 119959961.153 7  93475317.23244  22827621.945                    22827627.652
        44.900          28.100
 125722116.007 7  97965302.54244  23924123.805                    23924126.582
        43.500          29.900
 116272144.913 7  90601678.44045  22125853.953                    22125855.625
        44.200          30.500
 18  3 15 13 16 26.0000000  0 18R01R02G11G12R09R10R11R20R18G17G22G01
                                G10R19G24G32G28G19
                  87664876.244 6  21085109.023                    21085112.770
                        36.000
                  85765012.207 6  20664419.336                    20664422.512
                        37.400
 121191080.451 7  94434615.44944  23061895.992                    23061898.977
        43.900          29.100
 121225387.934 7  94461381.86943  23068433.734                    23068435.449
        42.100          23.200
                  90727019.914 6  21844615.102                    21844615.207
                        38.900
                  79728271.135 5  19230198.305                    19230201.738
                        35.000
                  88372888.866 6  21262862.227                    21262863.871
                        38.800
                  95830648.158 5  23041041.680                    23041047.207
                        35.300
                  88863073.079 6  21403348.695                    21403350.953
                        40.900
 114919808.084 8  89547954.51545  21868522.164                    21868525.914
        48.500          32.400
 129125695.951 6 100617345.46444  24571780.617                    24571781.715
        41.000          27.700
 117061372.317 8  91216677.06945  22276038.383                    22276045.430
        48.000          34.800
 121736296.702 7  94859478.46345  23165648.141                    23165655.770
        44.400          30.600
                  83985868.413 6  20186066.492                    20186065.848
                        38.600
 109487630.989 7  85315059.21445  20834803.961                    20834809.293
        46.200          35.300
 119957930.488 7  93473734.85644  22827235.258                    22827241.309
        44.200          27.500
 125725755.848 7  97968138.77844  23924816.078                    23924819.129
        43.800          29.300
 116269911.708 7  90599938.28045  22125428.250                    22125431.230
        43.400          30.300
 18  3 15 13 16 27.0000000  0 18R01R02G11G12R09R10R11R20R18G17G22G01
                                G10R19G24G32G28G19
                  87667497.253 5  21085739.578                    21085743.465
                        35.800
                  85763836.938 6  20664137.688                    20664139.133
                        37.300
 121193678.615 7  94436639.99644  23062390.375                    23062393.508
        43.900          29.200
 121222047.769 7  94458779.08444  23067797.609                    23067800.020
        42.000          24.500
                  90730442.108 6  21845438.289                    21845438.973
                        38.900
                  79728881.498 5  19230345.219                    19230348.984
                        34.400
                  88370349.596 6  21262252.109                    21262253.438
                        38.800
                  95827448.530 5  23040272.000                    23040277.625
                        34.900
                  88865834.421 6  21404013.797                    21404016.648
                        40.700
 114919211.638 8  89547489.75245  21868408.586                    21868412.711
        48.600          32.500
 129123258.621 6 100615446.25244  24571317.469                    24571317.945
        41.700          26.900
 117062091.205 7  91217237.23845  22276174.844                    22276182.188
        47.600          34.500
 121739257.494 7  94861785.58645  23166211.523                    23166218.969
        44.100          30.300
                  83985296.031 6  20185928.586                    20185927.859
                        38.500
 109488296.972 7  85315578.16045  20834930.313                    20834936.316
        45.800          35.400
 119955900.335 7  93472152.89344  22826848.445                    22826854.430
        44.300          26.900
 125729395.875 7  97970975.17244  23925508.922                    23925512.344
        42.800          29.000
 116267679.092 7  90598198.58744  22125004.305                    22125005.922
        43.900          29.800
 18  3 15 13 16 28.0000000  0 18R01R02G11G12R09R10R11R20R18G17G22G01
                                G10R19G24G32G28G19
                  87670118.814 6  21086370.953                    21086374.258
                        36.300
                  85762662.316 6  20663854.453                    20663856.102
                        37.300
 121196277.376 7  94438665.00344  23062884.961                    23062887.395
        43.900          28.900
 121218707.837 6  94456176.49944  23067161.102                    23067164.496
        40.000          24.800
                  90733864.524 6  21846264.195                    21846263.133
                        38.700
                  79729492.531 5  19230492.477                    19230496.461
                        34.400
                  88367810.623 6  21261640.602                    21261642.000
                        38.700
                  95824249.120 5  23039504.188                    23039507.965
                        35.200
                  88868596.260 6  21404680.352                    21404682.082
                        40.400
 114918615.811 7  89547025.47245  21868295.742                    21868299.141
        47.900          32.700
 129120821.627 6 100613547.31344  24570853.547                    24570854.070
        41.600          27.500
 117062810.831 7  91217797.97545  22276311.688                    22276319.332
        47.600          34.900
 121742218.779 7  94864093.07444  23166775.906                    23166782.145
        44.900          29.800
                  83984724.356 6  20185791.367                    20185791.059
                        38.800
 109488963.662 7  85316097.66545  20835057.063                    20835063.168
        45.800          35.200
 119953870.678 7  93470571.33944  22826462.297                    22826468.531
        44.100          27.600
 125733036.127 7  97973811.73644  23926200.984                    23926205.078
        42.800          27.900
 116265447.028 7  90596459.32144  22124579.938                    22124581.066
        44.700          29.900
 18  3 15 13 16 29.0000000  0 18R01R02G11G12R09R10R11R20R18G17G22G01
                                G10R19G24G32G28G19
                  87672740.904 6  21087001.305                    21087004.457
                        36.200
                  85761488.321 6  20663571.352                    20663572.918
                        37.400
 121198876.704 7  94440690.45344  23063379.547                    23063382.148
        43.900          27.700
 121215368.195 6  94453574.17243  23066524.789                    23066529.125
        38.000          23.000
                  90737287.192 6  21847087.883                    21847087.184
                        38.400
                  79730104.201 5  19230640.023                    19230643.863
                        34.500
                  88365271.994 6  21261030.164                    21261031.531
                        38.500
                  95821049.818 5  23038734.617                    23038738.387
                        35.100
                  88871358.578 6  21405345.406                    21405347.328
                        40.000
 114918020.603 7  89546561.67045  21868182.578                    21868185.824
        47.900          32.100
 129118384.950 6 100611648.61344  24570389.836                    24570390.457
        41.500          27.400
 117063531.220 7  91218359.31645  22276448.891                    22276456.270
        47.200          34.900
 121745180.549 7  94866400.93645  23167339.648                    23167345.789
        44.900          30.700
                  83984153.427 6  20185654.109                    20185653.578
                        38.800
 109489630.994 7  85316617.66145  20835184.461                    20835190.129
        45.700          35.500
 119951841.470 7  93468990.15544  22826076.164                    22826082.504
        44.600          27.700
 125736676.561 7  97976648.43644  23926894.438                    23926897.531
        42.900          28.500
 116263215.511 7  90594720.47244  22124154.953                    22124156.781
        44.300          29.900
 18  3 15 13 16 30.0000000  0 18R01R02G11G12R09R10R11R20R18G17G22G01
                                G10R19G24G32G28G19
                  87675363.530 6  21087631.406                    21087636.113
                        36.700
                  85760314.922 6  20663288.539                    20663290.238
                        36.900
 121201476.678 7  94442716.41244  23063874.391                    23063877.137
        44.200          29.100
 121212028.736 6  94450972.02543  23065888.289                    23065893.832
        36.200          22.500
                  90740710.190 6  21847910.031                    21847911.676
                        38.600
                  79730716.532 5  19230788.156                    19230791.387
                        34.700
                  88362733.700 6  21260419.445                    21260420.754
                        38.700
                  95817850.824 5  23037965.453                    23037969.180
                        34.900
                  88874121.370 6  21406011.133                    21406013.762
                        39.800
 114917425.990 7  89546098.33945  21868069.242                    21868072.410
        47.900          32.700
 129115948.596 6 100609750.15444  24569925.328                    24569926.738
        41.100          27.800
 117064252.296 7  91218921.19645  22276586.016                    22276593.254
        47.100          35.500
 121748142.748 7  94868709.13645  23167903.484                    23167909.578
        45.100          30.400
                  83983583.190 6  20185516.641                    20185516.492
                        38.400
 109490298.996 7  85317138.18845  20835310.703                    20835317.035
        46.000          35.400
 119949812.786 7  93467409.37444  22825689.922                    22825696.293
        44.300          26.400
 125740317.149 7  97979485.26544  23927587.102                    23927590.277
        43.900          29.800
 116260984.570 7  90592982.07745  22123730.563                    22123731.746
        43.700          31.000
 18  3 15 13 16 31.0000000  0 18R01R02G11G12R09R10R11R20R18G17G22G01
                                G10R19G24G32G28G19
                  87677986.737 6  21088263.188                    21088266.508
                        36.800
                  85759142.230 6  20663006.156                    20663007.715
                        37.200
 121204077.279 7  94444742.85044  23064369.555                    23064371.727
        44.400          28.400
 121208689.688 5  94448370.24443  23065251.602                    23065258.355
        35.900          22.500
                  90744133.483 6  21848735.805                    21848735.477
                        38.600
                  79731329.548 5  19230936.063                    19230939.445
                        34.600
                  88360195.808 6  21259808.047                    21259810.047
                        38.500
                  95814651.996 5  23037196.688                    23037200.254
                        35.500
                  88876884.699 6  21406676.445                    21406678.531
                        39.700
 114916832.024 7  89545635.51145  21867956.352                    21867959.566
        47.900          32.300
 129113512.684 6 100607852.05644  24569462.195                    24569463.016
        41.800          27.100
 117064974.164 7  91219483.69145  22276723.086                    22276730.344
        46.900          34.500
 121751105.527 7  94871017.80344  23168467.164                    23168473.336
        45.200          28.700
                  83983013.692 6  20185379.820                    20185379.754
                        38.800
 109490967.690 7  85317659.24945  20835438.898                    20835444.574
        46.200          35.300
 119947784.647 7  93465829.01044  22825304.297                    22825310.254
        44.700          28.600
 125743957.969 7  97982322.27744  23928280.148                    23928282.926
        43.700          29.400
 116258754.219 7  90591244.14245  22123306.477                    22123307.625
        44.400          30.600
 18  3 15 13 16 32.0000000  0 18R01R02G11G12R09R10R11R20R18G17G22G01
                                G10R19G24G32G28G19
                  87680610.450 6  21088894.234                    21088897.215
                        36.600
                  85757970.157 6  20662724.125                    20662724.922
                        37.300
 121206678.422 7  94446769.70644  23064864.164                    23064866.680
        44.500          29.400
 121205350.840 6  94445768.62243  23064617.570                    23064622.910
        37.900          22.600
                  90747557.009 6  21849560.656                    21849559.891
                        39.000
                  79731943.209 5  19231084.477                    19231087.379
                        34.300
                  88357658.251 6  21259197.297                    21259199.652
                        38.700
                  95811453.349 6  23036426.531                    23036431.543
                        36.300
                  88879648.492 6  21407341.211                    21407344.398
                        39.400
 114916238.649 8  89545173.14145  21867843.563                    21867846.410
        48.200          32.300
 129111077.030 6 100605954.15244  24568998.516                    24568999.473
        41.600          27.200
 117065696.716 7  91220046.71945  22276861.289                    22276868.199
        47.200          34.800
 121754068.729 7  94873326.80644  23169030.719                    23169037.188
        45.100          28.900
                  83982444.886 6  20185243.250                    20185242.891
                        38.900
 109491637.012 7  85318180.79645  20835566.109                    20835571.621
        46.300          35.000
 119945756.963 7  93464248.98344  22824918.328                    22824924.410
        44.300          27.700
 125747598.990 7  97985159.44944  23928972.273                    23928976.035
        43.100          29.100
 116256524.461 7  90589506.66945  22122882.328                    22122883.406
        44.100          30.600
 18  3 15 13 16 33.0000000  0 18R01R02G11G12R09R10R11R20R18G17G22G01
                                G10R19G24G32G28G19
                  87683234.657 6  21089526.180                    21089528.805
                        36.700
                  85756798.702 6  20662441.711                    20662442.332
                        37.100
 121209280.160 7  94448797.03444  23065359.484                    23065361.582
        44.500          28.600
 121202012.310 6  94443167.22943  23063983.484                    23063987.906
        39.400          22.800
                  90750980.767 6  21850386.148                    21850384.418
                        38.800
                  79732557.500 5  19231232.281                    19231235.578
                        34.800
                  88355120.963 6  21258587.484                    21258589.066
                        38.700
                  95808254.863 5  23035657.594                    23035663.148
                        35.900
                  88882412.775 6  21408007.188                    21408009.762
                        39.300
 114915645.848 7  89544711.21645  21867730.672                    21867733.797
        47.900          33.000
 129108641.699 6 100604056.49344  24568535.781                    24568536.371
        41.400          27.100
 117066420.012 7  91220610.32245  22276998.969                    22277005.324
        46.800          34.500
 121757032.410 7  94875636.20345  23169594.578                    23169601.008
        44.600          30.200
                  83981876.766 6  20185107.047                    20185106.156
                        38.600
 109492307.048 7  85318702.90045  20835693.492                    20835699.098
        46.400          35.100
 119943729.842 7  93462669.40444  22824532.844                    22824538.848
        44.500          27.900
 125751240.194 7  97987996.75944  23929665.219                    23929668.750
        42.800          28.900
 116254295.188 7  90587769.56645  22122456.258                    22122459.027
        43.600          30.800
 18  3 15 13 16 34.0000000  0 18R01R02G11G12R09R10R11R20R18G17G22G01
                                G10R19G24G32G28G19
                  87685859.429 6  21090156.484                    21090160.520
                        37.000
                  85755627.918 6  20662159.539                    20662160.934
                        36.700
 121211882.536 7  94450824.85844  23065854.820                    23065856.645
        44.800          28.100
 121198674.063 6  94440566.01343  23063348.133                    23063352.359
        39.500          21.300
                  90754404.838 6  21851208.039                    21851209.223
                        38.900
                  79733172.458 5  19231379.984                    19231384.078
                        34.100
                  88352584.018 6  21257976.688                    21257979.117
                        38.600
                  95805056.722 5  23034887.961                    23034893.543
                        35.900
                  88885177.550 6  21408671.945                    21408675.621
                        38.900
 114915053.676 8  89544249.78245  21867617.703                    21867621.199
        48.200          32.700
 129106206.731 6 100602159.11044  24568071.883                    24568072.934
        41.300          26.600
 117067144.022 7  91221174.48745  22277136.766                    22277143.371
        46.600          35.000
 121759996.557 7  94877945.94545  23170157.766                    23170165.379
        44.100          30.200
                  83981309.360 6  20184970.359                    20184970.258
                        38.500
 109492977.732 7  85319225.51345  20835820.953                    20835826.883
        46.400          35.700
 119941703.229 7  93461090.24744  22824147.133                    22824153.164
        44.700          28.900
 125754881.608 7  97990834.21744  23930359.656                    23930361.809
        43.900          29.400
 116252066.527 7  90586032.95845  22122034.375                    22122035.047
        44.700          31.500
 18  3 15 13 16 35.0000000  0 18R01R02G11G12R09R10R11R20R18G17G22G01
                                G10R19G24G32G28G19
                  87688484.743 6  21090787.336                    21090791.367
                        36.600
                  85754457.790 6  20661877.359                    20661878.641
                        36.800
 121214485.548 7  94452853.18844  23066350.109                    23066352.289
        44.600          28.700
 121195336.128 6  94437964.98543  23062712.828                    23062716.813
        38.900          21.100
                  90757829.234 6  21852032.891                    21852032.832
                        38.900
                  79733788.125 5  19231528.758                    19231532.078
                        34.500
                  88350047.488 6  21257367.156                    21257368.809
                        38.900
                  95801858.741 5  23034119.703                    23034125.168
                        34.800
                  88887942.922 6  21409337.688                    21409341.461
                        38.500
 114914462.172 8  89543788.86545  21867505.352                    21867508.762
        48.300          32.600
 129103772.113 6 100600262.01044  24567609.055                    24567609.480
        41.100          27.300
 117067868.786 7  91221739.23045  22277274.461                    22277281.145
        46.000          34.300
 121762961.264 7  94880256.10245  23170722.367                    23170729.488
        43.000          30.500
                  83980742.716 6  20184834.320                    20184834.109
                        38.600
 109493649.124 7  85319748.67645  20835949.039                    20835954.840
        45.500          35.300
 119939677.178 7  93459511.54744  22823761.609                    22823767.359
        44.100          28.700
 125758523.201 7  97993671.82544  23931052.219                    23931054.441
        45.000          27.800
 116249838.493 7  90584296.82745  22121609.914                    22121610.805
        45.000          30.500
 18  3 15 13 16 36.0000000  0 18R01R02G11G12R09R10R11R20R18G17G22G01
                                G10R19G24G32G28G19
                  87691110.634 6  21091419.016                    21091423.152
                        37.000
                  85753288.310 6  20661594.727                    20661597.102
                        37.100
 121217089.183 7  94454882.00444  23066845.570                    23066847.551
        44.600          29.000
 121191998.526 6  94435364.19843  23062077.227                    23062081.809
        38.100          19.900
                  90761253.863 6  21852857.484                    21852857.488
                        38.900
                  79734404.456 5  19231677.148                    19231680.695
                        34.100
                  88347511.311 6  21256757.133                    21256758.438
                        38.700
                  95798661.040 5  23033351.266                    23033354.883
                        34.700
                  88890708.814 6  21410003.758                    21410007.051
                        38.100
 114913871.314 8  89543328.45945  21867392.609                    21867396.203
        48.600          32.600
 129101337.846 6 100598365.17744  24567145.906                    24567146.543
        41.300          27.100
 117068594.327 7  91222304.58545  22277412.711                    22277419.539
        46.000          34.500
 121765926.460 7  94882566.61945  23171287.258                    23171293.883
        43.100          30.900
                  83980176.815 6  20184698.039                    20184697.758
                        38.600
 109494321.209 7  85320272.37545  20836076.742                    20836082.445
        45.700          35.400
 119937651.691 7  93457933.30944  22823376.516                    22823382.094
        44.600          29.300
 125762165.038 7  97996509.64244  23931744.133                    23931747.363
        44.300          27.100
 116247611.055 7  90582561.15045  22121184.906                    22121187.328
        43.800          31.000
 18  3 15 13 16 37.0000000  0 18R01R02G11G12R09R10R11R20R18G17G22G01
                                G10R19G24G32G28G19
                  87693736.962 6  21092051.289                    21092054.672
                        36.400
                  85752119.439 6  20661312.719                    20661315.816
                        37.300
 121219693.320 7  94456911.20244  23067341.102                    23067343.012
        44.600          29.400
 121188661.065 6  94432763.52543  23061441.609                    23061446.652
        36.500          19.600
                  90764678.709 6  21853682.008                    21853681.832
                        38.600
                  79735021.379 5  19231826.992                    19231829.980
                        34.000
                  88344975.452 6  21256146.852                    21256147.906
                        38.800
                  95795463.424 5  23032582.789                    23032586.480
                        35.300
                  88893475.153 6  21410669.633                    21410672.750
                        38.000
 114913280.957 8  89542868.44245  21867280.984                    21867284.133
        48.200          33.000
 129098903.831 6 100596468.52844  24566682.484                    24566683.094
        41.400          27.300
 117069320.510 7  91222870.43145  22277550.672                    22277557.551
        45.600          33.600
 121768892.060 7  94884877.44344  23171851.711                    23171858.266
        44.300          29.700
                  83979611.556 6  20184562.531                    20184561.617
                        38.900
 109494993.875 7  85320796.53645  20836205.133                    20836210.770
        45.800          35.200
 119935626.651 7  93456355.41044  22822991.156                    22822996.781
        45.000          28.200
 125765807.021 7  97999347.58544  23932436.414                    23932440.328
        43.600          27.100
 116245384.056 7  90580825.82445  22120762.133                    22120763.133
        44.500          31.100
 18  3 15 13 16 38.0000000  0 18R01R02G11G12R09R10R11R20R18G17G22G01
                                G10R19G24G32G28G19
                  87696363.813 6  21092683.031                    21092686.586
                        36.900
                  85750951.204 6  20661031.922                    20661034.551
                        37.300
 121222298.035 7  94458940.84844  23067836.789                    23067838.664
        45.200          28.900
 121185323.864 6  94430163.05743  23060806.328                    23060811.570
        37.000          19.900
                  90768103.806 6  21854507.078                    21854507.164
                        38.900
                  79735638.933 5  19231975.461                    19231978.770
                        34.100
                  88342439.849 6  21255535.914                    21255537.816
                        38.700
                  95792266.003 5  23031813.984                    23031818.219
                        35.800
                  88896241.963 6  21411335.109                    21411338.434
                        38.100
 114912691.201 8  89542408.89645  21867168.664                    21867171.723
        48.200          32.800
 129096470.143 6 100594572.14444  24566219.258                    24566219.930
        41.700          27.400
 117070047.410 7  91223436.84145  22277689.125                    22277695.465
        45.500          35.000
 121771858.092 7  94887188.61045  23172416.578                    23172423.070
        45.100          30.200
                  83979047.003 6  20184426.758                    20184425.996
                        38.600
 109495667.175 7  85321321.18345  20836332.617                    20836338.816
        45.900          34.800
 119933602.021 7  93454777.82244  22822605.945                    22822611.660
        45.500          28.000
 125769449.191 7  98002185.65844  23933129.164                    23933132.840
        42.600          27.100
 116243157.647 7  90579090.96145  22120338.727                    22120339.367
        44.900          31.700
 18  3 15 13 16 39.0000000  0 18R01R02G11G12R09R10R11R20R18G17G22G01
                                G10R19G24G32G28G19
                  87698991.237 6  21093313.773                    21093318.004
                        36.400
                  85749783.653 6  20660750.984                    20660752.988
                        37.100
 121224903.372 7  94460970.97844  23068332.680                    23068334.520
        45.100          27.000
 121181986.984 6  94427562.88643  23060172.266                    23060176.680
        39.200          21.700
                  90771529.217 6  21855330.844                    21855332.242
                        38.600
                  79736257.173 5  19232124.031                    19232128.180
                        33.700
                  88339904.616 6  21254925.828                    21254927.477
                        39.100
                  95789068.810 5  23031046.094                    23031049.477
                        35.300
                  88899009.294 6  21412002.156                    21412004.328
                        38.100
 114912102.096 8  89541949.86045  21867056.039                    21867059.492
        48.100          32.300
 129094036.860 6 100592676.06344  24565756.227                    24565757.262
        41.300          26.300
 117070775.058 7  91224003.83245  22277827.656                    22277834.195
        44.900          34.600
 121774824.616 7  94889500.17744  23172981.180                    23172987.086
        44.700          29.100
                  83978483.197 6  20184290.703                    20184290.512
                        38.500
 109496341.204 7  85321846.40945  20836460.859                    20836467.168
        46.000          35.300
 119931577.865 7  93453200.58544  22822220.406                    22822226.375
        45.700          29.500
 125773091.566 7  98005023.87044  23933823.969                    23933825.723
        43.200          28.400
 116240931.814 7  90577356.54745  22119914.602                    22119916.418
        44.100          31.200
 18  3 15 13 16 40.0000000  0 18R01R02G11G12R09R10R11R20R18G17G22G01
                                G10R19G24G32G28G19
                  87701619.205 6  21093946.102                    21093950.406
                        36.400
                  85748616.780 6  20660469.242                    20660471.930
                        37.200
 121227509.347 7  94463001.60444  23068828.258                    23068829.707
        45.200          28.100
 121178650.456 6  94424963.05243  23059537.680                    23059541.648
        40.400          22.300
                  90774954.896 6  21856156.680                    21856156.754
                        38.600
                  79736876.081 5  19232273.539                    19232277.227
                        34.500
                  88337369.727 6  21254315.781                    21254318.453
                        39.100
                  95785871.862 5  23030275.828                    23030280.973
                        35.300
                  88901777.146 6  21412668.797                    21412670.824
                        38.700
 114911513.612 8  89541491.30345  21866944.211                    21866947.785
        48.300          32.700
 129091603.899 6 100590780.26044  24565293.063                    24565294.285
        41.400          25.300
 117071503.480 7  91224571.43645  22277966.375                    22277972.457
        44.500          33.700
 121777791.635 7  94891812.13744  23173545.648                    23173551.707
        45.300          29.600
                  83977920.121 6  20184155.398                    20184155.082
                        38.500
 109497015.949 7  85322372.18045  20836589.328                    20836595.359
        46.300          35.200
 119929554.071 7  93451623.55244  22821835.195                    22821841.359
        44.600          29.100
 125776734.157 7  98007862.23844  23934517.094                    23934519.262
        43.900          29.000
 116238706.552 7  90575622.57545  22119490.422                    22119492.289
        43.900          31.400
 18  3 15 13 16 41.0000000  0 18R01R02G11G12R09R10R11R20R18G17G22G01
                                G10R19G24G32G28G19
                  87704247.718 6  21094580.711                    21094582.859
                        36.700
                  85747450.578 6  20660189.172                    20660190.484
                        36.900
 121230115.939 7  94465032.72444  23069324.758                    23069325.898
        45.100          28.500
 121175314.193 6  94422363.41044  23058904.188                    23058907.180
        41.100          24.500
                  90778380.842 6  21856982.086                    21856981.141
                        38.900
                  79737495.666 5  19232423.797                    19232426.543
                        34.900
                  88334835.239 6  21253705.813                    21253708.410
                        38.900
                  95782675.166 5  23029508.227                    23029512.238
                        35.100
                  88904545.521 6  21413336.477                    21413337.914
                        38.700
 114910925.781 8  89541033.25545  21866832.484                    21866835.914
        48.300          33.300
 129089171.369 6 100588884.80644  24564830.336                    24564831.141
        41.300          26.100
 117072232.663 7  91225139.62745  22278105.117                    22278111.398
        44.700          34.200
 121780759.167 7  94894124.52144  23174109.313                    23174116.848
        43.600          29.800
                  83977357.782 6  20184020.648                    20184020.164
                        38.600
 109497691.364 7  85322898.47945  20836717.977                    20836723.820
        46.100          35.800
 119927530.981 7  93450047.03444  22821449.414                    22821456.492
        43.800          28.700
 125780376.953 7  98010700.77344  23935210.523                    23935212.988
        44.200          29.700
 116236481.884 7  90573889.07345  22119068.289                    22119069.148
        44.600          31.500
 18  3 15 13 16 42.0000000  0 18R01R02G11G12R09R10R11R20R18G17G22G01
                                G10R19G24G32G28G19
                  87706876.758 6  21095212.242                    21095214.988
                        36.700
                  85746284.973 6  20659908.109                    20659910.133
                        37.300
 121232723.099 7  94467064.27344  23069820.609                    23069822.180
        44.900          28.700
 121171978.203 6  94419763.95544  23058269.078                    23058272.129
        41.400          26.200
                  90781807.064 6  21857805.492                    21857806.652
                        38.700
                  79738115.884 5  19232572.773                    19232575.969
                        34.400
                  88332301.117 6  21253096.758                    21253098.340
                        38.900
                  95779478.633 5  23028741.172                    23028743.469
                        35.000
                  88907314.399 6  21414003.336                    21414004.242
                        39.100
 114910338.528 8  89540575.65145  21866720.375                    21866724.059
        48.200          33.200
 129086739.102 6 100586989.55144  24564367.328                    24564368.113
        40.900          27.500
 117072962.523 7  91225708.35445  22278244.281                    22278249.938
        44.600          35.000
 121783727.166 7  94896437.26044  23174673.602                    23174681.574
        43.500          28.500
                  83976796.130 6  20183885.750                    20183885.574
                        38.600
 109498367.413 7  85323425.26446  20836846.359                    20836852.613
        46.200          36.400
 119925508.365 7  93448470.91944  22821064.063                    22821071.125
        43.600          27.800
 125784019.923 7  98013539.45445  23935902.789                    23935906.129
        43.300          30.000
 116234257.831 7  90572156.04545  22118645.172                    22118646.160
        44.300          31.200
 18  3 15 13 16 43.0000000  0 18R01R02G11G12R09R10R11R20R18G17G22G01
                                G10R19G24G32G28G19
                  87709506.380 6  21095842.969                    21095847.121
                        36.300
                  85745120.029 6  20659628.227                    20659629.277
                        37.100
 121235330.931 7  94469096.35244  23070316.813                    23070318.336
        45.300          28.900
 121168642.537 6  94417164.73444  23057634.328                    23057637.691
        41.100          25.000
                  90785233.594 6  21858631.656                    21858631.512
                        38.700
                  79738736.796 5  19232723.211                    19232725.730
                        34.500
                  88329767.346 6  21252486.617                    21252488.988
                        38.800
                  95776282.289 5  23027972.625                    23027975.813
                        34.600
                  88910083.795 6  21414670.984                    21414671.813
                        39.100
 114909751.928 8  89540118.55845  21866608.844                    21866612.375
        48.300          31.700
 129084307.208 6 100585094.57644  24563904.406                    24563905.309
        40.800          27.000
 117073693.196 7  91226277.70345  22278383.570                    22278389.141
        44.600          35.200
 121786695.717 7  94898750.41344  23175238.602                    23175246.277
        42.200          29.700
                  83976235.257 6  20183750.844                    20183750.547
                        38.900
 109499044.177 7  85323952.61445  20836975.781                    20836981.414
        46.000          35.700
 119923486.229 7  93446895.21244  22820680.203                    22820686.535
        43.300          27.300
 125787663.169 7  98016378.34444  23936596.164                    23936599.891
        43.100          29.000
 116232034.317 7  90570423.43545  22118221.227                    22118222.961
        43.700          31.100
 18  3 15 13 16 44.0000000  0 18R01R02G11G12R09R10R11R20R18G17G22G01
                                G10R19G24G32G28G19
                  87712136.471 6  21096476.367                    21096480.488
                        36.400
                  85743955.713 6  20659347.406                    20659348.313
                        37.300
 121237939.312 7  94471128.85444  23070813.375                    23070814.633
        45.900          28.600
 121165307.165 6  94414565.73643  23056999.609                    23057003.082
        39.900          22.300
                  90788660.360 6  21859456.539                    21859456.484
                        38.900
                  79739358.318 5  19232873.273                    19232875.797
                        34.900
                  88327233.909 6  21251878.242                    21251879.535
                        38.800
                  95773086.079 5  23027203.031                    23027206.332
                        34.800
                  88912853.673 6  21415339.039                    21415339.379
                        39.600
 114909165.928 8  89539661.92945  21866497.617                    21866501.023
        48.100          32.700
 129081875.669 6 100583199.86744  24563442.141                    24563443.074
        41.400          26.700
 117074424.594 7  91226847.62245  22278523.078                    22278528.375
        44.100          35.200
 121789664.724 6  94901063.91145  23175803.133                    23175811.168
        41.700          30.400
                  83975675.072 6  20183616.297                    20183616.102
                        38.700
 109499721.581 7  85324480.46445  20837104.391                    20837110.172
        45.900          35.400
 119921464.646 7  93445319.94944  22820295.914                    22820301.457
        44.100          26.900
 125791306.564 7  98019217.34944  23937289.414                    23937292.539
        43.200          28.500
 116229811.372 7  90568691.26945  22117799.141                    22117799.738
        44.400          31.100
 18  3 15 13 16 45.0000000  0 18R01R02G11G12R09R10R11R20R18G17G22G01
                                G10R19G24G32G28G19
                  87714767.121 6  21097110.203                    21097112.879
                        36.300
                  85742792.036 6  20659067.297                    20659068.492
                        37.100
 121240548.349 7  94473161.88044  23071309.367                    23071310.855
        46.400          29.000
 121161972.072 6  94411966.94743  23056364.273                    23056368.504
        38.600          21.700
                  90792087.410 6  21860282.563                    21860282.348
                        38.900
                  79739980.536 5  19233022.805                    19233026.480
                        34.100
                  88324700.816 6  21251267.719                    21251269.547
                        38.900
                  95769890.231 5  23026435.336                    23026438.023
                        35.200
                  88915624.029 6  21416006.750                    21416006.125
                        39.600
 114908580.553 8  89539205.79345  21866385.961                    21866389.652
        48.200          32.100
 129079444.528 6 100581305.47444  24562979.102                    24562980.355
        41.800          26.200
 117075156.723 7  91227418.11345  22278662.313                    22278667.652
        44.300          34.800
 121792634.249 6  94903377.79644  23176368.742                    23176376.406
        41.100          29.900
                  83975115.624 6  20183481.492                    20183481.086
                        38.600
 109500399.701 7  85325008.87245  20837233.266                    20837239.348
        45.900          35.200
 119919443.579 7  93443745.08644  22819911.672                    22819916.703
        44.100          26.900
 125794950.194 7  98022056.53944  23937982.641                    23937986.074
        43.500          28.900
 116227589.019 7  90566959.55945  22117375.984                    22117376.992
        44.900          30.500
 18  3 15 13 16 46.0000000  0 18R01R02G11G12R09R10R11R20R18G17G22G01
                                G10R19G24G32G28G19
                  87717398.285 5  21097742.156                    21097745.902
                        35.700
                  85741629.016 6  20658786.125                    20658788.004
                        36.900
 121243157.939 7  94475195.34344  23071806.406                    23071807.668
        46.000          28.300
 121158637.148 6  94409368.28843  23055728.727                    23055733.422
        37.500          20.100
                  90795514.707 6  21861106.969                    21861107.070
                        38.900
                  79740603.392 5  19233172.930                    19233175.996
                        34.700
                  88322168.058 6  21250658.414                    21250660.934
                        39.100
                  95766694.544 5  23025666.648                    23025669.715
                        35.500
                  88918394.877 6  21416673.219                    21416674.355
                        39.800
 114907995.768 7  89538750.12045  21866274.586                    21866278.281
        47.900          32.200
 129077013.646 6 100579411.27944  24562516.930                    24562517.984
        41.700          26.400
 117075889.563 7  91227989.16045  22278801.984                    22278807.492
        44.200          34.600
 121795604.236 7  94905692.03145  23176934.586                    23176941.145
        42.900          30.600
                  83974556.877 6  20183346.969                    20183346.969
                        38.100
 109501078.410 7  85325537.73545  20837362.320                    20837368.340
        45.800          35.100
 119917423.007 7  93442170.61244  22819527.094                    22819532.480
        44.900          27.200
 125798593.974 7  98024895.84644  23938676.648                    23938679.691
        43.700          28.200
 116225367.205 7  90565228.27145  22116952.656                    22116954.094
        44.500          30.900
 18  3 15 13 16 47.0000000  0 18R01R02G11G12R09R10R11R20R18G17G22G01
                                G10R19G24G32G28G19
                  87720029.964 6  21098374.953                    21098378.473
                        36.200
                  85740466.673 6  20658505.797                    20658507.750
                        37.500
 121245768.119 7  94477229.25844  23072302.938                    23072303.906
        45.800          28.900
 121155302.583 6  94406769.91043  23055093.750                    23055099.156
        37.500          19.300
                  90798942.276 6  21861932.617                    21861931.918
                        38.700
                  79741226.921 5  19233322.789                    19233326.871
                        35.000
                  88319635.648 6  21250049.156                    21250051.355
                        39.100
                  95763499.031 5  23024897.883                    23024901.957
                        35.000
                  88921166.268 6  21417342.070                    21417342.809
                        40.400
 114907411.585 7  89538294.91545  21866163.227                    21866166.918
        47.800          31.900
 129074583.133 6 100577517.37244  24562054.367                    24562055.223
        41.600          26.800
 117076623.120 7  91228560.75645  22278941.563                    22278946.441
        43.800          34.900
 121798574.674 7  94908006.62444  23177500.609                    23177506.727
        43.900          29.700
                  83973998.844 6  20183213.266                    20183213.004
                        38.500
 109501757.894 7  85326067.20145  20837491.773                    20837497.637
        45.800          35.000
 119915402.939 7  93440596.52144  22819142.172                    22819147.648
        44.600          27.800
 125802237.965 7  98027735.30944  23939370.852                    23939372.887
        44.600          29.200
 116223145.980 7  90563497.45945  22116530.406                    22116531.453
        44.700          31.600
 18  3 15 13 16 48.0000000  0 18R01R02G11G12R09R10R11R20R18G17G22G01
                                G10R19G24G32G28G19
                  87722662.217 6  21099008.344                    21099011.738
                        36.000
                  85739305.001 6  20658225.609                    20658227.797
                        37.100
 121248378.963 7  94479263.68844  23072800.164                    23072801.117
        46.100          28.900
 121151968.288 6  94404171.77443  23054458.836                    23054463.828
        38.400          19.900
                  90802370.119 6  21862757.828                    21862757.102
                        38.400
                  79741851.110 5  19233473.781                    19233477.516
                        34.600
                  88317103.583 6  21249439.391                    21249442.441
                        39.000
                  95760303.781 5  23024130.070                    23024133.398
                        34.300
                  88923938.165 6  21418008.758                    21418009.758
                        40.100
 114906828.065 7  89537840.22545  21866052.273                    21866055.992
        47.900          32.100
 129072152.971 6 100575623.74644  24561591.461                    24561593.047
        41.300          26.000
 117077357.458 7  91229132.97045  22279081.531                    22279086.293
        44.100          34.700
 121801545.606 7  94910321.62344  23178066.352                    23178071.836
        44.600          29.500
                  83973441.542 6  20183079.391                    20183079.410
                        38.900
 109502438.024 7  85326597.16745  20837621.023                    20837627.078
        46.000          35.400
 119913383.425 7  93439022.85844  22818758.055                    22818763.719
        44.100          27.900
 125805882.161 7  98030574.93644  23940064.930                    23940066.734
        45.800          29.900
 116220925.361 7  90561767.10445  22116108.297                    22116108.730
        45.200          30.900
 18  3 15 13 16 49.0000000  0 18R01R02G11G12R09R10R11R20R18G17G22G01
                                G10R19G24G32G28G19
                  87725294.998 6  21099641.875                    21099645.168
                        36.200
                  85738143.977 6  20657946.367                    20657948.379
                        36.900
 121250990.417 7  94481298.58944  23073296.672                    23073297.836
        46.000          29.300
 121148634.304 6  94401573.83643  23053825.703                    23053829.906
        39.300          21.500
                  90805798.239 6  21863582.438                    21863583.969
                        39.000
                  79742475.966 5  19233624.508                    19233627.797
                        34.100
                  88314571.868 6  21248830.742                    21248832.652
                        38.900
                  95757108.760 5  23023363.086                    23023365.043
                        34.500
                  88926710.569 6  21418677.102                    21418678.570
                        40.000
 114906245.158 8  89537386.01945  21865941.391                    21865944.789
        48.000          31.800
 129069723.186 6 100573730.41344  24561129.234                    24561130.371
        41.100          26.000
 117078092.520 7  91229705.73745  22279221.117                    22279226.594
        43.700          34.700
 121804517.013 7  94912636.99944  23178631.742                    23178637.742
        44.700          29.300
                  83972884.955 6  20182945.172                    20182945.301
                        39.100
 109503118.842 7  85327127.67645  20837751.000                    20837756.730
        46.200          35.700
 119911364.441 7  93437449.61644  22818373.711                    22818379.551
        43.400          28.200
 125809526.551 7  98033414.73045  23940758.008                    23940760.629
        46.000          30.700
 116218705.315 7  90560037.19445  22115684.492                    22115686.180
        44.500          31.500
 18  3 15 13 16 50.0000000  0 18R01R02G11G12R09R10R11R20R18G17G22G01
                                G10R19G24G32G28G19
                  87727928.330 6  21100274.531                    21100278.277
                        36.200
                  85736983.571 6  20657666.664                    20657667.871
                        37.200
 121253602.411 7  94483333.90844  23073793.594                    23073794.863
        46.000          28.500
 121145300.610 6  94398976.16343  23053192.125                    23053195.352
        39.400          22.600
                  90809226.652 6  21864407.242                    21864407.660
                        38.900
                  79743101.459 5  19233775.266                    19233778.547
                        34.700
                  88312040.494 6  21248221.711                    21248223.648
                        38.900
                  95753913.879 5  23022593.813                    23022596.801
                        35.200
                  88929483.459 6  21419344.422                    21419346.160
                        39.700
 114905662.839 8  89536932.26845  21865830.820                    21865834.449
        48.300          32.200
 129067293.696 6 100571837.30144  24560667.508                    24560668.285
        40.700          25.800
 117078828.283 7  91230279.05645  22279360.984                    22279366.688
        43.300          33.800
 121807488.902 7  94914952.76144  23179196.852                    23179203.086
        44.500          29.400
                  83972329.091 6  20182811.109                    20182811.336
                        38.700
 109503800.352 7  85327658.72245  20837880.852                    20837886.762
        46.200          35.500
 119909345.895 7  93435876.72644  22817989.711                    22817995.586
        43.900          28.200
 125813171.120 7  98036254.67444  23941450.156                    23941454.770
        44.800          29.000
 116216485.819 7  90558307.71045  22115262.445                    22115263.785
        44.500          31.400
 18  3 15 13 16 51.0000000  0 18R01R02G11G12R09R10R11R20R18G17G22G01
                                G10R19G24G32G28G19
                  87730562.170 6  21100908.883                    21100912.301
                        36.800
                  85735823.784 6  20657387.742                    20657389.246
                        37.100
 121256214.997 7  94485369.68844  23074290.727                    23074292.234
        46.000          27.600
 121141967.162 6  94396378.67644  23052557.156                    23052561.574
        38.800          24.800
                  90812655.298 6  21865234.742                    21865233.926
                        38.500
                  79743727.615 5  19233925.984                    19233929.711
                        34.800
                  88309509.473 6  21247613.070                    21247614.879
                        39.200
                  95750719.201 6  23021826.344                    23021828.832
                        36.300
                  88932256.825 6  21420012.461                    21420015.262
                        39.600
 114905081.115 8  89536478.97945  21865720.031                    21865723.820
        48.500          32.600
 129064864.552 6 100569944.45744  24560204.844                    24560206.066
        40.900          26.100
 117079564.774 7  91230852.93845  22279501.188                    22279506.625
        43.800          35.000
 121810461.291 7  94917268.91044  23179761.313                    23179768.629
        43.600          28.500
                  83971773.948 6  20182678.984                    20182678.082
                        38.900
 109504482.524 7  85328190.28945  20838010.531                    20838016.391
        46.300          35.700
 119907327.888 7  93434304.26444  22817606.219                    22817611.738
        45.000          27.300
 125816815.912 7  98039094.77444  23942143.266                    23942148.199
        43.300          29.300
 116214266.882 7  90556578.67145  22114840.805                    22114841.699
        45.200          30.700
 18  3 15 13 16 52.0000000  0 18R01R02G11G12R09R10R11R20R18G17G22G01
                                G10R19G24G32G28G19
                  87733196.537 6  21101541.750                    21101545.426
                        36.700
                  85734664.623 6  20657108.164                    20657109.902
                        37.000
 121258828.206 7  94487405.94744  23074787.430                    23074789.738
        46.000          28.000
 121138634.038 6  94393781.45443  23051921.320                    23051926.887
        37.900          22.900
                  90816084.189 6  21866060.570                    21866059.914
                        38.400
                  79744354.423 5  19234077.344                    19234081.176
                        35.000
                  88306978.777 6  21247003.891                    21247005.809
                        39.000
                  95747524.737 5  23021057.391                    23021060.875
                        35.400
                  88935030.682 6  21420679.664                    21420682.883
                        39.800
 114904500.004 8  89536026.16745  21865609.539                    21865612.996
        48.800          32.400
 129062435.738 6 100568051.86944  24559742.734                    24559743.969
        41.400          26.900
 117080302.002 7  91231427.40245  22279641.945                    22279647.066
        43.600          35.300
 121813434.181 7  94919585.44444  23180326.766                    23180334.305
        42.900          28.800
                  83971219.507 6  20182545.242                    20182545.363
                        39.100
 109505165.324 7  85328722.34145  20838140.070                    20838146.242
        45.800          35.900
 119905310.377 7  93432732.19444  22817222.336                    22817227.898
        45.200          28.600
 125820460.913 7  98041935.03144  23942836.945                    23942841.672
        42.900          28.400
 116212048.506 7  90554850.05945  22114418.320                    22114419.516
        44.900          31.300
 18  3 15 13 16 53.0000000  0 18R01R02G11G12R09R10R11R20R18G17G22G01
                                G10R19G24G32G28G19
                  87735831.427 6  21102175.016                    21102179.500
                        36.800
                  85733506.072 6  20656828.555                    20656830.813
                        37.900
 121261442.007 7  94489442.67144  23075285.156                    23075287.137
        45.600          28.600
 121135301.140 6  94391184.41643  23051287.281                    23051293.051
        36.300          22.200
                  90819513.362 6  21866885.109                    21866885.547
                        38.700
                  79744981.889 5  19234229.414                    19234233.234
                        35.100
                  88304448.419 6  21246396.000                    21246397.438
                        39.200
                  95744330.500 5  23020289.383                    23020292.625
                        35.300
                  88937805.039 6  21421348.008                    21421350.750
                        40.000
 114903919.524 8  89535573.85345  21865499.188                    21865502.125
        48.600          32.600
 129060007.274 6 100566159.56444  24559280.445                    24559281.668
        41.100          25.100
 117081039.965 7  91232002.43845  22279781.813                    22279787.313
        43.900          34.900
 121816407.542 7  94921902.33544  23180892.203                    23180900.031
        42.300          29.100
                  83970665.782 6  20182412.172                    20182411.469
                        38.900
 109505848.853 7  85329254.96645  20838270.633                    20838276.207
        45.600          35.800
 119903293.366 7  93431160.49344  22816838.469                    22816844.148
        45.700          29.100
 125824106.077 7  98044775.39844  23943531.320                    23943535.055
        43.700          27.900
 116209830.716 7  90553121.90845  22113996.328                    22113997.793
        45.400          31.400
 18  3 15 13 16 54.0000000  0 18R01R02G11G12R09R10R11R20R18G17G22G01
                                G10R19G24G32G28G19
                  87738466.891 6  21102808.891                    21102813.629
                        36.000
                  85732348.237 6  20656550.594                    20656551.742
                        37.700
 121264056.393 7  94491479.85444  23075782.891                    23075784.422
        45.300          29.300
 121131968.498 5  94388587.57843  23050652.758                    23050658.871
        35.400          21.500
                  90822942.835 6  21867710.227                    21867710.762
                        38.900
                  79745610.028 5  19234379.750                    19234383.586
                        35.300
                  88301918.410 6  21245786.563                    21245788.410
                        39.100
                  95741136.536 5  23019521.617                    23019525.191
                        35.900
                  88940579.908 6  21422015.367                    21422019.258
                        39.700
 114903339.663 8  89535122.00945  21865389.141                    21865392.086
        48.500          32.100
 129057579.143 6 100564267.51844  24558818.023                    24558819.211
        40.900          25.500
 117081778.650 7  91232578.04945  22279922.750                    22279927.945
        44.000          35.100
 121819381.388 7  94924219.60344  23181459.414                    23181466.051
        43.300          29.100
                  83970112.801 6  20182279.039                    20182278.629
                        38.800
 109506532.993 7  85329788.06246  20838400.484                    20838406.723
        45.800          36.000
 119901276.867 7  93429589.18144  22816454.086                    22816460.590
        44.900          29.000
 125827751.451 7  98047615.94244  23944225.992                    23944228.891
        44.600          26.500
 116207613.501 7  90551394.21245  22113574.711                    22113575.715
        45.300          30.900
 18  3 15 13 16 55.0000000  0 18R01R02G11G12R09R10R11R20R18G17G22G01
                                G10R19G24G32G28G19
                  87741102.830 6  21103443.789                    21103446.648
                        36.400
                  85731191.028 6  20656271.414                    20656272.813
                        37.400
 121266671.353 7  94493517.47944  23076280.188                    23076282.219
        45.500          29.600
 121128636.169 6  94385991.01043  23050018.508                    23050024.871
        36.200          20.900
                  90826372.506 6  21868537.430                    21868536.770
                        38.600
                  79746238.781 5  19234532.109                    19234535.656
                        35.400
                  88299388.750 6  21245177.563                    21245179.711
                        38.900
                  95737942.737 5  23018753.063                    23018757.676
                        35.100
                  88943355.265 6  21422683.617                    21422688.230
                        39.600
 114902760.342 8  89534670.59045  21865278.797                    21865281.809
        48.600          32.600
 129055151.315 6 100562375.69243  24558356.109                    24558357.426
        41.000          23.900
 117082518.007 7  91233154.17645  22280063.281                    22280068.496
        43.900          35.000
 121822355.734 7  94926537.25144  23182025.664                    23182031.746
        43.900          29.800
                  83969560.505 6  20182147.023                    20182146.527
                        38.500
 109507217.811 7  85330321.68545  20838530.805                    20838536.875
        45.700          35.700
 119899260.851 7  93428018.22544  22816070.258                    22816076.961
        44.300          28.600
 125831396.929 7  98050456.57244  23944919.172                    23944922.023
        44.900          27.500
 116205396.833 7  90549666.93545  22113152.563                    22113154.004
        45.500          31.400
 18  3 15 13 16 56.0000000  0 18R01R02G11G12R09R10R11R20R18G17G22G01
                                G10R19G24G32G28G19
                  87743739.307 6  21104077.984                    21104081.477
                        36.100
                  85730034.475 6  20655992.961                    20655994.039
                        36.900
 121269286.941 7  94495555.58844  23076778.133                    23076780.398
        45.200          28.800
 121125304.053 6  94383394.58243  23049386.109                    23049390.480
        38.100          20.400
                  90829802.461 6  21869364.203                    21869362.746
                        38.800
                  79746868.194 5  19234684.125                    19234687.398
                        34.600
                  88296859.434 6  21244569.195                    21244571.063
                        39.200
                  95734749.146 5  23017986.375                    23017989.523
                        34.200
                  88946131.142 6  21423351.891                    21423356.727
                        39.400
 114902181.671 8  89534219.67745  21865168.531                    21865171.395
        48.000          32.700
 129052723.857 6 100560484.16344  24557894.328                    24557895.625
        40.900          25.700
 117083258.131 7  91233730.89645  22280203.945                    22280209.285
        44.200          35.000
 121825330.500 7  94928855.24444  23182592.156                    23182598.031
        45.000          29.600
                  83969008.911 6  20182014.078                    20182013.953
                        38.600
 109507903.270 7  85330855.81445  20838661.047                    20838667.414
        45.500          35.800
 119897245.387 7  93426447.72544  22815686.594                    22815693.059
        43.800          28.900
 125835042.642 7  98053297.41344  23945612.219                    23945615.969
        44.600          26.900
 116203180.704 7  90547940.08145  22112730.164                    22112732.180
        44.600          30.400
 18  3 15 13 16 57.0000000  0 18R01R02G11G12R09R10R11R20R18G17G22G01
                                G10R19G24G32G28G19
                  87746376.283 5  21104711.602                    21104715.598
                        35.700
                  85728878.547 6  20655714.219                    20655715.957
                        37.800
 121271903.101 7  94497594.15144  23077275.531                    23077278.129
        45.400          29.200
 121121972.304 6  94380798.39643  23048752.859                    23048755.891
        39.800          19.300
                  90833232.663 6  21870187.984                    21870188.699
                        38.900
                  79747498.261 5  19234836.383                    19234839.914
                        34.400
                  88294330.423 6  21243960.813                    21243962.629
                        38.600
                  95731555.652 5  23017218.016                    23017221.059
                        32.600
                  88948907.487 6  21424020.242                    21424025.070
                        39.500
 114901603.570 7  89533769.20645  21865058.789                    21865061.844
        47.900          33.000
 129050296.734 6 100558592.89844  24557432.641                    24557433.258
        40.800          25.300
 117083998.896 7  91234308.10545  22280345.359                    22280350.348
        44.400          35.000
 121828305.732 7  94931173.61144  23183158.734                    23183164.363
        45.500          29.600
                  83968458.030 6  20181880.805                    20181881.031
                        38.600
 109508589.376 7  85331390.43845  20838791.922                    20838797.762
        45.400          35.300
 119895230.380 7  93424877.61044  22815303.344                    22815309.992
        43.500          28.500
 125838688.563 7  98056138.42644  23946305.438                    23946309.527
        43.800          27.200
 116200965.172 7  90546213.70245  22112309.438                    22112310.637
        45.300          31.400
 18  3 15 13 16 58.0000000  0 18R01R02G11G12R09R10R11R20R18G17G22G01
                                G10R19G24G32G28G19
                  87749013.817 5  21105344.766                    21105349.785
                        35.800
                  85727723.275 6  20655435.047                    20655437.602
                        37.200
 121274519.893 7  94499633.21244  23077773.336                    23077776.254
        45.300          29.100
 121118640.824 6  94378202.39443  23048118.609                    23048122.223
        40.500          19.900
                  90836663.164 6  21871013.742                    21871013.813
                        38.600
                  79748128.993 5  19234988.297                    19234991.996
                        35.100
                  88291801.756 6  21243352.273                    21243354.129
                        38.700
                  95728362.445 5  23016449.992                    23016453.000
                        34.400
                  88951684.325 6  21424689.281                    21424693.707
                        39.300
 114901026.130 7  89533319.25345  21864948.445                    21864951.883
        47.900          32.200
 129047869.999 6 100556701.94244  24556970.695                    24556971.855
        40.900          24.500
 117084740.498 7  91234885.96745  22280486.148                    22280491.320
        45.000          35.200
 121831281.464 7  94933492.39244  23183724.617                    23183730.598
        44.600          27.800
                  83967907.903 6  20181749.047                    20181748.758
                        38.700
 109509276.169 7  85331925.60445  20838922.430                    20838928.473
        45.200          35.500
 119893215.855 7  93423307.88644  22814920.578                    22814926.719
        43.600          27.700
 125842334.711 7  98058979.59544  23946999.078                    23947003.023
        42.600          27.100
 116198750.233 7  90544487.78345  22111888.703                    22111889.441
        45.100          31.800
 18  3 15 13 16 59.0000000  0 18R01R02G11G12R09R10R11R20R18G17G22G01
                                G10R19G24G32G28G19
                  87751651.888 6  21105980.625                    21105984.699
                        36.500
                  85726568.636 6  20655157.344                    20655159.500
                        37.200
 121277137.243 7  94501672.71044  23078271.703                    23078274.535
        45.000          27.600
 121115309.625 6  94375606.59943  23047485.016                    23047488.074
        40.400          21.700
                  90840093.901 6  21871840.797                    21871840.449
                        38.100
                  79748760.366 5  19235140.188                    19235143.480
                        35.300
                  88289273.437 6  21242744.539                    21242746.586
                        39.000
                  95725169.405 5  23015682.625                    23015685.074
                        35.300
                  88954461.617 6  21425358.672                    21425362.406
                        38.900
 114900449.281 7  89532869.76545  21864838.648                    21864842.137
        47.600          32.500
 129045443.558 6 100554811.22844  24556509.195                    24556510.078
        41.200          26.000
 117085482.770 7  91235464.35745  22280628.078                    22280632.992
        45.200          35.100
 121834257.671 7  94935811.54744  23184290.602                    23184297.316
        45.000          29.600
                  83967358.499 6  20181617.008                    20181617.188
                        38.900
 109509963.632 7  85332461.29145  20839053.617                    20839059.316
        45.600          35.600
 119891201.795 7  93421738.50944  22814537.336                    22814543.133
        44.100          28.500
 125845981.012 7  98061820.86544  23947694.141                    23947696.547
        42.600          28.500
 116196535.828 7  90542762.26345  22111466.898                    22111467.582
        45.100          31.600
 18  3 15 13 17  0.0000000  0 18R01R02G11G12R09R10R11R20R18G17G22G01
                                G10R19G24G32G28G19
                  87754290.503 6  21106615.641                    21106619.145
                        36.500
                  85725414.638 6  20654879.070                    20654881.563
                        37.000
 121279755.229 7  94503712.69844  23078769.828                    23078772.766
        45.000          28.800
 121111978.714 6  94373011.03143  23046851.102                    23046854.023
        40.000          22.500
                  90843524.938 6  21872666.664                    21872666.664
                        38.300
                  79749392.425 5  19235293.070                    19235296.145
                        34.700
                  88286745.514 6  21242135.867                    21242138.359
                        38.900
                  95721976.623 6  23014915.078                    23014918.320
                        36.000
                  88957239.431 6  21426028.023                    21426031.262
                        38.700
 114899873.048 7  89532420.75245  21864729.008                    21864732.504
        47.800          33.100
 129043017.489 6 100552920.79244  24556047.219                    24556048.297
        41.100          25.900
 117086225.854 7  91236043.38445  22280769.000                    22280774.281
        45.300          35.400
 121837234.386 7  94938131.09944  23184856.000                    23184863.750
        43.700          28.700
                  83966809.825 6  20181485.570                    20181485.230
                        39.200
 109510651.803 7  85332997.52945  20839184.391                    20839190.465
        45.400          35.800
 119889188.283 7  93420169.50644  22814154.242                    22814159.496
        44.500          27.000
 125849627.548 7  98064662.31344  23948387.836                    23948390.379
        43.000          26.900
 116194322.032 7  90541037.22745  22111045.273                    22111046.387
        45.200          31.500
 18  3 15 13 17  1.0000000  0 18R01R02G11G12R09R10R11R20R18G17G22G01
                                G10R19G24G32G28G19
                  87756929.633 6  21107250.039                    21107253.383
                        36.800
                  85724261.296 6  20654602.133                    20654603.434
                        37.000
 121282373.793 7  94505753.13544  23079268.094                    23079270.793
        44.700          28.200
 121108648.073 6  94370415.71143  23046216.750                    23046220.664
        38.400          22.500
                  90846956.255 6  21873492.211                    21873493.250
                        38.300
                  79750025.132 5  19235445.695                    19235449.133
                        34.900
                  88284217.934 6  21241527.930                    21241529.441
                        39.300
                  95718784.027 5  23014146.547                    23014150.438
                        35.800
                  88960017.772 6  21426698.484                    21426699.547
                        38.500
 114899297.456 7  89531972.23745  21864619.602                    21864623.078
        47.800          32.400
 129040591.766 6 100551030.62144  24555586.195                    24555587.113
        41.200          25.500
 117086969.649 7  91236622.97645  22280910.336                    22280915.930
        45.500          35.600
 121840211.584 7  94940450.99244  23185422.258                    23185430.211
        42.900          27.900
                  83966261.888 6  20181353.352                    20181353.137
                        39.000
 109511340.629 7  85333534.27545  20839314.734                    20839321.438
        44.800          35.200
 119887175.288 7  93418600.88744  22813771.039                    22813776.621
        44.400          27.800
 125853274.251 7  98067503.89444  23949082.438                    23949083.926
        43.200          26.400
 116192108.832 7  90539312.65245  22110623.852                    22110625.148
        45.200          31.000
 18  3 15 13 17  2.0000000  0 18R01R02G11G12R09R10R11R20R18G17G22G01
                                G10R19G24G32G28G19
                  87759569.328 6  21107884.688                    21107888.910
                        36.500
                  85723108.646 6  20654323.383                    20654325.516
                        36.800
 121284992.995 7  94507794.06144  23079766.430                    23079769.355
        43.900          28.000
 121105317.725 6  94367820.66043  23045583.039                    23045587.277
        37.600          22.500
                  90850387.857 6  21874318.820                    21874319.109
                        38.200
                  79750658.524 5  19235597.688                    19235601.801
                        34.400
                  88281690.704 6  21240920.273                    21240921.645
                        38.900
                  95715591.745 5  23013379.977                    23013383.363
                        35.800
                  88962796.659 6  21427368.313                    21427369.051
                        38.400
 114898722.482 8  89531524.20945  21864510.547                    21864513.613
        48.000          32.700
 129038166.366 6 100549140.68644  24555124.875                    24555125.746
        41.400          25.300
 117087714.181 7  91237203.14645  22281051.789                    22281057.402
        46.000          35.200
 121843189.302 7  94942771.28144  23185988.523                    23185996.426
        42.500          27.500
                  83965714.688 6  20181222.305                    20181222.090
                        38.600
 109512030.133 7  85334071.55046  20839446.297                    20839452.852
        44.700          36.100
 119885162.758 7  93417032.62344  22813387.484                    22813393.371
        43.800          28.300
 125856921.151 7  98070345.63644  23949776.313                    23949777.980
        43.600          26.400
 116189896.193 7  90537588.51845  22110202.500                    22110204.059
        44.500          31.300
 18  3 15 13 17  3.0000000  0 18R01R02G11G12R09R10R11R20R18G17G22G01
                                G10R19G24G32G28G19
                  87762209.552 6  21108519.523                    21108523.273
                        36.800
                  85721956.646 6  20654045.703                    20654047.461
                        37.100
 121287612.791 7  94509835.45544  23080265.242                    23080268.391
        44.500          28.400
 121101987.713 6  94365225.89043  23044948.969                    23044953.656
        36.500          21.800
                  90853819.692 6  21875145.938                    21875145.605
                        39.000
                  79751292.563 5  19235751.008                    19235754.668
                        34.900
                  88279163.831 6  21240312.313                    21240313.836
                        38.900
                  95712399.655 5  23012612.547                    23012615.527
                        34.700
                  88965576.044 6  21428037.594                    21428038.375
                        38.200
 114898148.131 8  89531076.66445  21864400.938                    21864404.246
        48.200          32.700
 129035741.350 6 100547251.04544  24554662.570                    24554663.629
        41.000          25.300
 117088459.449 7  91237783.88745  22281193.602                    22281199.453
        46.500          35.300
 121846167.506 7  94945091.92744  23186556.305                    23186563.141
        42.400          29.800
                  83965168.196 6  20181090.977                    20181090.430
                        38.900
 109512720.331 7  85334609.36845  20839578.031                    20839584.199
        44.700          35.700
 119883150.826 7  93415464.82044  22813004.727                    22813010.441
        44.000          29.300
 125860568.238 7  98073187.53544  23950470.570                    23950471.602
        43.900          27.900
 116187684.132 7  90535864.84345  22109781.578                    22109783.035
        44.700          31.400
 18  3 15 13 17  4.0000000  0 18R01R02G11G12R09R10R11R20R18G17G22G01
                                G10R19G24G32G28G19
                  87764850.282 6  21109155.609                    21109158.602
                        36.000
                  85720805.329 6  20653768.875                    20653770.480
                        37.200
 121290233.187 7  94511877.31744  23080763.555                    23080767.047
        44.500          28.300
 121098657.892 6  94362631.25543  23044315.242                    23044319.922
        37.600          21.300
                  90857251.813 6  21875971.219                    21875971.484
                        38.700
                  79751927.252 5  19235903.984                    19235908.055
                        34.600
                  88276637.294 6  21239703.742                    21239705.492
                        39.300
                  95709207.705 5  23011845.367                    23011847.672
                        34.500
                  88968355.922 6  21428707.602                    21428707.688
                        38.100
 114897574.387 7  89530629.59645  21864291.508                    21864295.184
        47.900          32.300
 129033316.679 6 100545361.68444  24554201.633                    24554202.680
        41.100          25.500
 117089205.458 7  91238365.19345  22281335.125                    22281341.559
        46.600          35.400
 121849146.206 7  94947412.95344  23187124.102                    23187130.082
        43.800          29.300
                  83964622.421 6  20180959.219                    20180959.633
                        39.100
 109513411.206 7  85335147.71545  20839709.422                    20839715.629
        44.900          35.200
 119881139.391 7  93413897.43944  22812622.328                    22812627.844
        44.100          28.100
 125864215.571 7  98076029.63244  23951164.305                    23951166.004
        43.800          27.900
 116185472.641 7  90534141.61145  22109362.000                    22109362.867
        45.300          31.400
 18  3 15 13 17  5.0000000  0 18R01R02G11G12R09R10R11R20R18G17G22G01
                                G10R19G24G32G28G19
                  87767491.558 6  21109790.867                    21109794.184
                        36.800
                  85719654.640 6  20653492.195                    20653492.535
                        37.200
 121292854.172 7  94513919.62844  23081262.477                    23081265.980
        44.900          28.500
 121095328.461 6  94360036.92943  23043682.086                    23043686.168
        37.700          21.100
                  90860684.222 6  21876797.352                    21876798.438
                        38.900
                  79752562.604 5  19236056.938                    19236061.063
                        34.400
                  88274111.122 6  21239095.398                    21239097.988
                        39.100
                  95706016.031 5  23011078.156                    23011080.352
                        34.300
                  88971136.262 6  21429377.344                    21429376.891
                        38.600
 114897001.238 8  89530182.98245  21864182.789                    21864185.750
        48.300          33.000
 129030892.333 6 100543472.58044  24553740.508                    24553741.066
        40.900          24.500
 117089952.202 7  91238947.06745  22281477.219                    22281483.555
        47.200          35.300
 121852125.354 7  94949734.35644  23187691.164                    23187697.188
        43.900          28.900
                  83964077.359 6  20180827.766                    20180828.422
                        39.000
 109514102.767 7  85335686.59245  20839840.711                    20839847.160
        44.700          35.500
 119879128.487 7  93412330.50144  22812239.773                    22812244.770
        44.100          28.400
 125867863.061 7  98078871.85244  23951858.039                    23951860.426
        43.300          29.200
 116183261.743 7  90532418.83345  22108940.680                    22108941.930
        45.100          31.200
 18  3 15 13 17  6.0000000  0 18R01R02G11G12R09R10R11R20R18G17G22G01
                                G10R19G24G32G28G19
                  87770133.376 6  21110425.430                    21110429.703
                        37.000
                  85718504.546 6  20653214.961                    20653215.918
                        36.900
 121295475.742 7  94515962.39644  23081761.555                    23081764.859
        44.700          29.100
 121091999.249 6  94357442.73243  23043048.414                    23043052.438
        39.400          21.100
                  90864116.880 6  21877623.820                    21877625.039
                        38.600
                  79753198.589 5  19236210.727                    19236214.320
                        35.000
                  88271585.270 6  21238488.219                    21238490.453
                        39.300
                  95702824.493 5  23010311.906                    23010312.535
                        33.800
                  88973917.069 6  21430046.141                    21430046.426
                        39.100
 114896428.701 7  89529736.85245  21864073.570                    21864076.891
        47.900          32.600
 129028468.339 6 100541583.74744  24553279.234                    24553280.082
        41.000          24.300
 117090699.647 7  91239529.49645  22281620.164                    22281626.520
        47.500          35.400
 121855104.940 7  94952056.10544  23188258.391                    23188263.824
        44.700          28.900
                  83963532.984 6  20180697.969                    20180697.758
                        38.900
 109514794.968 7  85336225.96845  20839972.508                    20839978.527
        44.600          35.400
 119877118.065 7  93410763.95544  22811857.688                    22811862.641
        43.900          28.100
 125871510.766 7  98081714.23145  23952552.453                    23952554.973
        43.600          30.600
 116181051.381 7  90530696.47045  22108519.641                    22108521.199
        44.700          31.400
 18  3 15 13 17  7.0000000  0 18R01R02G11G12R09R10R11R20R18G17G22G01
                                G10R19G24G32G28G19
                  87772775.672 6  21111061.297                    21111064.887
                        36.400
                  85717355.122 6  20652938.031                    20652938.738
                        36.900
 121298097.957 7  94518005.67944  23082260.867                    23082263.781
        44.500          29.800
 121088670.278 6  94354848.68043  23042414.344                    23042418.633
        37.600          20.100
                  90867549.772 6  21878451.656                    21878450.570
                        38.800
                  79753835.250 5  19236364.172                    19236368.230
                        35.900
                  88269059.731 6  21237880.273                    21237882.699
                        38.600
                  95699633.156 5  23009542.734                    23009545.301
                        34.600
                  88976698.401 6  21430715.938                    21430715.813
                        39.000
 114895856.775 7  89529291.19245  21863964.781                    21863967.867
        47.800          32.400
 129026044.691 6 100539695.18944  24552817.055                    24552818.270
        40.500          24.900
 117091447.837 7  91240112.50145  22281762.211                    22281768.758
        47.700          35.200
 121858085.037 7  94954378.27545  23188825.273                    23188831.129
        46.000          32.300
                  83962989.348 6  20180567.133                    20180566.594
                        39.000
 109515487.825 7  85336765.85045  20840104.602                    20840110.742
        45.100          35.200
 119875108.145 7  93409197.79544  22811475.086                    22811480.473
        44.900          27.400
 125875158.628 7  98084556.71644  23953246.773                    23953249.379
        44.100          29.900
 116178841.603 7  90528974.56345  22108099.195                    22108100.527
        45.000          31.100
