     2.11           OBSERVATION DATA    M (MIXED)           RINEX VERSION / TYPE
teqc  2018Mar15                         20180319 14:17:32UTCPGM / RUN BY / DATE
Linux 2.6.32-573.12.1.x86_64|x86_64|gcc -static|Linux 64|=+ COMMENT
END OF STATIC MODE OBSERVATION                              COMMENT
BIT 2 OF LLI FLAGS DATA COLLECTED UNDER A/S CONDITION       COMMENT
-Unknown-                                                   MARKER NAME
4625                                                        MARKER NUMBER
-Unknown-           -Unknown-                               OBSERVER / AGENCY
5127468778          TRIMBLE             4.63                REC # / TYPE / VERS
47477114                            NONE                    ANT # / TYPE
 -4078709.9211        0.0000  4887104.6879                  APPROX POSITION XYZ
        0.0000        0.0000        0.0000                  ANTENNA: DELTA H/E/N
     1     1                                                WAVELENGTH FACT L1/2
     7    L1    L2    C1    P1    P2    S1    S2            # / TYPES OF OBSERV
    18                                                      LEAP SECONDS
 SNR is mapped to RINEX snr flag value [0-9]                COMMENT
  L1 & L2: min(max(int(snr_dBHz/6), 0), 9)                  COMMENT
  2018     3    11    12    25    9.0000000     GPS         TIME OF FIRST OBS
                                                            END OF HEADER
 18  3 11 12 25  9.0000000  0 17R05R13R04G17R14R21R12R22R23R15G28G11
                                G01G10G24G15G13
                  84862971.205 5  20411194.828                    20411197.004
                        35.500
                  81545413.215 6  19633934.500                    19633935.055
                        40.600
                  87356680.275 7  20974174.867                    20974174.945
                        43.000
 124052429.291 7  96664266.51144  23606395.883                    23606399.680
        45.900          29.400
                  84154706.645 7  20297841.313                    20297842.621
                        42.400
                  91521821.520 7  21989625.352                    21989626.754
                        42.000
                                  23661639.297

                  84907300.265 7  20450570.172                    20450571.648
                        43.000
                  95907670.683 6  23051476.898                    23051481.707
                        37.100
                  97816522.454 6  23535032.570                    23535036.906
                        36.400
 115706642.814 7  90161028.92745  22018242.859                    22018245.207
        47.600          34.600
 118626708.845 7  92436407.78545  22573912.500                    22573915.453
        45.300          30.100
 122290907.620 7  95291634.06744  23271185.328                    23271191.871
        43.800          29.600
 116875482.420 7  91071822.31345  22240665.555                    22240670.965
        47.200          35.200
 114480072.525 8  89205273.27346  21784833.109                    21784839.277
        48.000          37.600
 118031482.476 7  91972593.53345  22460644.016                    22460647.848
        45.500          34.200
 124230933.260 6  96803342.45143  23640360.750                    23640364.492
        40.900          22.200
 18  3 11 12 25 10.0000000  0 17R05R13R04G17R14R21R12R22R23R15G28G11
                                G01G10G24G15G13
                  84862444.063 5  20411068.695                    20411070.109
                        35.600
                  81546878.790 6  19634286.563                    19634287.949
                        40.900
                  87359368.848 7  20974819.586                    20974820.836
                        42.800
 124049735.558 7  96662167.50245  23605883.594                    23605887.430
        45.700          30.000
                  84152869.749 7  20297397.164                    20297399.660
                        42.200
                  91524762.682 6  21990330.211                    21990333.086
                        41.600
                                  23662555.570

                  84906934.710 7  20450482.438                    20450483.750
                        43.200
                  95904491.383 6  23050711.578                    23050718.008
                        36.400
                  97813268.354 6  23534250.211                    23534254.324
                        36.700
 115708790.604 7  90162702.52545  22018650.984                    22018653.902
        47.600          34.100
 118626314.876 7  92436100.79045  22573837.641                    22573840.305
        45.600          30.100
 122288781.041 7  95289976.99444  23270779.555                    23270787.320
        42.400          28.600
 116875805.496 7  91072074.05945  22240727.273                    22240732.902
        47.100          35.100
 114478091.793 8  89203729.83846  21784456.406                    21784462.324
        48.200          37.500
 118034559.340 7  91974991.07445  22461230.648                    22461233.563
        46.000          34.400
 124235009.120 6  96806518.43543  23641136.375                    23641140.359
        40.600          21.500
 18  3 11 12 25 11.0000000  0 16R05R13R04G17R14R21R22R23R15G28G11G01
                                G10G24G15G13
                  84861917.649 5  20410942.547                    20410943.445
                        35.700
                  81548344.962 6  19634640.219                    19634641.266
                        40.700
                  87362057.978 7  20975466.180                    20975466.172
                        43.100
 124047042.189 7  96660068.79245  23605371.117                    23605374.754
        45.500          30.100
                  84151033.375 7  20296954.313                    20296956.293
                        42.400
                  91527704.305 6  21991037.695                    21991039.313
                        41.300
                  84906569.930 7  20450394.500                    20450395.555
                        42.700
                  95901312.332 6  23049947.117                    23049953.254
                        36.400
                  97810014.372 6  23533467.523                    23533470.820
                        37.200
 115710938.888 7  90164376.51345  22019059.875                    22019062.551
        47.800          34.200
 118625921.665 7  92435794.40045  22573763.031                    22573765.688
        45.800          30.900
 122286654.986 7  95288320.35544  23270376.055                    23270382.563
        43.700          27.900
 116876129.300 7  91072326.37545  22240788.867                    22240794.148
        47.200          35.300
 114476111.643 8  89202186.87346  21784079.008                    21784085.484
        48.000          37.300
 118037636.642 8  91977388.93145  22461818.281                    22461819.250
        49.100          34.800
 124239085.288 6  96809694.68943  23641911.656                    23641915.746
        40.600          21.100
 18  3 11 12 25 12.0000000  0 16R05R13R04G17R14R21R22R23R15G28G11G01
                                G10G24G15G13
                  84861391.975 6  20410815.406                    20410817.262
                        36.000
                  81549811.805 6  19634993.453                    19634994.340
                        40.900
                  87364747.600 7  20976111.023                    20976112.090
                        42.700
 124044349.184 7  96657970.35345  23604859.125                    23604862.168
        46.200          30.700
                  84149197.523 7  20296511.383                    20296513.469
                        42.400
                  91530646.413 6  21991744.188                    21991746.711
                        41.400
                  84906205.896 7  20450306.852                    20450307.035
                        43.100
                  95898133.523 6  23049182.734                    23049189.020
                        36.900
                  97806760.495 6  23532684.258                    23532688.652
                        37.500
 115713087.688 7  90166050.90745  22019468.930                    22019471.789
        47.600          34.700
 118625529.220 7  92435488.59145  22573687.938                    22573690.656
        45.800          30.200
 122284529.577 7  95286664.21844  23269972.602                    23269977.992
        45.300          28.600
 116876453.797 7  91072579.24245  22240850.125                    22240856.121
        47.200          35.400
 114474132.048 7  89200644.33746  21783702.719                    21783708.637
        47.700          37.500
 118040714.389 8  91979787.15445  22462404.016                    22462405.445
        50.700          35.700
 124243161.732 6  96812871.15443  23642687.391                    23642691.008
        40.100          21.800
 18  3 11 12 25 13.0000000  0 16R05R13R04G17R14R21R22R23R15G28G11G01
                                G10G24G15G13
                  84860867.081 5  20410688.852                    20410691.027
                        35.600
                  81551279.327 6  19635346.742                    19635347.867
                        40.600
                  87367437.847 7  20976757.633                    20976757.367
                        42.700
 124041656.631 7  96655872.26845  23604346.406                    23604349.664
        46.300          30.100
                  84147362.268 7  20296068.797                    20296070.688
                        42.400
                  91533589.079 7  21992451.781                    21992454.109
                        42.300
                  84905842.673 7  20450219.234                    20450220.219
                        42.900
                  95894955.028 6  23048419.914                    23048425.332
                        36.800
                  97803506.849 6  23531900.719                    23531905.730
                        38.000
 115715237.059 7  90167725.73645  22019877.875                    22019880.711
        47.000          34.700
 118625137.588 7  92435183.41945  22573613.227                    22573616.145
        45.400          30.300
 122282404.826 7  95285008.57044  23269568.023                    23269573.676
        45.700          29.100
 116876779.119 7  91072832.75046  22240911.953                    22240918.199
        46.900          36.000
 114472153.087 7  89199102.28946  21783326.313                    21783332.566
        46.900          37.600
 118043792.718 8  91982185.86546  22462988.695                    22462992.141
        49.100          36.000
 124247238.524 6  96816047.86843  23643463.336                    23643467.152
        40.600          22.500
 18  3 11 12 25 14.0000000  0 16R05R13R04G17R14R21R22R23R15G28G11G01
                                G10G24G15G13
                  84860342.919 5  20410563.922                    20410564.566
                        35.600
                  81552747.494 6  19635699.578                    19635701.340
                        40.400
                  87370128.623 7  20977403.547                    20977403.727
                        42.600
 124038964.437 7  96653774.45145  23603834.547                    23603837.496
        47.200          30.000
                  84145527.510 7  20295626.539                    20295628.578
                        42.400
                  91536532.199 7  21993160.891                    21993161.547
                        42.800
                  84905480.232 7  20450131.789                    20450132.805
                        42.800
                  95891776.760 6  23047655.477                    23047661.086
                        36.400
                  97800253.311 6  23531117.531                    23531122.754
                        38.000
 115717386.956 7  90169400.98145  22020286.953                    22020289.887
        46.900          34.500
 118624746.736 7  92434878.85445  22573538.930                    22573542.211
        45.600          30.700
 122280280.603 7  95283353.31644  23269163.438                    23269169.707
        45.000          29.400
 116877105.165 7  91073086.81945  22240973.594                    22240979.906
        46.400          35.000
 114470174.649 7  89197560.64846  21782949.578                    21782955.848
        47.100          37.900
 118046871.590 8  91984585.00945  22463572.914                    22463578.031
        48.100          35.500
 124251315.585 6  96819224.79443  23644239.398                    23644242.738
        41.000          22.600
 18  3 11 12 25 15.0000000  0 16R05R13R04G17R14R21R22R23R15G28G11G01
                                G10G24G15G13
                  84859819.486 5  20410438.008                    20410438.809
                        35.300
                  81554216.305 6  19636053.555                    19636054.605
                        40.600
                  87372819.974 7  20978049.211                    20978050.398
                        42.800
 124036272.645 7  96651676.95845  23603322.445                    23603325.438
        46.800          30.400
                  84143693.297 7  20295184.281                    20295186.316
                        42.600
                  91539475.810 7  21993869.297                    21993868.488
                        43.500
                  84905118.545 7  20450044.063                    20450045.758
                        43.200
                  95888598.774 5  23046893.008                    23046897.426
                        35.800
                  97796999.903 6  23530334.969                    23530340.215
                        37.700
 115719537.360 7  90171076.61945  22020696.414                    22020698.980
        46.700          33.800
 118624356.646 7  92434574.88844  22573465.344                    22573467.891
        45.800          29.800
 122278156.959 7  95281698.53044  23268758.969                    23268765.336
        45.700          29.600
 116877431.965 7  91073341.46845  22241036.445                    22241042.160
        46.500          35.400
 114468196.793 7  89196019.46446  21782573.203                    21782579.398
        47.300          37.900
 118049950.993 8  91986984.54145  22464160.297                    22464164.273
        49.100          35.800
 124255392.962 6  96822401.96643  23645015.289                    23645018.922
        40.600          21.800
 18  3 11 12 25 16.0000000  0 16R05R13R04G17R14R21R22R23R15G28G11G01
                                G10G24G15G13
                  84859296.762 6  20410311.898                    20410312.820
                        36.400
                  81555685.747 6  19636407.531                    19636408.727
                        40.500
                  87375511.854 7  20978695.602                    20978695.988
                        42.600
 124033581.195 7  96649579.72745  23602810.375                    23602813.219
        46.800          31.100
                  84141859.606 7  20294741.570                    20294743.691
                        42.500
                  91542419.903 7  21994576.578                    21994576.094
                        43.600
                  84904757.624 7  20449957.750                    20449959.301
                        43.000
                  95885421.002 5  23046127.734                    23046133.141
                        35.800
                  97793746.600 6  23529552.523                    23529557.543
                        37.900
 115721688.267 7  90172752.64845  22021105.805                    22021108.406
        46.800          34.100
 118623967.328 7  92434271.52545  22573391.664                    22573393.848
        46.000          30.600
 122276033.918 7  95280044.21744  23268355.758                    23268361.207
        46.800          29.100
 116877759.464 7  91073596.65145  22241099.141                    22241104.277
        46.900          35.500
 114466219.465 7  89194478.68146  21782197.070                    21782202.816
        47.600          38.100
 118053030.835 8  91989384.40645  22464747.234                    22464750.195
        51.200          35.200
 124259470.588 6  96825579.34343  23645791.078                    23645794.922
        39.900          21.800
 18  3 11 12 25 17.0000000  0 16R05R13R04G17R14R21R22R23R15G28G11G01
                                G10G24G15G13
                  84858774.768 5  20410185.922                    20410187.484
                        35.600
                  81557155.839 6  19636761.711                    19636762.836
                        40.700
                  87378204.276 7  20979341.883                    20979343.105
                        42.700
 124030890.148 7  96647482.80445  23602297.547                    23602301.242
        46.700          30.200
                  84140026.465 7  20294299.297                    20294301.539
                        42.700
                  91545364.500 7  21995283.953                    21995284.121
                        44.000
                  84904397.463 7  20449871.055                    20449872.066
                        43.100
                  95882243.468 6  23045364.516                    23045368.988
                        36.200
                  97790493.448 6  23528770.219                    23528774.598
                        37.900
 115723839.698 7  90174429.08445  22021514.695                    22021517.738
        47.100          33.400
 118623578.769 7  92433968.75545  22573317.617                    22573319.777
        45.800          30.400
 122273911.471 7  95278390.35444  23267951.789                    23267957.617
        46.600          28.900
 116878087.726 7  91073852.42945  22241161.344                    22241166.957
        47.700          35.900
 114464242.732 7  89192938.36746  21781820.797                    21781826.926
        47.800          37.700
 118056111.167 8  91991784.67245  22465333.891                    22465336.703
        51.600          34.800
 124263548.527 6  96828756.95843  23646566.672                    23646570.672
        39.900          21.800
 18  3 11 12 25 18.0000000  0 16R05R13R04G17R14R21R22R23R15G28G11G01
                                G10G24G15G13
                  84858253.429 5  20410059.609                    20410062.078
                        35.700
                  81558626.526 6  19637115.594                    19637116.367
                        40.500
                  87380897.198 7  20979988.211                    20979989.094
                        42.500
 124028199.402 7  96645386.10845  23601785.211                    23601789.219
        46.400          30.400
                  84138193.780 7  20293857.805                    20293859.383
                        42.700
                  91548309.567 7  21995991.000                    21995992.273
                        43.600
                  84904038.019 7  20449784.484                    20449785.652
                        42.800
                  95879066.153 6  23044601.352                    23044605.508
                        36.300
                  97787240.354 6  23527988.117                    23527991.711
                        37.800
 115725991.571 7  90176105.87145  22021924.570                    22021927.449
        47.200          34.000
 118623190.925 7  92433666.53345  22573243.500                    22573245.887
        46.000          30.500
 122271789.526 7  95276736.87044  23267547.219                    23267553.891
        45.500          28.100
 116878416.653 8  91074108.72946  22241224.305                    22241229.516
        48.300          36.100
 114462266.498 7  89191398.44746  21781444.539                    21781450.816
        47.600          37.400
 118059191.964 8  91994185.32045  22465917.453                    22465923.102
        49.500          33.200
 124267626.679 6  96831934.74543  23647343.164                    23647346.836
        40.100          22.900
 18  3 11 12 25 19.0000000  0 16R05R13R04G17R14R21R22R23R15G28G11G01
                                G10G24G15G13
                  84857732.924 5  20409934.344                    20409936.703
                        35.900
                  81560097.898 6  19637469.492                    19637470.926
                        40.600
                  87383590.680 7  20980635.164                    20980635.621
                        42.700
 124025509.078 7  96643289.74545  23601273.492                    23601276.785
        46.400          30.400
                  84136361.652 7  20293415.844                    20293417.203
                        42.400
                  91551255.168 7  21996698.578                    21996699.926
                        43.400
                  84903679.386 7  20449698.500                    20449699.461
                        42.700
                  95875889.110 6  23043837.234                    23043841.684
                        36.800
                  97783987.441 6  23527205.391                    23527209.383
                        38.400
 115728144.010 7  90177783.09145  22022334.203                    22022337.168
        47.000          33.600
 118622803.894 7  92433364.94744  22573169.297                    22573172.363
        45.400          29.700
 122269668.190 7  95275083.87944  23267142.445                    23267149.883
        45.400          29.400
 116878746.375 8  91074365.64646  22241287.180                    22241292.480
        48.500          36.100
 114460290.884 7  89189859.01346  21781069.063                    21781074.535
        47.900          37.300
 118062273.384 7  91996586.46045  22466501.250                    22466509.051
        46.400          33.800
 124271705.185 6  96835112.78844  23648119.055                    23648123.191
        40.400          24.900
 18  3 11 12 25 20.0000000  0 16R05R13R04G17R14R21R22R23R15G28G11G01
                                G10G24G15G13
                  84857213.143 6  20409810.055                    20409811.711
                        36.200
                  81561569.905 6  19637823.922                    19637825.348
                        40.600
                  87386284.728 7  20981281.078                    20981283.074
                        42.700
 124022819.127 7  96641193.67944  23600761.578                    23600765.277
        46.200          29.700
                  84134530.048 7  20292973.781                    20292975.992
                        42.400
                  91554201.253 7  21997405.898                    21997407.645
                        43.100
                  84903321.497 7  20449612.320                    20449612.586
                        42.800
                  95872712.340 6  23043075.883                    23043078.996
                        36.000
                  97780734.682 6  23526422.383                    23526426.590
                        38.400
 115730296.978 7  90179460.73445  22022743.820                    22022746.570
        47.400          34.000
 118622417.634 7  92433063.96845  22573096.445                    22573098.734
        45.900          30.400
 122267547.416 7  95273431.33544  23266740.172                    23266746.281
        46.000          29.300
 116879076.825 8  91074623.14046  22241349.781                    22241355.234
        48.900          36.400
 114458315.814 8  89188319.99746  21780693.016                    21780699.133
        48.200          37.500
 118065355.319 7  91998987.94945  22467089.313                    22467093.785
        47.900          34.600
 124275783.937 6  96838291.02243  23648895.875                    23648899.129
        40.500          22.300
 18  3 11 12 25 21.0000000  0 16R05R13R04G17R14R21R22R23R15G28G11G01
                                G10G24G15G13
                  84856694.099 6  20409685.008                    20409687.207
                        36.100
                  81563042.552 6  19638178.680                    19638179.945
                        40.400
                  87388979.304 7  20981929.750                    20981930.293
                        42.500
 124020129.547 7  96639097.89645  23600249.930                    23600253.305
        46.400          30.400
                  84132699.001 7  20292532.227                    20292534.219
                        42.200
                  91557147.842 7  21998112.523                    21998116.039
                        42.800
                  84902964.384 7  20449525.625                    20449527.211
                        43.100
                  95869535.774 6  23042310.188                    23042315.645
                        36.500
                  97777482.030 6  23525639.813                    23525644.004
                        39.100
 115732450.457 7  90181138.77145  22023153.203                    22023156.059
        47.600          34.000
 118622032.140 7  92432763.58245  22573022.898                    22573025.480
        46.000          30.500
 122265427.260 7  95271779.27544  23266337.164                    23266342.941
        47.400          29.700
 116879408.027 8  91074881.22346  22241412.422                    22241418.465
        48.600          36.100
 114456341.316 8  89186781.42646  21780317.445                    21780322.949
        48.400          37.400
 118068437.688 8  92001389.76745  22467678.203                    22467680.055
        50.100          34.200
 124279863.001 6  96841469.49043  23649672.047                    23649675.945
        40.700          22.900
 18  3 11 12 25 22.0000000  0 16R05R13R04G17R14R21R22R23R15G28G11G01
                                G10G24G15G13
                  84856175.792 5  20409560.555                    20409562.285
                        35.500
                  81564515.854 6  19638533.578                    19638534.793
                        40.200
                  87391674.469 7  20982575.953                    20982576.707
                        42.300
 124017440.355 7  96637002.41244  23599738.234                    23599741.309
        45.700          29.700
                  84130868.498 6  20292090.781                    20292092.273
                        41.900
                  91560094.949 7  21998820.305                    21998823.219
                        42.400
                  84902608.053 7  20449440.070                    20449441.305
                        42.900
                  95866359.529 6  23041546.633                    23041552.387
                        36.500
                  97774229.547 6  23524856.844                    23524860.844
                        38.300
 115734604.469 7  90182817.22145  22023563.672                    22023566.121
        47.100          34.200
 118621647.430 7  92432463.80644  22572949.250                    22572952.309
        46.200          29.800
 122263307.726 7  95270127.69144  23265933.844                    23265939.918
        46.800          29.600
 116879739.945 8  91075139.85845  22241475.844                    22241481.375
        48.300          35.800
 114454367.376 8  89185243.29246  21779942.039                    21779948.027
        48.600          37.500
 118071520.543 8  92003792.00445  22468264.398                    22468267.031
        48.500          33.800
 124283942.394 6  96844648.25043  23650447.516                    23650451.805
        40.300          22.900
 18  3 11 12 25 23.0000000  0 16R05R13R04G17R14R21R22R23R15G28G11G01
                                G10G24G15G13
                  84855658.187 5  20409436.203                    20409437.773
                        35.600
                  81565989.774 6  19638888.430                    19638889.770
                        40.400
                  87394370.141 7  20983223.828                    20983223.789
                        42.400
 124014751.483 7  96634907.18845  23599225.938                    23599229.867
        45.400          30.500
                  84129038.472 7  20291649.930                    20291651.508
                        42.400
                  91563042.543 7  21999528.219                    21999531.320
                        42.000
                  84902252.467 7  20449353.727                    20449355.125
                        43.100
                  95863183.525 5  23040783.484                    23040789.086
                        35.800
                  97770977.130 6  23524073.484                    23524078.742
                        38.600
 115736758.945 7  90184496.03845  22023973.734                    22023976.078
        46.900          33.800
 118621263.442 7  92432164.60645  22572875.641                    22572878.750
        45.900          30.900
 122261188.697 7  95268476.48444  23265530.414                    23265536.574
        45.800          29.800
 116880072.610 8  91075399.08346  22241538.867                    22241544.828
        48.100          36.600
 114452393.968 8  89183705.56546  21779566.391                    21779572.031
        49.000          37.600
 118074603.964 7  92006194.70645  22468848.422                    22468853.609
        43.200          34.000
 124288021.972 6  96847827.14343  23651224.539                    23651228.281
        39.600          22.900
 18  3 11 12 25 24.0000000  0 16R05R13R04G17R14R21R22R23R15G28G11G01
                                G10G24G15G13
                  84855141.303 5  20409312.250                    20409313.777
                        35.400
                  81567464.299 6  19639243.977                    19639244.320
                        40.400
                  87397066.326 7  20983870.805                    20983871.918
                        42.300
 124012062.974 7  96632812.26244  23598714.781                    23598718.176
        46.000          29.800
                  84127208.938 7  20291208.531                    20291209.719
                        42.300
                  91565990.581 6  22000236.578                    22000239.227
                        41.100
                  84901897.597 7  20449268.813                    20449270.051
                        42.900
                  95860007.787 6  23040019.969                    23040025.617
                        36.200
                  97767724.869 6  23523291.586                    23523296.078
                        38.700
 115738913.938 7  90186175.26045  22024383.641                    22024386.188
        47.500          34.600
 118620880.203 7  92431865.99145  22572803.914                    22572806.488
        45.400          30.400
 122259070.243 7  95266825.72244  23265126.938                    23265133.535
        44.900          29.400
 116880405.972 7  91075658.84846  22241601.992                    22241608.383
        47.900          36.200
 114450421.103 8  89182168.27046  21779190.758                    21779196.797
        48.500          37.400
 118077687.927 7  92008597.78345  22469437.250                    22469439.145
        43.900          33.400
 124292101.867 6  96851006.28543  23652000.070                    23652004.477
        39.600          22.500
 18  3 11 12 25 25.0000000  0 16R05R13R04G17R14R21R22R23R15G28G11G01
                                G10G24G15G13
                  84854625.194 5  20409188.313                    20409189.262
                        35.600
                  81568939.509 6  19639598.922                    19639599.496
                        40.400
                  87399763.116 7  20984518.148                    20984518.449
                        43.000
 124009374.907 7  96630717.67945  23598203.492                    23598206.980
        46.300          30.600
                  84125380.000 7  20290766.891                    20290768.699
                        42.300
                  91568939.162 6  22000946.070                    22000947.375
                        41.200
                  84901543.553 7  20449183.430                    20449184.422
                        43.000
                  95856832.366 6  23039256.555                    23039262.348
                        36.700
                  97764472.773 6  23522509.563                    23522514.000
                        38.900
 115741069.500 7  90187854.91545  22024793.570                    22024796.523
        47.400          34.000
 118620497.793 7  92431568.01245  22572730.867                    22572733.547
        45.900          30.400
 122256952.418 7  95265175.46644  23264722.930                    23264730.324
        43.900          28.500
 116880740.124 7  91075919.22845  22241665.461                    22241672.039
        47.400          35.800
 114448448.854 8  89180631.45046  21778815.359                    21778821.328
        48.000          37.800
 118080772.334 8  92011001.16345  22470028.023                    22470026.496
        48.800          35.200
 124296182.041 6  96854185.65443  23652776.633                    23652781.258
        39.700          22.300
 18  3 11 12 25 26.0000000  0 16R05R13R04G17R14R21R22R23R15G28G11G01
                                G10G24G15G13
                  84854109.771 5  20409064.773                    20409065.621
                        35.800
                  81570415.330 6  19639954.008                    19639954.879
                        40.200
                  87402460.434 7  20985165.969                    20985165.988
                        43.000
 124006687.175 7  96628623.34945  23597692.219                    23597695.344
        46.500          30.800
                  84123551.569 7  20290325.727                    20290327.293
                        42.100
                  91571888.201 6  22001654.563                    22001655.125
                        41.000
                  84901190.225 7  20449098.305                    20449099.566
                        42.800
                  95853657.130 6  23038493.398                    23038499.855
                        36.900
                  97761220.759 6  23521726.297                    23521731.547
                        38.900
 115743225.513 7  90189534.92045  22025204.070                    22025206.703
        47.600          33.900
 118620116.115 7  92431270.60344  22572658.523                    22572661.156
        45.700          29.400
 122254835.104 7  95263525.61244  23264320.797                    23264327.609
        44.000          29.900
 116881074.957 7  91076180.14645  22241728.945                    22241735.629
        47.300          35.700
 114446477.101 8  89179095.01946  21778440.242                    21778446.066
        48.300          37.900
 118083857.154 8  92013404.91045  22470613.484                    22470614.375
        49.800          35.100
 124300262.570 6  96857365.29343  23653553.570                    23653557.176
        39.300          22.200
 18  3 11 12 25 27.0000000  0 16R05R13R04G17R14R21R22R23R15G28G11G01
                                G10G24G15G13
                  84853595.123 5  20408940.039                    20408942.016
                        35.200
                  81571891.843 6  19640309.336                    19640310.375
                        40.500
                  87405158.341 7  20985813.508                    20985814.207
                        43.300
 124003999.880 7  96626529.35845  23597181.383                    23597184.094
        47.200          31.300
                  84121723.689 7  20289885.242                    20289886.852
                        42.100
                  91574837.810 6  22002364.273                    22002363.715
                        41.500
                  84900837.708 7  20449013.539                    20449014.773
                        43.000
                  95850482.193 6  23037731.656                    23037736.664
                        37.200
                  97757968.920 6  23520944.492                    23520948.418
                        38.600
 115745382.095 7  90191215.37345  22025614.336                    22025616.734
        47.800          33.600
 118619735.258 7  92430973.83345  22572586.430                    22572588.379
        46.200          30.200
 122252718.418 7  95261876.26244  23263917.406                    23263924.625
        43.600          29.900
 116881410.576 7  91076441.67645  22241793.031                    22241799.285
        47.300          35.400
 114444505.971 8  89177559.07746  21778065.188                    21778071.160
        48.200          37.300
 118086942.567 8  92015809.15646  22471198.711                    22471202.008
        48.200          36.100
 124304343.363 6  96860545.12943  23654330.695                    23654333.664
        39.900          22.200
 18  3 11 12 25 28.0000000  0 16R05R13R04G17R14R21R22R23R15G28G11G01
                                G10G24G15G13
                  84853081.190 5  20408816.023                    20408818.008
                        35.800
                  81573368.953 6  19640665.211                    19640666.348
                        40.500
                  87407856.770 7  20986462.563                    20986461.910
                        42.900
 124001312.927 7  96624435.64045  23596669.406                    23596672.914
        47.800          31.300
                  84119896.323 7  20289444.367                    20289446.457
                        42.400
                  91577787.910 7  22003074.430                    22003073.512
                        42.400
                  84900485.945 7  20448928.844                    20448930.109
                        43.000
                  95847307.471 6  23036967.875                    23036973.820
                        37.300
                  97754717.240 6  23520161.609                    23520166.102
                        38.200
 115747539.189 7  90192896.22145  22026024.883                    22026027.203
        47.700          34.100
 118619355.150 7  92430677.64444  22572514.133                    22572516.141
        46.200          29.700
 122250602.300 7  95260227.35044  23263514.641                    23263521.922
        43.700          29.400
 116881746.927 7  91076703.77445  22241857.539                    22241863.129
        47.500          35.700
 114442535.393 8  89176023.56246  21777689.766                    21777696.285
        48.100          37.500
 118090028.534 7  92018213.82846  22471784.859                    22471789.137
        47.200          36.000
 124308424.458 6  96863725.19143  23655106.727                    23655110.707
        40.200          22.300
 18  3 11 12 25 29.0000000  0 16R05R13R04G17R14R21R22R23R15G28G11G01
                                G10G24G15G13
                  84852568.017 5  20408693.680                    20408694.676
                        35.900
                  81574846.724 6  19641021.008                    19641021.582
                        40.400
                  87410555.734 7  20987109.289                    20987110.555
                        42.700
 123998626.350 8  96622342.20445  23596158.148                    23596162.035
        48.000          30.900
                  84118069.479 7  20289003.500                    20289005.715
                        42.600
                  91580738.465 7  22003783.531                    22003782.520
                        43.000
                  84900134.949 7  20448844.477                    20448845.723
                        42.800
                  95844133.002 6  23036205.023                    23036209.820
                        36.800
                  97751465.673 6  23519379.945                    23519384.477
                        38.200
 115749696.792 7  90194577.47145  22026435.828                    22026438.102
        47.000          34.200
 118618975.814 7  92430382.04644  22572441.477                    22572444.324
        45.800          29.700
 122248486.763 7  95258578.90144  23263112.602                    23263119.328
        43.900          28.500
 116882083.992 7  91076966.42646  22241922.172                    22241927.590
        47.700          36.100
 114440565.345 8  89174488.45646  21777315.297                    21777321.387
        48.100          37.700
 118093114.971 8  92020618.82946  22472374.570                    22472376.789
        50.000          36.200
 124312505.828 6  96866905.48143  23655883.695                    23655887.254
        40.100          22.300
 18  3 11 12 25 30.0000000  0 16R05R13R04G17R14R21R22R23R15G28G11G01
                                G10G24G15G13
                  84852055.566 5  20408569.992                    20408571.523
                        35.500
                  81576325.153 6  19641377.055                    19641378.332
                        40.400
                  87413255.265 7  20987757.531                    20987758.840
                        42.800
 123995940.179 7  96620249.07745  23595647.000                    23595650.926
        47.800          31.100
                  84116243.186 7  20288562.758                    20288565.332
                        42.300
                  91583689.489 7  22004491.586                    22004491.656
                        43.400
                  84899784.728 7  20448759.859                    20448761.336
                        42.600
                  95840958.773 6  23035442.109                    23035447.188
                        36.900
                  97748214.251 6  23518597.367                    23518601.777
                        38.200
 115751854.916 7  90196259.13145  22026846.000                    22026848.516
        46.300          35.000
 118618597.269 7  92430087.06145  22572368.484                    22572372.098
        45.200          30.200
 122246371.836 7  95256930.92544  23262710.914                    23262716.852
        44.600          29.500
 116882421.818 7  91077229.66745  22241986.313                    22241991.855
        47.700          35.700
 114438595.883 7  89172953.81346  21776940.508                    21776946.297
        47.900          37.200
 118096201.886 8  92023024.20846  22472962.492                    22472964.945
        50.900          36.200
 124316587.493 6  96870085.99143  23656660.070                    23656663.957
        40.500          23.000
 18  3 11 12 25 31.0000000  0 16R05R13R04G17R14R21R22R23R15G28G11G01
                                G10G24G15G13
                  84851543.877 5  20408447.305                    20408448.594
                        35.500
                  81577804.186 6  19641733.516                    19641734.504
                        40.400
                  87415955.332 7  20988405.828                    20988406.477
                        42.800
 123993254.370 7  96618156.23745  23595135.953                    23595139.652
        47.800          31.000
                  84114417.414 7  20288122.477                    20288124.426
                        42.600
                  91586641.013 7  22005201.133                    22005201.797
                        43.900
                  84899435.266 7  20448675.469                    20448677.223
                        43.000
                  95837784.781 6  23034678.172                    23034684.609
                        37.000
                  97744962.952 6  23517815.992                    23517819.688
                        38.100
 115754013.555 7  90197941.18645  22027256.992                    22027259.719
        46.700          34.100
 118618219.451 7  92429792.65245  22572297.406                    22572300.031
        45.500          30.300
 122244257.498 7  95255283.38144  23262308.539                    23262314.445
        44.300          28.900
 116882760.375 7  91077493.48645  22242050.586                    22242056.102
        47.400          35.900
 114436626.988 7  89171419.61446  21776565.938                    21776571.691
        47.500          37.400
 118099289.311 8  92025430.00445  22473547.961                    22473553.867
        49.500          35.900
 124320669.418 6  96873266.70643  23657436.648                    23657440.551
        40.400          22.000
 18  3 11 12 25 32.0000000  0 16R05R13R04G17R14R21R22R23R15G28G11G01
                                G10G24G15G13
                  84851032.887 5  20408324.453                    20408325.258
                        35.700
                  81579283.887 6  19642089.117                    19642090.531
                        40.300
                  87418655.951 7  20989054.719                    20989055.379
                        42.700
 123990568.910 7  96616063.66645  23594624.516                    23594628.461
        47.000          30.100
                  84112592.179 7  20287681.961                    20287684.223
                        42.700
                  91589593.055 7  22005909.289                    22005910.949
                        44.300
                  84899086.587 7  20448592.352                    20448592.996
                        42.800
                  95834611.084 5  23033916.609                    23033921.043
                        35.600
                  97741711.783 6  23517033.141                    23517037.746
                        37.900
 115756172.690 7  90199623.62645  22027667.547                    22027670.457
        47.400          34.300
 118617842.413 7  92429498.86745  22572225.672                    22572228.117
        45.600          30.100
 122242143.737 7  95253636.28044  23261905.656                    23261912.395
        43.800          28.700
 116883099.671 7  91077757.88245  22242114.758                    22242120.895
        47.200          35.800
 114434658.624 7  89169885.82046  21776191.234                    21776197.191
        47.200          37.300
 118102377.272 7  92027836.22345  22474133.891                    22474141.574
        46.800          35.500
 124324751.627 6  96876447.64543  23658213.641                    23658217.262
        40.300          22.300
 18  3 11 12 25 33.0000000  0 16R05R13R04G17R14R21R22R23R15G28G11G01
                                G10G24G15G13
                  84850522.634 5  20408201.375                    20408202.141
                        35.800
                  81580764.231 6  19642445.781                    19642446.699
                        40.600
                  87421357.122 7  20989702.609                    20989703.828
                        42.800
 123987883.865 7  96613971.40745  23594113.586                    23594117.914
        45.900          30.900
                  84110767.480 7  20287242.211                    20287244.262
                        42.600
                  91592545.612 7  22006618.164                    22006620.922
                        44.200
                  84898738.668 7  20448508.523                    20448508.988
                        42.600
                  95831437.663 5  23033153.336                    23033158.457
                        35.600
                  97738460.741 6  23516251.688                    23516255.590
                        37.400
 115758332.378 7  90201306.50045  22028079.234                    22028081.523
        47.000          34.600
 118617466.182 7  92429205.70544  22572153.547                    22572156.832
        45.200          29.600
 122240030.543 7  95251989.62645  23261504.133                    23261509.793
        45.000          30.000
 116883439.700 7  91078022.84045  22242179.602                    22242185.648
        47.800          35.900
 114432690.869 7  89168352.50346  21775816.969                    21775823.035
        47.800          37.700
 118105465.787 7  92030242.84145  22474722.727                    22474728.586
        47.500          35.900
 124328834.159 6  96879628.84043  23658990.859                    23658994.137
        40.600          22.800
 18  3 11 12 25 34.0000000  0 16R05R13R04G17R14R21R22R23R15G28G11G01
                                G10G24G15G13
                  84850013.075 5  20408078.000                    20408080.586
                        35.500
                  81582245.209 6  19642803.023                    19642803.039
                        40.900
                  87424058.820 7  20990351.828                    20990352.496
                        42.600
 123985199.144 7  96611879.43244  23593602.203                    23593606.566
        45.700          29.300
                  84108943.280 7  20286803.063                    20286804.219
                        42.400
                  91595498.618 7  22007327.609                    22007329.953
                        43.800
                  84898391.501 7  20448424.320                    20448425.727
                        42.600
                  95828264.445 5  23032390.508                    23032395.563
                        35.600
                  97735209.829 6  23515468.164                    23515473.238
                        37.100
 115760492.515 7  90202989.72745  22028490.000                    22028492.250
        47.000          34.000
 118617090.669 7  92428913.10344  22572081.906                    22572085.121
        45.200          29.100
 122237917.893 7  95250343.40844  23261101.602                    23261108.074
        45.000          29.500
 116883780.426 8  91078288.34045  22242244.172                    22242250.145
        48.100          35.700
 114430723.586 7  89166819.55246  21775442.609                    21775448.434
        47.600          37.900
 118108554.689 8  92032649.75245  22475311.836                    22475316.496
        48.500          35.700
 124332916.920 6  96882810.20643  23659767.336                    23659771.082
        40.800          22.000
 18  3 11 12 25 35.0000000  0 16R05R13R04G17R14R21R22R23R15G28G11G01
                                G10G24G15G13
                  84849504.275 5  20407956.539                    20407957.473
                        35.800
                  81583726.823 6  19643159.336                    19643160.305
                        40.800
                  87426761.064 7  20991001.008                    20991001.074
                        42.600
 123982514.810 7  96609787.74745  23593091.672                    23593095.895
        45.600          30.300
                  84107119.625 7  20286362.156                    20286364.320
                        42.400
                  91598452.096 7  22008036.336                    22008039.715
                        43.700
                  84898045.102 7  20448341.258                    20448342.422
                        42.800
                  95825091.539 5  23031628.352                    23031632.902
                        35.700
                  97731959.100 6  23514686.586                    23514691.336
                        37.700
 115762653.195 7  90204673.37645  22028901.359                    22028903.820
        46.700          33.800
 118616715.936 7  92428621.10344  22572011.313                    22572013.578
        45.600          29.700
 122235805.865 7  95248697.67645  23260700.031                    23260706.141
        45.300          30.000
 116884121.918 8  91078554.42645  22242309.375                    22242315.258
        48.100          35.400
 114428756.910 7  89165287.07546  21775068.094                    21775074.352
        47.700          37.300
 118111644.113 7  92035057.09345  22475898.898                    22475904.945
        47.300          35.100
 124336999.996 6  96885991.82243  23660544.203                    23660547.543
        40.500          23.800
 18  3 11 12 25 36.0000000  0 16R05R13R04G17R14R21R22R23R15G28G11G01
                                G10G24G15G13
                  84848996.235 5  20407833.336                    20407835.063
                        35.700
                  81585209.113 6  19643516.000                    19643516.988
                        40.800
                  87429463.888 7  20991649.039                    20991650.160
                        43.000
 123979830.848 7  96607696.35345  23592581.352                    23592584.676
        45.900          30.600
                  84105296.499 7  20285923.273                    20285924.930
                        42.600
                  91601406.091 7  22008746.461                    22008749.551
                        43.100
                  84897699.478 7  20448257.602                    20448258.934
                        42.700
                  95821918.888 5  23030865.438                    23030870.254
                        35.800
                  97728708.412 6  23513903.938                    23513908.949
                        36.300
 115764814.423 7  90206357.44845  22029312.352                    22029315.063
        47.400          34.100
 118616342.004 7  92428329.72745  22571940.633                    22571942.434
        45.600          30.500
 122233694.418 7  95247052.39644  23260298.242                    23260303.977
        44.700          29.800
 116884464.150 7  91078821.09646  22242374.406                    22242380.320
        47.800          36.100
 114426790.803 8  89163755.04746  21774693.719                    21774699.941
        48.200          37.500
 118114734.144 7  92037464.91945  22476484.617                    22476492.727
        43.900          33.700
 124341083.394 6  96889173.68543  23661321.570                    23661324.934
        41.000          23.600
 18  3 11 12 25 37.0000000  0 16R05R13R04G17R14R21R22R23R15G28G11G01
                                G10G24G15G13
                  84848488.919 5  20407712.570                    20407713.039
                        35.800
                  81586692.042 6  19643872.820                    19643873.902
                        40.600
                  87432167.241 7  20992298.703                    20992298.941
                        43.100
 123977147.322 7  96605605.29444  23592070.641                    23592073.617
        45.900          29.700
                  84103473.931 7  20285482.977                    20285485.281
                        42.500
                  91604360.625 7  22009455.859                    22009458.977
                        42.400
                  84897354.643 7  20448174.109                    20448175.590
                        42.700
                  95818746.529 5  23030103.516                    23030108.293
                        35.700
                  97725457.872 6  23513118.695                    23513126.465
                        36.500
 115766976.153 7  90208041.91145  22029724.070                    22029725.980
        47.300          34.100
 118615968.872 7  92428038.96244  22571868.953                    22571871.938
        45.100          29.900
 122231583.578 7  95245407.59844  23259896.930                    23259902.988
        45.000          29.800
 116884807.142 7  91079088.35445  22242439.359                    22242445.602
        47.500          35.500
 114424825.275 8  89162223.46546  21774320.195                    21774326.324
        48.400          37.600
 118117824.708 7  92039873.11645  22477075.789                    22477079.441
        46.800          33.600
 124345167.062 6  96892355.77143  23662098.680                    23662102.203
        40.800          23.000
 18  3 11 12 25 38.0000000  0 16R05R13R04G17R14R21R22R23R15G28G11G01
                                G10G24G15G13
                  84847982.385 6  20407590.383                    20407591.129
                        36.000
                  81588175.685 6  19644230.445                    19644231.063
                        40.600
                  87434871.190 7  20992947.109                    20992948.797
                        43.100
 123974464.229 7  96603514.58145  23591560.211                    23591563.734
        45.900          30.300
                  84101651.937 7  20285043.695                    20285045.871
                        42.600
                  91607315.700 6  22010166.820                    22010168.906
                        41.900
                  84897010.620 7  20448092.070                    20448093.027
                        42.800
                  95815574.477 6  23029341.906                    23029345.809
                        36.200
                  97722207.721 6  23512337.992                    23512345.367
                        37.300
 115769138.515 7  90209726.87045  22030135.039                    22030137.551
        47.000          33.900
 118615596.549 7  92427748.83545  22571797.586                    22571800.730
        44.500          30.000
 122229473.421 7  95243763.33245  23259494.992                    23259501.547
        45.800          30.300
 116885150.951 7  91079356.25645  22242504.992                    22242511.094
        47.500          35.600
 114422860.389 8  89160692.38246  21773946.258                    21773952.645
        48.800          37.700
 118120915.748 8  92042281.69145  22477665.797                    22477667.070
        49.300          33.700
 124349251.122 6  96895538.15743  23662875.930                    23662879.090
        40.500          23.600
 18  3 11 12 25 39.0000000  0 16R05R13R04G17R14R21R22R23R15G28G11G01
                                G10G24G15G13
                  84847476.550 6  20407468.555                    20407469.820
                        36.100
                  81589659.896 6  19644587.953                    19644588.223
                        40.700
                  87437575.676 7  20993596.609                    20993597.543
                        43.300
 123971781.500 7  96601424.15144  23591049.695                    23591052.910
        46.000          29.100
                  84099830.428 7  20284604.414                    20284606.891
                        42.600
                  91610271.227 6  22010877.492                    22010878.578
                        41.700
                  84896667.320 7  20448008.664                    20448010.508
                        43.000
                  95812402.617 6  23028578.234                    23028583.359
                        36.400
                  97718957.490 6  23511554.203                    23511562.883
                        36.700
 115771301.327 7  90211412.17545  22030546.977                    22030549.094
        47.000          34.200
 118615224.964 7  92427459.29745  22571727.375                    22571730.152
        45.200          30.600
 122227363.794 7  95242119.45745  23259093.281                    23259099.789
        44.800          30.500
 116885495.445 7  91079624.70346  22242571.078                    22242576.992
        47.900          36.200
 114420896.025 8  89159161.70946  21773572.188                    21773578.430
        48.300          38.200
 118124007.243 8  92044690.66945  22478252.227                    22478255.727
        48.600          33.500
 124353335.402 6  96898720.71744  23663652.766                    23663656.297
        41.000          25.300
 18  3 11 12 25 40.0000000  0 16R05R13R04G17R14R21R22R23R15G28G11G01
                                G10G24G15G13
                  84846971.469 6  20407347.383                    20407348.934
                        36.100
                  81591144.783 6  19644945.273                    19644946.117
                        40.400
                  87440280.706 7  20994246.711                    20994247.172
                        43.500
 123969099.141 7  96599334.00244  23590539.422                    23590542.621
        46.400          29.800
                  84098009.461 7  20284165.219                    20284166.984
                        42.700
                  91613227.271 6  22011588.234                    22011588.859
                        41.300
                  84896324.818 7  20447926.156                    20447928.230
                        43.000
                  95809231.059 6  23027816.828                    23027821.559
                        36.500
                  97715707.473 6  23510774.414                    23510780.848
                        36.700
 115773464.659 7  90213097.88845  22030958.516                    22030960.828
        47.200          34.700
 118614854.162 7  92427170.36445  22571657.188                    22571659.668
        46.200          30.800
 122225254.738 7  95240476.01445  23258691.172                    23258698.621
        43.400          30.100
 116885840.687 8  91079893.72546  22242636.461                    22242642.754
        48.200          36.000
 114418932.235 7  89157631.48346  21773198.477                    21773204.477
        47.500          37.900
 118127099.362 7  92047100.16845  22478838.430                    22478843.520
        45.200          33.200
 124357419.973 6  96901903.48744  23664430.797                    23664433.688
        41.000          24.600
 18  3 11 12 25 41.0000000  0 16R05R13R04G17R14R21R22R23R15G28G11G01
                                G10G24G15G13
                  84846467.117 6  20407226.063                    20407227.238
                        36.100
                  81592630.298 6  19645303.070                    19645303.813
                        40.300
                  87442986.287 7  20994896.102                    20994896.188
                        43.300
 123966417.153 7  96597244.13544  23590029.055                    23590031.965
        47.300          29.800
                  84096189.032 7  20283726.133                    20283728.188
                        42.500
                  91616183.816 6  22012298.859                    22012298.555
                        41.400
                  84895983.068 7  20447844.000                    20447845.336
                        42.700
                  95806059.724 6  23027053.609                    23027059.195
                        36.400
                  97712457.548 6  23509992.641                    23509998.551
                        36.900
 115775628.483 7  90214783.98845  22031369.906                    22031372.676
        47.100          34.000
 118614484.115 7  92426882.01345  22571587.055                    22571589.113
        45.600          30.200
 122223146.243 7  95238833.02745  23258290.219                    23258297.246
        43.900          30.400
 116886186.634 8  91080163.29945  22242702.414                    22242708.430
        48.100          35.700
 114416968.974 7  89156101.67446  21772825.000                    21772831.047
        47.700          37.900
 118130191.973 7  92049509.99345  22479429.758                    22479430.461
        47.500          34.200
 124361504.849 6  96905086.50144  23665207.148                    23665211.164
        41.300          24.900
 18  3 11 12 25 42.0000000  0 16R05R13R04G17R14R21R22R23R15G28G11G01
                                G10G24G15G13
                  84845963.459 6  20407104.953                    20407106.313
                        36.000
                  81594116.444 6  19645660.391                    19645661.930
                        40.400
                  87445692.367 7  20995546.719                    20995546.242
                        43.500
 123963735.509 7  96595154.54045  23589518.742                    23589521.750
        47.200          30.400
                  84094369.116 7  20283287.391                    20283289.129
                        42.400
                  91619140.809 6  22013009.430                    22013009.008
                        41.900
                  84895642.048 7  20447762.836                    20447763.168
                        42.800
                  95802888.610 6  23026292.070                    23026297.000
                        36.800
                  97709207.717 6  23509210.695                    23509216.816
                        36.900
 115777792.818 7  90216470.48945  22031781.969                    22031784.629
        47.200          34.100
 118614114.798 7  92426594.22945  22571516.391                    22571519.012
        45.900          30.000
 122221038.327 7  95237190.50845  23257890.445                    23257896.328
        45.000          30.600
 116886533.304 8  91080433.43145  22242767.805                    22242773.965
        48.100          35.700
 114415006.264 7  89154572.28446  21772451.398                    21772457.711
        47.700          37.700
 118133284.953 8  92051920.08345  22480020.844                    22480019.152
        51.100          34.600
 124365589.937 6  96908269.68944  23665984.875                    23665988.461
        40.900          24.500
 18  3 11 12 25 43.0000000  0 16R05R13R04G17R14R21R22R23R15G28G11G01
                                G10G24G15G13
                  84845460.561 6  20406982.852                    20406984.945
                        36.100
                  81595603.232 6  19646018.492                    19646019.668
                        40.200
                  87448399.006 7  20996195.430                    20996196.813
                        43.300
 123961054.259 7  96593065.24345  23589008.305                    23589011.375
        47.300          30.800
                  84092549.738 7  20282848.484                    20282850.543
                        42.400
                  91622098.322 7  22013720.031                    22013719.184
                        42.400
                  84895301.804 7  20447681.258                    20447681.203
                        42.600
                  95799717.802 6  23025529.766                    23025534.863
                        36.600
                  97705958.017 5  23508428.609                    23508435.227
                        35.600
 115779957.655 7  90218157.37245  22032193.781                    22032196.609
        47.200          34.800
 118613746.229 7  92426307.04244  22571446.305                    22571448.980
        45.900          29.500
 122218931.012 7  95235548.43845  23257489.320                    23257495.707
        45.200          30.800
 116886880.711 7  91080704.14346  22242834.078                    22242839.953
        47.500          36.400
 114413044.068 7  89153043.30346  21772078.102                    21772084.102
        47.500          37.900
 118136378.420 8  92054330.59645  22480608.398                    22480608.313
        51.300          35.400
 124369675.342 6  96911453.11944  23666762.133                    23666765.773
        40.900          25.800
 18  3 11 12 25 44.0000000  0 16R05R13R04G17R14R21R22R23R15G28G11G01
                                G10G24G15G13
                  84844958.399 6  20406862.984                    20406864.168
                        36.600
                  81597090.677 6  19646376.383                    19646377.750
                        40.500
                  87451106.203 7  20996845.320                    20996846.461
                        43.100
 123958373.390 7  96590976.24845  23588498.227                    23588501.785
        47.600          32.100
                  84090730.880 7  20282409.719                    20282411.641
                        42.600
                  91625056.318 7  22014430.266                    22014430.051
                        43.100
                  84894962.333 7  20447597.633                    20447599.313
                        42.700
                  95796547.241 6  23024767.945                    23024772.426
                        36.400
                  97702708.567 5  23507647.094                    23507653.195
                        34.200
 115782123.029 7  90219844.68045  22032606.023                    22032608.414
        47.000          34.700
 118613378.499 7  92426020.50444  22571376.859                    22571378.863
        46.700          29.300
 122216824.276 7  95233906.81545  23257087.422                    23257094.738
        44.300          30.600
 116887228.884 7  91080975.44245  22242900.586                    22242906.141
        47.600          35.800
 114411082.468 7  89151514.78446  21771704.836                    21771710.660
        47.600          37.900
 118139472.446 8  92056741.57545  22481193.922                    22481197.102
        48.800          34.900
 124373761.048 6  96914636.79244  23667540.344                    23667543.684
        41.300          26.400
 18  3 11 12 25 45.0000000  0 16R05R13R04G17R14R21R22R23R15G28G11G01
                                G10G24G15G13
                  84844456.932 6  20406742.797                    20406743.832
                        36.200
                  81598578.701 6  19646734.516                    19646736.051
                        40.900
                  87453813.885 7  20997495.727                    20997496.953
                        43.500
 123955692.852 7  96588887.52445  23587987.945                    23587991.629
        47.200          30.900
                  84088912.499 7  20281971.531                    20281973.566
                        42.900
                  91628014.732 7  22015140.625                    22015141.504
                        43.800
                  84894623.578 7  20447516.719                    20447517.766
                        43.000
                  95793376.903 6  23024006.844                    23024010.863
                        36.600
                  97699459.146 5  23506866.422                    23506870.945
                        34.700
 115784288.870 7  90221532.35145  22033018.219                    22033020.863
        47.100          34.400
 118613011.467 7  92425734.49945  22571307.008                    22571308.957
        46.900          30.200
 122214718.022 7  95232265.59045  23256686.523                    23256694.199
        44.200          30.800
 116887577.722 7  91081247.27145  22242966.836                    22242973.324
        47.600          35.900
 114409121.373 7  89149986.65846  21771331.742                    21771337.695
        47.800          37.900
 118142567.049 7  92059152.97745  22481780.508                    22481786.445
        45.500          35.600
 124377846.985 7  96917820.64044  23668317.977                    23668320.973
        42.000          27.100
 18  3 11 12 25 46.0000000  0 16R05R13R04G17R14R21R22R23R15G28G11G01
                                G10G24G15G13
                  84843956.208 5  20406621.852                    20406623.344
                        35.600
                  81600067.397 6  19647092.852                    19647094.902
                        40.600
                  87456522.164 7  20998145.438                    20998146.961
                        43.500
 123953012.716 7  96586799.11045  23587477.742                    23587481.383
        47.000          30.500
                  84087094.693 7  20281532.703                    20281534.508
                        43.000
                  91630973.684 7  22015851.273                    22015853.301
                        44.000
                  84894285.635 7  20447434.984                    20447436.656
                        43.000
                  95790206.805 5  23023243.758                    23023249.066
                        35.700
                  97696209.878 5  23506085.773                    23506089.137
                        35.800
 115786455.237 7  90223220.42845  22033430.695                    22033433.273
        47.300          34.300
 118612645.220 7  92425449.10645  22571236.117                    22571239.598
        46.700          30.200
 122212612.432 7  95230624.88245  23256286.367                    23256293.117
        45.000          30.400
 116887927.342 7  91081519.70646  22243033.391                    22243039.148
        47.800          36.000
 114407160.863 8  89148458.98946  21770958.750                    21770964.547
        48.000          37.900
 118145662.112 8  92061564.67445  22482373.859                    22482375.496
        49.000          35.600
 124381933.225 6  96921004.71944  23669095.063                    23669098.898
        41.400          26.000
 18  3 11 12 25 47.0000000  0 16R05R13R04G17R14R21R22R23R15G28G11G01
                                G10G24G15G13
                  84843456.193 5  20406501.211                    20406502.711
                        35.500
                  81601556.725 6  19647452.617                    19647452.934
                        40.800
                  87459230.963 7  20998796.102                    20998797.133
                        43.200
 123950332.938 7  96584710.97345  23586967.578                    23586971.551
        46.700          30.600
                  84085277.422 7  20281094.328                    20281095.996
                        42.600
                  91633933.133 7  22016561.891                    22016564.551
                        44.600
                  84893948.452 7  20447354.664                    20447355.711
                        42.700
                  95787036.979 6  23022482.195                    23022487.273
                        36.000
                  97692960.795 5  23505303.430                    23505308.152
                        35.300
 115788622.147 7  90224908.93345  22033843.063                    22033845.672
        47.300          34.200
 118612279.710 7  92425164.28945  22571166.703                    22571169.863
        46.100          31.200
 122210507.443 7  95228984.63645  23255886.219                    23255892.656
        44.800          30.200
 116888277.663 7  91081792.68345  22243099.992                    22243106.133
        47.800          35.700
 114405200.952 8  89146931.79446  21770585.688                    21770591.582
        48.000          38.100
 118148757.614 8  92063976.71946  22482963.625                    22482965.402
        51.200          36.100
 124386019.747 6  96924189.02844  23669872.914                    23669876.469
        41.200          24.100
 18  3 11 12 25 48.0000000  0 16R05R13R04G17R14R21R22R23R15G28G11G01
                                G10G24G15G13
                  84842956.953 5  20406381.461                    20406382.895
                        35.600
                  81603046.694 6  19647810.609                    19647811.559
                        40.600
                  87461940.307 7  20999446.680                    20999447.719
                        42.600
 123947653.573 7  96582623.16144  23586457.734                    23586461.613
        45.800          29.700
                  84083460.688 7  20280656.117                    20280658.063
                        42.400
                  91636893.063 7  22017272.961                    22017275.395
                        44.200
                  84893612.052 7  20447272.891                    20447274.383
                        42.800
                  95783867.453 5  23021719.719                    23021724.344
                        35.700
                  97689711.824 5  23504521.305                    23504526.121
                        34.200
 115790789.550 7  90226597.81345  22034255.430                    22034257.961
        46.200          34.900
 118611915.013 7  92424880.11045  22571097.078                    22571100.262
        46.100          31.000
 122208403.030 7  95227344.81344  23255484.813                    23255492.246
        43.400          29.900
 116888628.751 7  91082066.25545  22243167.563                    22243173.102
        47.600          35.500
 114403241.595 8  89145405.02546  21770212.672                    21770218.969
        48.200          38.200
 118151853.617 8  92066389.19845  22483550.992                    22483555.375
        48.900          35.500
 124390106.587 6  96927373.58344  23670650.461                    23670653.910
        41.200          24.300
 18  3 11 12 25 49.0000000  0 16R05R13R04G17R14R21R22R23R15G28G11G01
                                G10G24G15G13
                  84842458.479 5  20406261.586                    20406262.816
                        35.700
                  81604537.333 6  19648168.984                    19648170.594
                        40.700
                  87464650.172 7  21000097.852                    21000098.961
                        42.600
 123944974.589 7  96580535.64944  23585947.945                    23585951.719
        45.400          29.100
                  84081644.483 7  20280218.500                    20280220.098
                        42.100
                  91639853.486 7  22017984.305                    22017987.102
                        43.900
                  84893276.426 7  20447191.031                    20447193.129
                        42.800
                  95780698.193 5  23020958.055                    23020963.324
                        35.600
                  97686463.006 5  23503739.688                    23503744.563
                        34.400
 115792957.501 7  90228287.12645  22034667.867                    22034670.188
        46.000          34.600
 118611551.090 7  92424596.54545  22571028.352                    22571031.109
        46.000          30.200
 122206299.187 7  95225705.43944  23255084.109                    23255091.660
        42.700          29.300
 116888980.613 7  91082340.43145  22243234.148                    22243239.828
        47.600          35.200
 114401282.841 8  89143878.71946  21769839.961                    21769846.027
        48.200          37.900
 118154950.238 7  92068802.17946  22484137.430                    22484145.109
        44.700          36.000
 124394193.738 6  96930558.37444  23671428.617                    23671432.023
        41.000          25.300
 18  3 11 12 25 50.0000000  0 16R05R13R04G17R14R21R22R23R15G28G11G01
                                G10G24G15G13
                  84841960.700 6  20406142.484                    20406143.145
                        36.000
                  81606028.601 6  19648528.320                    19648529.516
                        40.500
                  87467360.603 7  21000747.523                    21000748.766
                        42.600
 123942295.965 7  96578448.42444  23585438.695                    23585442.188
        45.800          28.900
                  84079828.808 7  20279779.344                    20279781.723
                        42.100
                  91642814.375 7  22018695.797                    22018699.203
                        43.300
                  84892941.561 7  20447111.250                    20447112.645
                        42.900
                  95777529.179 5  23020197.180                    23020201.023
                        35.600
                  97683214.308 5  23502958.516                    23502962.887
                        32.900
 115795125.956 7  90229976.83045  22035080.242                    22035083.133
        46.300          34.100
 118611187.955 7  92424313.58844  22570958.805                    22570962.188
        46.400          29.600
 122204195.943 7  95224066.55845  23254684.078                    23254691.246
        43.000          30.200
 116889333.170 7  91082615.15245  22243301.281                    22243306.973
        47.500          35.500
 114399324.616 7  89142352.83046  21769467.656                    21769473.188
        47.900          37.600
 118158047.413 7  92071215.53345  22484729.133                    22484734.145
        45.800          35.000
 124398281.137 6  96933743.34344  23672205.820                    23672209.656
        41.700          25.000
 18  3 11 12 25 51.0000000  0 16R05R13R04G17R14R21R22R23R15G28G11G01
                                G10G24G15G13
                  84841463.694 6  20406021.945                    20406023.969
                        36.100
                  81607520.550 6  19648887.641                    19648888.801
                        40.800
                  87470071.638 7  21001399.969                    21001399.930
                        42.400
 123939617.789 7  96576361.53744  23584929.211                    23584932.523
        46.100          29.500
                  84078013.690 7  20279342.570                    20279344.488
                        42.300
                  91645775.810 7  22019407.844                    22019409.945
                        43.100
                  84892607.477 7  20447031.688                    20447032.438
                        43.000
                  95774360.409 5  23019435.555                    23019439.762
                        35.800
                  97679965.802 5  23502176.484                    23502181.535
                        32.600
 115797294.945 7  90231666.95445  22035493.313                    22035496.023
        46.400          34.000
 118610825.599 7  92424031.24245  22570891.063                    22570893.090
        47.000          30.400
 122202093.313 7  95222428.15045  23254284.438                    23254290.898
        43.600          31.100
 116889686.545 8  91082890.50845  22243368.359                    22243374.340
        48.000          35.800
 114397367.023 8  89140827.43346  21769094.836                    21769101.156
        48.200          38.300
 118161145.006 8  92073629.18545  22485320.836                    22485323.723
        48.800          35.700
 124402368.885 6  96936928.60344  23672984.398                    23672987.516
        41.900          26.500
 18  3 11 12 25 52.0000000  0 16R05R13R04G17R14R21R22R23R15G28G11G01
                                G10G24G15G13
                  84840967.390 6  20405903.422                    20405904.160
                        36.200
                  81609013.098 6  19649247.617                    19649248.473
                        40.400
                  87472783.186 7  21002050.023                    21002050.965
                        42.600
 123936939.926 7  96574274.89344  23584419.969                    23584422.766
        46.400          29.700
                  84076199.080 7  20278904.406                    20278906.930
                        42.200
                  91648737.695 7  22020119.539                    22020121.625
                        42.300
                  84892274.139 7  20446951.078                    20446952.199
                        42.600
                  95771191.856 6  23018674.414                    23018678.430
                        36.400
                  97676717.326 5  23501395.320                    23501399.457
                        32.300
 115799464.424 7  90233357.45245  22035906.102                    22035908.805
        46.100          34.200
 118610463.999 7  92423749.47245  22570822.648                    22570824.574
        47.900          30.700
 122199991.235 7  95220790.17845  23253885.078                    23253891.090
        43.700          31.200
 116890040.566 7  91083166.37346  22243435.742                    22243441.664
        47.300          36.000
 114395409.916 8  89139302.41546  21768722.656                    21768728.523
        48.000          38.600
 118164243.048 8  92076043.22945  22485909.695                    22485913.863
        49.300          34.900
 124406456.860 6  96940114.02944  23673761.695                    23673765.754
        41.200          25.600
 18  3 11 12 25 53.0000000  0 16R05R13R04G17R14R21R22R23R15G28G11G01
                                G10G24G15G13
                  84840471.822 5  20405784.148                    20405785.566
                        35.800
                  81610506.308 6  19649606.609                    19649607.594
                        40.700
                  87475495.302 7  21002701.398                    21002702.008
                        42.800
 123934262.465 7  96572188.56144  23583910.008                    23583913.207
        46.400          29.200
                  84074384.991 7  20278467.563                    20278469.199
                        42.400
                  91651700.105 7  22020831.641                    22020833.422
                        42.000
                  84891941.545 7  20446870.914                    20446871.910
                        42.600
                  95768023.573 6  23017911.813                    23017917.020
                        36.900
                  97673469.029 5  23500613.297                    23500618.035
                        31.200
 115801634.415 7  90235048.35645  22036318.945                    22036321.613
        45.800          33.900
 118610103.155 7  92423468.29644  22570753.063                    22570756.078
        46.800          29.600
 122197889.753 7  95219152.65345  23253485.531                    23253491.582
        43.900          30.500
 116890395.333 7  91083442.81345  22243502.961                    22243508.938
        47.200          35.900
 114393453.397 7  89137777.85246  21768350.352                    21768356.098
        47.600          38.300
 118167341.631 7  92078457.72945  22486496.945                    22486503.641
        46.700          35.200
 124410545.104 6  96943299.68844  23674539.891                    23674543.383
        41.400          25.300
 18  3 11 12 25 54.0000000  0 16R05R13R04G17R14R21R22R23R15G28G11G01
                                G10G24G15G13
                  84839976.956 6  20405665.250                    20405666.109
                        36.200
                  81612000.121 6  19649966.680                    19649967.422
                        41.000
                  87478207.908 7  21003352.930                    21003353.109
                        42.600
 123931585.351 7  96570102.48244  23583400.742                    23583403.609
        47.200          29.700
                  84072571.438 7  20278029.508                    20278031.676
                        42.400
                  91654663.010 6  22021544.180                    22021545.078
                        41.500
                  84891609.720 7  20446791.336                    20446792.945
                        42.500
                  95764855.558 6  23017150.766                    23017155.184
                        36.700
                  97670220.838 4  23499831.234                    23499836.605
                        25.400
 115803804.913 7  90236739.65645  22036731.906                    22036734.844
        46.500          33.700
 118609743.050 7  92423187.69844  22570683.664                    22570686.984
        46.300          29.000
 122195788.815 7  95217515.55345  23253084.930                    23253091.320
        43.600          31.400
 116890750.836 7  91083719.83346  22243570.070                    22243576.840
        46.700          36.200
 114391497.394 7  89136253.69746  21767977.570                    21767983.898
        47.800          37.700
 118170440.760 7  92080872.64345  22487087.242                    22487092.871
        46.500          34.700
 124414633.626 6  96946485.54344  23675317.672                    23675321.457
        41.800          27.000
 18  3 11 12 25 55.0000000  0 16R05R13R04G17R14R21R22R23R15G28G11G01
                                G10G24G15G13
                  84839482.834 6  20405545.016                    20405548.184
                        36.100
                  81613494.585 6  19650325.922                    19650327.273
                        40.800
                  87480921.037 7  21004003.508                    21004004.832
                        43.000
 123928908.608 7  96568016.69845  23582891.203                    23582894.352
        47.200          30.500
                  84070758.407 7  20277592.531                    20277593.941
                        42.600
                  91657626.374 6  22022256.203                    22022256.254
                        41.300
                  84891278.653 7  20446710.578                    20446712.355
                        42.400
                  95761687.813 6  23016387.797                    23016393.977
                        37.200
                  97666972.779 4  23499050.688                    23499054.855
                        27.400
 115805975.890 7  90238431.32345  22037145.016                    22037147.789
        46.400          33.600
 118609383.720 7  92422907.69645  22570616.133                    22570618.723
        46.200          30.800
 122193688.470 7  95215878.90945  23252684.781                    23252691.746
        43.400          30.400
 116891107.044 7  91083997.40845  22243638.352                    22243644.492
        46.400          35.600
 114389541.963 7  89134729.98546  21767605.672                    21767612.043
        47.500          38.200
 118173540.324 8  92083287.87145  22487678.719                    22487681.992
        48.100          34.700
 124418722.406 7  96949671.60744  23676095.883                    23676099.344
        42.300          26.800
 18  3 11 12 25 56.0000000  0 16R05R13R04G17R14R21R22R23R15G28G11G01
                                G10G24G15G13
                  84838989.428 5  20405426.445                    20405428.449
                        35.600
                  81614989.686 6  19650685.719                    19650687.355
                        40.600
                  87483634.701 7  21004656.047                    21004656.828
                        43.000
 123926232.235 7  96565931.20145  23582382.063                    23582385.082
        47.300          30.800
                  84068945.883 7  20277155.445                    20277156.133
                        42.600
                  91660590.220 6  22022966.633                    22022968.613
                        41.600
                  84890948.340 7  20446631.516                    20446633.004
                        42.600
                  95758520.314 6  23015627.773                    23015633.098
                        37.400
                  97663724.804 4  23498268.469                    23498273.980
                        26.000
 115808147.388 7  90240123.39945  22037558.414                    22037561.211
        45.600          34.400
 118609025.154 7  92422628.29445  22570547.953                    22570550.883
        46.800          30.500
 122191588.686 7  95214242.70345  23252285.313                    23252292.070
        43.500          30.800
 116891463.974 7  91084275.54845  22243706.023                    22243712.504
        46.200          35.000
 114387587.083 7  89133206.70246  21767233.945                    21767239.602
        47.600          38.100
 118176640.333 8  92085703.46245  22488268.766                    22488271.797
        48.600          33.900
 124422811.466 7  96952857.88844  23676874.258                    23676877.543
        42.200          26.000
 18  3 11 12 25 57.0000000  0 16R05R13R04G17R14R21R22R23R15G28G11G01
                                G10G24G15G13
                  84838496.788 5  20405308.141                    20405310.441
                        35.300
                  81616485.400 6  19651045.547                    19651047.406
                        40.900
                  87486348.902 7  21005307.477                    21005308.449
                        42.800
 123923556.230 7  96563845.99845  23581872.656                    23581876.000
        46.900          31.300
                  84067133.888 7  20276717.852                    20276720.512
                        42.700
                  91663554.563 7  22023679.172                    22023680.313
                        42.200
                  84890618.816 7  20446552.727                    20446553.547
                        42.500
                  95755353.088 6  23014866.133                    23014871.902
                        37.500
                  97660476.928 3  23497487.602                    23497492.180
                        22.100
 115810319.384 7  90241815.86845  22037971.797                    22037974.301
        45.800          34.700
 118608667.343 7  92422349.47545  22570479.172                    22570482.844
        46.300          30.600
 122189489.466 7  95212606.95545  23251885.586                    23251892.852
        42.700          30.900
 116891821.669 7  91084554.27845  22243774.367                    22243780.461
        46.200          35.300
 114385632.755 7  89131683.84746  21766862.250                    21766867.742
        47.500          38.400
 118179740.873 7  92088119.49645  22488857.281                    22488861.160
        47.600          34.600
 124426900.846 7  96956044.41444  23677651.750                    23677655.543
        42.000          27.000
 18  3 11 12 25 58.0000000  0 16R05R13R04G17R14R21R22R23R15G28G11G01
                                G10G24G15G13
                  84838004.827 5  20405190.133                    20405191.730
                        35.500
                  81617981.742 6  19651406.422                    19651407.914
                        40.700
                  87489063.647 7  21005958.594                    21005959.824
                        42.400
 123920880.577 7  96561761.07545  23581363.320                    23581366.879
        46.500          30.800
                  84065322.406 7  20276281.492                    20276283.008
                        42.600
                  91666519.364 7  22024391.242                    22024392.453
                        42.700
                  84890290.022 7  20446473.359                    20446474.199
                        42.600
                  95752186.074 6  23014105.203                    23014111.180
                        37.000
                  97657229.224 3  23496705.563                    23496710.934
                        21.600
 115812491.874 7  90243508.71545  22038384.914                    22038387.676
        46.500          34.200
 118608310.272 7  92422071.24145  22570410.789                    22570414.188
        46.500          30.700
 122187390.785 7  95210971.63444  23251486.344                    23251493.707
        42.300          29.700
 116892180.036 7  91084833.53545  22243842.656                    22243848.734
        46.000          35.300
 114383678.954 8  89130161.40646  21766490.289                    21766496.082
        48.100          37.700
 118182841.926 7  92090535.92445  22489447.258                    22489450.984
        47.500          34.400
 124430990.449 7  96959231.11544  23678430.805                    23678433.660
        42.100          27.300
 18  3 11 12 25 59.0000000  0 16R05R13R04G17R14R21R22R23R15G28G11G01
                                G10G24G15G13
                  84837513.625 5  20405072.055                    20405073.711
                        35.600
                  81619478.742 6  19651766.391                    19651767.738
                        40.800
                  87491778.907 7  21006610.648                    21006611.449
                        42.100
 123918205.317 7  96559676.46545  23580853.664                    23580858.195
        45.500          30.500
                  84063511.462 7  20275844.148                    20275846.320
                        42.800
                  91669484.671 7  22025104.203                    22025105.383
                        43.100
                  84889961.996 7  20446393.594                    20446395.262
                        42.600
                  95749019.358 6  23013343.555                    23013349.418
                        36.900
                                  23495924.805

 115814664.860 7  90245201.95145  22038798.539                    22038801.211
        46.100          34.300
 118607953.997 7  92421793.62944  22570342.969                    22570346.492
        46.300          29.900
 122185292.692 7  95209336.78445  23251087.695                    23251094.070
        43.900          30.200
 116892539.165 7  91085113.38345  22243911.719                    22243917.168
        45.800          35.400
 114381725.729 7  89128639.41346  21766118.508                    21766124.609
        47.500          37.800
 118185943.474 8  92092952.72045  22490038.219                    22490040.266
        48.600          35.000
 124435080.331 7  96962418.04444  23679208.383                    23679212.293
        42.500          24.700
 18  3 11 12 26  0.0000000  0 16R05R13R04G17R14R21R22R23R15G28G11G01
                                G10G24G15G13
                  84837023.050 5  20404955.141                    20404955.996
                        35.500
                  81620976.267 6  19652127.563                    19652128.863
                        40.700
                  87494494.636 7  21007261.594                    21007263.711
                        42.300
 123915530.285 7  96557592.03345  23580344.828                    23580349.094
        45.600          30.200
                  84061700.956 7  20275408.023                    20275409.996
                        43.000
                  91672450.336 7  22025816.414                    22025817.793
                        43.100
                  84889634.633 7  20446315.672                    20446316.559
                        42.400
                  95745852.769 6  23012583.305                    23012588.340
                        36.600
                                  23495143.039

 115816838.259 7  90246895.51045  22039212.359                    22039214.789
        45.600          34.200
 118607598.342 7  92421516.50345  22570276.766                    22570279.066
        46.500          30.200
 122183195.098 7  95207702.31745  23250689.313                    23250694.715
        44.600          30.000
 116892898.873 7  91085393.66945  22243980.266                    22243985.613
        45.900          35.000
 114379772.943 7  89127117.75646  21765747.250                    21765752.711
        47.800          38.100
 118189045.360 8  92095369.77845  22490628.797                    22490630.555
        48.600          35.000
 124439170.390 7  96965605.10644  23679986.906                    23679990.918
        42.300          27.600
 18  3 11 12 26  1.0000000  0 16R05R13R04G17R14R21R22R23R15G28G11G01
                                G10G24G15G13
                  84836533.212 5  20404837.164                    20404837.547
                        35.600
                  81622474.402 6  19652488.141                    19652489.113
                        40.700
                  87497210.908 7  21007915.586                    21007915.887
                        42.400
 123912855.607 7  96555507.87745  23579836.266                    23579839.805
        45.800          30.900
                  84059890.965 7  20274970.734                    20274973.344
                        42.700
                  91675416.470 7  22026528.922                    22026530.906
                        43.600
                  84889308.016 7  20446236.117                    20446237.512
                        42.600
                  95742686.392 6  23011822.375                    23011827.145
                        36.400
                                  23494361.859

 115819012.133 7  90248589.44145  22039625.805                    22039628.719
        45.800          34.600
 118607243.444 7  92421239.95944  22570208.828                    22570211.371
        46.400          29.800
 122181098.089 7  95206068.28444  23250290.133                    23250295.629
        45.100          29.500
 116893259.329 7  91085674.54545  22244048.203                    22244053.824
        46.200          35.400
 114377820.693 8  89125596.52246  21765375.602                    21765381.289
        48.200          37.700
 118192147.741 7  92097787.22945  22491218.477                    22491220.887
        47.900          35.300
 124443260.693 7  96968792.36244  23680764.805                    23680768.723
        43.100          27.300
 18  3 11 12 26  2.0000000  0 16R05R13R04G17R14R21R22R23R15G28G11G01
                                G10G24G15G13
                  84836044.112 5  20404718.602                    20404720.277
                        35.600
                  81623973.198 6  19652849.164                    19652850.246
                        40.500
                  87499927.754 7  21008567.734                    21008567.969
                        42.600
 123910181.331 7  96553424.04145  23579327.344                    23579331.063
        45.600          30.500
                  84058081.517 7  20274535.133                    20274536.871
                        42.600
                  91678383.110 7  22027242.492                    22027243.879
                        44.000
                  84888982.194 7  20446159.039                    20446158.832
                        42.700
                  95739520.305 5  23011060.977                    23011066.137
                        35.800
                                  23493580.867

 115821186.566 7  90250283.80645  22040039.180                    22040042.102
        46.600          34.100
 118606889.339 7  92420964.02544  22570140.398                    22570144.176
        46.300          28.800
 122179001.650 7  95204434.68044  23249890.375                    23249896.957
        44.400          29.600
 116893620.542 7  91085956.01745  22244117.555                    22244122.586
        47.200          35.700
 114375869.020 8  89124075.73846  21765004.195                    21765009.844
        48.300          37.700
 118195250.689 7  92100205.11345  22491808.313                    22491811.563
        47.500          35.400
 124447351.320 7  96971979.86444  23681543.664                    23681546.980
        43.000          26.400
 18  3 11 12 26  3.0000000  0 16R05R13R04G17R14R21R22R23R15G28G11G01
                                G10G24G15G13
                  84835555.757 6  20404600.938                    20404602.270
                        36.000
                  81625472.654 6  19653211.242                    19653211.742
                        40.700
                  87502645.159 7  21009220.742                    21009220.191
                        42.600
 123907507.469 7  96551340.52245  23578818.500                    23578822.477
        46.300          30.300
                  84056272.592 7  20274098.617                    20274100.461
                        42.600
                  91681350.249 7  22027956.094                    22027957.434
                        44.200
                  84888657.126 7  20446079.859                    20446080.492
                        42.700
                  95736354.480 5  23010300.883                    23010304.758
                        35.100
                                  23492799.680

 115823361.476 7  90251978.54045  22040453.445                    22040456.074
        46.600          34.200
 118606536.021 7  92420688.70844  22570073.648                    22570076.406
        45.700          29.700
 122176905.791 7  95202801.52744  23249491.430                    23249497.488
        44.400          29.400
 116893982.477 7  91086238.03846  22244186.570                    22244191.953
        47.500          36.400
 114373917.909 8  89122555.39346  21764633.156                    21764638.570
        48.300          37.800
 118198354.148 8  92102623.37945  22492399.922                    22492402.051
        48.500          35.500
 124451442.246 7  96975167.59444  23682321.984                    23682325.664
        42.800          27.200
 18  3 11 12 26  4.0000000  0 16R05R13R04G17R14R21R22R23R15G28G11G01
                                G10G24G15G13
                  84835068.132 5  20404483.484                    20404485.156
                        35.900
                  81626972.755 6  19653571.336                    19653572.477
                        40.700
                  87505363.063 7  21009872.711                    21009873.070
                        42.500
 123904833.972 7  96549257.28645  23578310.055                    23578313.777
        45.800          30.500
                  84054464.210 7  20273662.547                    20273664.625
                        42.500
                  91684317.896 7  22028668.297                    22028670.094
                        43.800
                  84888332.833 7  20446001.750                    20446002.629
                        43.000
                  95733188.967 5  23009539.797                    23009543.359
                        35.100
                                  23492017.977

 115825536.952 7  90253673.71745  22040867.531                    22040869.957
        46.700          34.400
 118606183.476 7  92420413.99345  22570006.477                    22570009.570
        45.300          30.400
 122174810.526 7  95201168.85444  23249092.203                    23249099.219
        44.700          29.100
 116894345.180 8  91086520.66545  22244255.375                    22244260.965
        48.000          35.900
 114371967.396 8  89121035.50846  21764261.305                    21764267.301
        48.100          37.800
 118201458.049 8  92105041.99045  22492991.539                    22492993.035
        49.200          35.500
 124455533.426 7  96978355.52444  23683100.258                    23683104.164
        43.000          26.700
 18  3 11 12 26  5.0000000  0 16R05R13R04G17R14R21R22R23R15G28G11G01
                                G10G24G15G13
                  84834581.163 6  20404367.609                    20404368.055
                        36.400
                  81628473.438 6  19653932.750                    19653933.566
                        40.700
                  87508081.475 7  21010524.875                    21010525.914
                        42.900
 123902160.788 7  96547174.28145  23577800.992                    23577805.027
        45.800          30.700
                  84052656.313 7  20273226.063                    20273228.586
                        42.500
                  91687285.973 7  22029381.789                    22029383.902
                        43.700
                  84888009.255 7  20445924.281                    20445924.895
                        42.700
                  95730023.595 5  23008779.352                    23008782.805
                        35.600
                                  23491237.711

 115827712.845 7  90255369.21945  22041281.531                    22041284.184
        46.800          35.000
 118605831.610 7  92420139.81545  22569939.703                    22569942.688
        45.300          31.100
 122172715.775 7  95199536.59245  23248694.344                    23248700.988
        45.700          30.000
 116894708.511 8  91086803.78245  22244324.086                    22244329.594
        48.200          35.900
 114370017.326 8  89119515.97946  21763890.305                    21763896.137
        48.000          38.100
 118204562.374 8  92107460.95445  22493581.039                    22493584.563
        48.800          35.400
 124459624.810 7  96981543.61544  23683879.484                    23683882.883
        43.000          26.000
 18  3 11 12 26  6.0000000  0 16R05R13R04G17R14R21R22R23R15G28G11G01
                                G10G24G15G13
                  84834094.924 6  20404251.156                    20404251.133
                        36.200
                  81629974.734 6  19654294.320                    19654295.102
                        40.500
                  87510800.414 7  21011178.148                    21011178.465
                        42.400
 123899487.957 7  96545091.55645  23577292.938                    23577296.070
        46.700          30.200
                  84050848.922 7  20272790.555                    20272792.168
                        42.600
                  91690254.549 7  22030095.234                    22030096.324
                        43.200
                  84887686.422 7  20445845.445                    20445847.055
                        42.600
                  95726858.496 5  23008019.336                    23008022.641
                        35.700
                                  23490455.992

 115829889.237 7  90257065.10245  22041695.516                    22041698.391
        46.900          35.000
 118605480.518 7  92419866.24245  22569873.234                    22569876.090
        45.700          30.400
 122170621.617 7  95197904.78344  23248296.578                    23248302.445
        46.700          29.800
 116895072.585 7  91087087.47446  22244393.148                    22244398.883
        47.600          36.400
 114368067.843 7  89117996.90146  21763519.383                    21763525.371
        47.600          37.700
 118207667.246 7  92109880.35145  22494170.617                    22494175.879
        46.700          35.600
 124463716.477 7  96984731.92244  23684657.281                    23684661.137
        42.900          27.000
 18  3 11 12 26  7.0000000  0 16R05R13R04G17R14R21R22R23R15G28G11G01
                                G10G24G15G13
                  84833609.393 6  20404134.258                    20404135.297
                        36.000
                  81631476.669 6  19654655.844                    19654656.750
                        40.200
                  87513519.854 7  21011830.469                    21011831.648
                        42.400
 123896815.529 7  96543009.13645  23576784.688                    23576787.996
        46.900          30.400
                  84049042.037 7  20272355.180                    20272356.906
                        42.600
                  91693223.555 7  22030808.023                    22030809.809
                        42.600
                  84887364.349 7  20445767.938                    20445768.766
                        42.600
                  95723693.631 5  23007258.078                    23007261.547
                        35.700
                                  23489674.602

 115832066.105 7  90258761.37045  22042109.688                    22042112.324
        46.700          34.600
 118605130.180 7  92419593.26445  22569806.727                    22569809.301
        45.700          30.600
 122168528.038 7  95196273.41145  23247898.375                    23247903.715
        46.800          30.200
 116895437.381 7  91087371.72946  22244462.094                    22244468.086
        47.800          36.700
 114366118.909 7  89116478.25446  21763148.578                    21763154.316
        47.600          37.900
 118210772.619 7  92112300.10945  22494762.117                    22494767.180
        46.300          35.400
 124467808.382 7  96987920.42344  23685436.570                    23685439.969
        42.600          26.900
 18  3 11 12 26  8.0000000  0 16R05R13R04G17R14R21R22R23R15G28G11G01
                                G10G24G15G13
                  84833124.613 6  20404017.102                    20404017.914
                        36.100
                  81632979.258 6  19655016.969                    19655018.738
                        40.800
                  87516239.880 7  21012484.633                    21012484.531
                        42.500
 123894143.474 7  96540927.00745  23576275.961                    23576278.762
        47.100          30.700
                  84047235.682 7  20271918.672                    20271921.031
                        42.600
                  91696193.092 7  22031521.328                    22031523.887
                        42.700
                  84887043.065 7  20445691.398                    20445691.750
                        42.600
                  95720529.043 6  23006496.469                    23006501.344
                        36.100
                                  23488893.039

 115834243.544 7  90260458.07645  22042524.422                    22042527.188
        47.300          35.200
 118604780.637 7  92419320.88945  22569739.641                    22569742.516
        45.400          31.200
 122166435.041 7  95194642.48444  23247499.109                    23247505.605
        45.500          29.700
 116895802.910 7  91087656.55646  22244531.641                    22244538.012
        47.300          36.100
 114364170.540 7  89114960.03946  21762777.813                    21762783.813
        47.300          38.100
 118213878.457 7  92114720.21045  22495354.945                    22495358.082
        47.700          35.900
 124471900.597 7  96991109.17344  23686215.375                    23686218.895
        42.400          27.900
 18  3 11 12 26  9.0000000  0 16R05R13R04G17R14R21R22R23R15G28G11G01
                                G10G24G15G13
                  84832640.551 6  20403901.242                    20403901.305
                        36.000
                  81634482.452 6  19655379.688                    19655380.609
                        41.100
                  87518960.377 7  21013137.203                    21013138.586
                        42.600
 123891471.757 7  96538845.13845  23575767.516                    23575770.695
        47.600          30.000
                  84045429.855 7  20271483.094                    20271485.207
                        42.900
                  91699163.083 7  22032234.375                    22032236.539
                        42.000
                  84886722.512 7  20445613.969                    20445615.180
                        42.900
                  95717364.689 6  23005736.484                    23005740.082
                        36.900
                                  23488112.555

 115836421.418 7  90262155.12045  22042939.016                    22042941.691
        47.300          34.700
 118604431.797 7  92419049.05345  22569672.969                    22569676.094
        45.000          30.000
 122164342.567 7  95193011.97745  23247099.406                    23247107.375
        44.200          30.000
 116896169.150 7  91087941.93845  22244600.984                    22244607.637
        47.300          35.800
 114362222.665 7  89113442.21946  21762407.133                    21762413.047
        47.600          37.600
 118216984.736 8  92117140.67245  22495946.102                    22495949.523
        48.700          35.800
 124475993.072 7  96994298.11744  23686993.875                    23686997.371
        42.200          28.100
 18  3 11 12 26 10.0000000  0 16R05R13R04G17R14R21R22R23R15G28G11G01
                                G10G24G15G13
                  84832157.261 5  20403784.578                    20403785.453
                        35.600
                  81635986.286 6  19655741.883                    19655742.863
                        41.000
                  87521681.441 7  21013790.797                    21013791.195
                        42.500
 123888800.402 7  96536763.54545  23575258.828                    23575262.328
        46.700          30.300
                  84043624.573 7  20271048.031                    20271049.773
                        42.700
                  91702133.584 6  22032948.047                    22032950.320
                        41.400
                  84886402.712 7  20445536.234                    20445537.641
                        43.200
                  95714200.611 6  23004975.250                    23004980.035
                        36.700
                                  23487332.578

 115838599.822 7  90263852.58345  22043353.477                    22043356.117
        47.500          34.800
 118604083.719 7  92418777.81844  22569606.766                    22569609.902
        44.900          29.000
 122162250.666 7  95191381.93044  23246702.406                    23246709.035
        45.400          29.400
 116896536.131 7  91088227.89345  22244671.328                    22244677.508
        47.200          34.900
 114360275.375 7  89111924.85046  21762036.414                    21762042.375
        47.500          37.400
 118220091.518 7  92119561.54545  22496535.586                    22496541.059
        47.500          34.800
 124480085.823 7  96997487.26644  23687772.898                    23687776.551
        42.700          27.900
 18  3 11 12 26 11.0000000  0 16R05R13R04G17R14R21R22R23R15G28G11G01
                                G10G24G15G13
                  84831674.644 5  20403668.805                    20403669.668
                        35.600
                  81637490.724 6  19656103.875                    19656104.895
                        40.700
                  87524402.996 7  21014445.383                    21014444.875
                        43.100
 123886129.397 7  96534682.24645  23574749.930                    23574754.051
        46.000          30.200
                  84041819.782 7  20270612.430                    20270614.469
                        43.100
                  91705104.523 6  22033661.961                    22033663.723
                        41.800
                  84886083.626 7  20445458.945                    20445460.477
                        43.100
                  95711036.774 6  23004215.734                    23004219.332
                        37.100
                                  23486550.531

 115840778.688 7  90265550.40245  22043767.805                    22043770.586
        47.200          34.600
 118603736.376 7  92418507.16044  22569541.523                    22569543.762
        45.600          29.800
 122160159.348 7  95189752.35145  23246305.742                    23246311.375
        46.600          30.200
 116896903.771 7  91088514.36645  22244741.672                    22244747.520
        47.500          35.400
 114358328.620 7  89110407.90446  21761666.141                    21761671.813
        47.800          37.100
 118223198.803 7  92121982.82145  22497125.969                    22497132.141
        45.700          34.700
 124484178.828 7  97000676.61544  23688551.992                    23688555.223
        42.900          26.700
 18  3 11 12 26 12.0000000  0 16R05R13R04G17R14R21R22R23R15G28G11G01
                                G10G24G15G13
                  84831192.748 5  20403551.680                    20403553.410
                        35.600
                  81638995.813 6  19656466.016                    19656467.000
                        40.500
                  87527125.102 7  21015097.063                    21015098.617
                        43.400
 123883458.757 7  96532601.23045  23574241.734                    23574245.910
        46.400          30.400
                  84040015.521 7  20270177.719                    20270179.551
                        42.900
                  91708075.927 6  22034376.789                    22034377.348
                        41.800
                  84885765.330 7  20445382.953                    20445384.422
                        43.000
                  95707873.153 6  23003456.398                    23003459.770
                        36.900
                  97611774.70914  23485770.148                    23485774.078
                        29.900
 115842958.023 7  90267248.58845  22044182.602                    22044185.434
        47.500          34.400
 118603389.804 7  92418237.12045  22569475.555                    22569477.891
        45.700          30.100
 122158068.599 7  95188123.18745  23245908.359                    23245913.746
        46.200          30.500
 116897272.149 7  91088801.41546  22244811.766                    22244817.660
        47.500          36.100
 114356382.418 8  89108891.37946  21761295.938                    21761301.551
        48.500          37.500
 118226306.590 7  92124404.46245  22497718.813                    22497722.828
        46.600          35.200
 124488272.089 7  97003866.17044  23689330.672                    23689334.594
        43.600          27.600
 18  3 11 12 26 13.0000000  0 16R05R13R04G17R14R21R22R23R15G28G11G01
                                G10G24G15G13
                  84830711.575 5  20403436.742                    20403437.828
                        35.900
                  81640501.531 6  19656828.758                    19656830.375
                        40.000
                  87529847.767 7  21015751.711                    21015752.074
                        43.200
 123880788.479 7  96530520.50245  23573733.617                    23573738.004
        45.600          30.200
                  84038211.766 7  20269742.500                    20269743.895
                        43.100
                  91711047.824 6  22035090.398                    22035090.895
                        41.300
                  84885447.802 7  20445307.258                    20445307.746
                        43.000
                  95704709.775 6  23002696.414                    23002700.508
                        36.800
                  97608528.83815  23484988.984                    23484992.738
                        30.600
 115845137.901 7  90268947.19045  22044597.125                    22044599.988
        47.500          34.700
 118603043.979 7  92417967.65145  22569409.172                    22569412.016
        45.700          30.300
 122155978.471 7  95186494.48444  23245508.484                    23245515.988
        44.200          29.400
 116897641.268 7  91089089.04146  22244882.477                    22244887.895
        47.800          36.200
 114354436.748 8  89107375.26546  21760925.648                    21760931.293
        48.000          37.600
 118229414.842 8  92126826.45645  22498311.875                    22498313.926
        48.800          35.100
 124492365.623 7  97007055.94844  23690109.438                    23690113.238
        43.900          27.900
 18  3 11 12 26 14.0000000  0 16R05R13R04G17R14R21R22R23R15G28G11G01
                                G10G24G15G13
                  84830231.088 6  20403321.539                    20403322.484
                        36.000
                  81642007.818 6  19657191.039                    19657192.723
                        40.400
                  87532570.924 7  21016404.492                    21016406.324
                        43.000
 123878118.547 7  96528440.04944  23573225.727                    23573229.742
        45.800          29.900
                  84036408.495 7  20269308.039                    20269309.250
                        42.800
                  91714020.158 7  22035805.375                    22035805.219
                        42.300
                  84885130.967 7  20445230.453                    20445231.676
                        43.000
                  95701546.584 6  23001935.359                    23001940.223
                        36.700
                  97605283.041 5  23484207.656                    23484211.918
                        31.000
 115847318.229 7  90270646.14945  22045012.297                    22045014.863
        46.200          34.600
 118602698.871 7  92417698.73544  22569343.789                    22569346.305
        46.100          29.400
 122153888.742 6  95184866.11544  23245109.648                    23245118.098
        41.100          28.800
 116898011.034 8  91089377.17246  22244952.969                    22244958.262
        48.200          36.100
 114352491.584 7  89105859.54646  21760555.297                    21760561.277
        47.900          37.300
 118232523.501 8  92129248.77545  22498903.297                    22498905.293
        48.800          34.900
 124496459.384 7  97010245.88744  23690888.461                    23690892.379
        43.500          27.400
 18  3 11 12 26 15.0000000  0 16R05R13R04G17R14R21R22R23R15G28G11G01
                                G10G24G15G13
                  84829751.361 6  20403206.352                    20403207.184
                        36.000
                  81643514.797 6  19657553.703                    19657555.152
                        40.600
                  87535294.677 7  21017059.055                    21017059.980
                        43.000
 123875449.024 7  96526359.92045  23572718.453                    23572721.621
        45.700          30.400
                  84034605.790 7  20268872.695                    20268875.004
                        42.900
                  91716993.049 7  22036519.164                    22036519.949
                        42.400
                  84884814.958 7  20445154.219                    20445155.336
                        42.800
                  95698383.765 6  23001175.242                    23001179.555
                        36.800
                  97602037.434 5  23483427.070                    23483431.055
                        32.300
 115849499.114 7  90272345.53545  22045427.336                    22045429.949
        46.000          35.000
 118602354.583 7  92417430.46245  22569278.078                    22569280.773
        46.300          30.400
 122151799.699 7  95183238.31844  23244712.875                    23244720.535
        42.400          29.300
 116898381.618 8  91089665.94346  22245022.906                    22245028.602
        48.100          36.100
 114350547.046 7  89104344.32646  21760185.148                    21760191.164
        47.600          37.600
 118235632.735 7  92131671.57445  22499493.672                    22499496.965
        47.900          35.000
 124500553.457 7  97013436.07944  23691667.617                    23691671.414
        43.400          27.600
 18  3 11 12 26 16.0000000  0 16R05R13R04G17R14R21R22R23R15G28G11G01
                                G10G24G15G13
                  84829272.356 6  20403089.492                    20403091.746
                        36.000
                  81645022.400 6  19657917.523                    19657918.246
                        40.400
                  87538018.877 7  21017714.242                    21017714.438
                        42.800
 123872779.867 7  96524280.06644  23572210.211                    23572213.699
        46.000          29.600
                  84032803.622 7  20268438.211                    20268440.063
                        43.000
                  91719966.395 7  22037233.797                    22037234.375
                        43.400
                  84884499.703 7  20445078.008                    20445079.559
                        42.800
                  95695221.162 6  23000414.234                    23000419.379
                        36.600
                  97598791.927 5  23482646.469                    23482650.188
                        32.900
 115851680.492 7  90274045.30845  22045842.852                    22045845.258
        46.100          33.600
 118602011.078 7  92417162.79645  22569213.023                    22569215.762
        46.400          30.500
 122149711.279 7  95181610.99744  23244316.922                    23244323.402
        43.000          29.400
 116898752.899 8  91089955.25646  22245092.930                    22245099.520
        48.100          36.400
 114348603.037 7  89102829.51646  21759815.422                    21759821.418
        47.600          37.100
 118238742.495 7  92134094.78245  22500084.969                    22500088.211
        47.400          35.200
 124504647.840 7  97016626.50244  23692446.977                    23692450.750
        43.200          27.200
 18  3 11 12 26 17.0000000  0 16R05R13R04G17R14R21R22R23R15G28G11G01
                                G10G24G15G13
                  84828794.060 5  20402974.492                    20402976.430
                        35.400
                  81646530.601 6  19658281.008                    19658281.082
                        40.500
                  87540743.620 7  21018366.914                    21018367.633
                        42.400
 123870111.071 7  96522200.49244  23571702.250                    23571705.879
        46.500          29.700
                  84031001.968 7  20268003.414                    20268005.305
                        43.100
                  91722940.181 7  22037948.109                    22037949.277
                        43.800
                  84884185.192 7  20445002.766                    20445004.090
                        42.700
                  95692058.818 6  22999653.867                    22999658.691
                        36.500
                  97595546.540 5  23481866.156                    23481869.766
                        33.400
 115853862.359 7  90275745.47445  22046257.641                    22046260.535
        46.300          34.400
 118601668.279 7  92416895.67945  22569147.602                    22569150.707
        46.000          31.300
 122147623.364 6  95179984.04944  23243918.961                    23243925.957
        41.300          29.500
 116899124.896 8  91090245.12246  22245163.688                    22245170.445
        48.100          36.400
 114346659.550 8  89101315.11546  21759445.828                    21759451.609
        48.000          37.400
 118241852.695 8  92136518.32845  22500677.391                    22500679.855
        48.400          35.400
 124508742.454 7  97019817.11044  23693225.688                    23693229.879
        43.500          27.900
 18  3 11 12 26 18.0000000  0 16R05R13R04G17R14R21R22R23R15G28G11G01
                                G10G24G15G13
                  84828316.515 6  20402860.250                    20402861.641
                        36.200
                  81648039.451 6  19658643.945                    19658645.258
                        40.500
                  87543468.878 7  21019022.227                    21019021.855
                        42.400
 123867442.662 7  96520121.21745  23571194.664                    23571197.969
        47.200          30.000
                  84029200.851 7  20267569.039                    20267570.930
                        42.800
                  91725914.464 7  22038662.891                    22038664.340
                        44.000
                  84883871.441 7  20444927.148                    20444928.063
                        42.300
                  95688896.738 5  22998893.656                    22998898.215
                        35.800
                  97592301.332 5  23481084.773                    23481088.766
                        33.700
 115856044.747 7  90277446.03445  22046672.766                    22046675.867
        47.000          34.400
 118601326.279 7  92416629.18845  22569082.383                    22569085.199
        46.300          30.200
 122145536.027 6  95178357.56144  23243521.281                    23243528.543
        41.100          29.300
 116899497.635 7  91090535.56346  22245235.063                    22245241.371
        47.500          36.000
 114344716.636 7  89099801.16246  21759075.844                    21759081.402
        47.800          37.800
 118244963.396 8  92138942.25145  22501269.852                    22501271.258
        49.900          35.600
 124512837.358 7  97023007.93644  23694005.336                    23694009.332
        43.400          26.500
 18  3 11 12 26 19.0000000  0 16R05R13R04G17R14R21R22R23R15G28G11G01
                                G10G24G15G13
                  84827839.730 6  20402746.070                    20402747.617
                        36.000
                  81649548.935 6  19659007.695                    19659008.434
                        40.700
                  87546194.762 7  21019674.289                    21019676.688
                        42.400
 123864774.664 7  96518042.25445  23570687.242                    23570690.543
        47.500          30.400
                  84027400.270 7  20267134.523                    20267136.684
                        43.200
                  91728889.262 7  22039377.680                    22039379.059
                        44.200
                  84883558.480 7  20444852.305                    20444853.051
                        42.900
                  95685734.961 5  22998134.320                    22998138.293
                        35.700
                  97589056.276 5  23480303.430                    23480307.902
                        34.900
 115858227.661 7  90279147.01345  22047088.352                    22047090.762
        47.000          34.200
 118600985.046 7  92416363.29545  22569018.367                    22569020.387
        46.400          30.900
 122143449.296 7  95176731.58144  23243126.102                    23243130.859
        43.900          29.600
 116899871.149 7  91090826.60945  22245305.938                    22245312.430
        47.000          35.800
 114342774.323 7  89098287.66846  21758706.469                    21758712.352
        47.800          38.000
 118248074.610 8  92141366.58246  22501861.867                    22501863.277
        50.200          36.100
 124516932.561 7  97026199.00344  23694784.313                    23694788.469
        43.700          26.500
 18  3 11 12 26 20.0000000  0 16R05R13R04G17R14R21R22R23R15G28G11G01
                                G10G24G15G13
                  84827363.654 5  20402630.523                    20402632.762
                        35.500
                  81651059.079 6  19659371.492                    19659371.508
                        40.600
                  87548921.175 7  21020331.172                    21020330.906
                        42.500
 123862107.030 7  96515963.57045  23570179.391                    23570182.855
        47.300          30.600
                  84025600.188 7  20266699.797                    20266702.094
                        42.800
                  91731864.547 7  22040091.906                    22040094.055
                        44.300
                  84883246.257 7  20444776.609                    20444777.188
                        42.700
                  95682573.398 5  22997374.797                    22997378.355
                        34.700
                  97585811.321 5  23479522.516                    23479527.168
                        34.900
 115860411.095 7  90280848.38945  22047503.781                    22047506.082
        47.100          34.200
 118600644.591 7  92416098.00445  22568952.023                    22568955.414
        46.400          30.100
 122141363.204 7  95175106.07345  23242729.953                    23242734.355
        45.700          30.200
 116900245.375 7  91091118.21045  22245377.336                    22245383.672
        46.600          35.400
 114340832.579 8  89096774.61746  21758336.797                    21758342.527
        48.000          38.300
 118251186.329 8  92143791.31346  22502453.820                    22502455.824
        50.200          36.000
 124521028.054 7  97029390.29444  23695563.844                    23695567.762
        43.400          27.400
 18  3 11 12 26 21.0000000  0 16R05R13R04G17R14R21R22R23R15G28G11G01
                                G10G24G15G13
                  84826888.308 5  20402516.742                    20402518.211
                        35.800
                  81652569.849 6  19659734.703                    19659735.902
                        40.900
                  87551648.117 7  21020984.773                    21020985.902
                        42.800
 123859439.770 7  96513885.18145  23569671.977                    23569675.121
        46.600          30.900
                  84023800.649 7  20266266.031                    20266268.430
                        42.800
                  91734840.318 7  22040806.617                    22040809.469
                        44.600
                  84882934.815 7  20444701.445                    20444702.277
                        42.600
                  95679412.075 5  22996613.852                    22996618.023
                        35.800
                  97582566.515 5  23478742.234                    23478746.246
                        35.300
 115862594.998 7  90282550.13645  22047919.492                    22047921.996
        47.200          34.200
 118600304.912 7  92415833.32344  22568887.445                    22568890.977
        46.600          29.700
 122139277.696 7  95173480.98945  23242332.016                    23242338.164
        45.400          30.300
 116900620.331 7  91091410.38546  22245448.859                    22245454.898
        46.300          36.100
 114338891.380 8  89095261.99646  21757967.414                    21757973.449
        48.300          38.300
 118254298.550 8  92146216.42646  22503045.563                    22503048.426
        49.600          36.100
 124525123.807 7  97032581.79744  23696343.047                    23696346.746
        42.900          26.200
 18  3 11 12 26 22.0000000  0 16R05R13R04G17R14R21R22R23R15G28G11G01
                                G10G24G15G13
                  84826413.662 5  20402402.680                    20402403.684
                        35.900
                  81654081.202 6  19660099.156                    19660099.438
                        40.300
                  87554375.572 7  21021640.648                    21021640.578
                        42.600
 123856772.813 7  96511807.03344  23569164.234                    23569168.043
        46.100          29.900
                  84022001.589 7  20265832.406                    20265834.277
                        42.800
                  91737816.497 7  22041521.469                    22041523.973
                        44.000
                  84882624.082 7  20444626.688                    20444627.363
                        42.400
                  95676250.977 6  22995855.367                    22995858.680
                        36.000
                  97579321.784 5  23477961.281                    23477965.672
                        35.500
 115864779.371 7  90284252.24745  22048335.508                    22048337.906
        47.900          34.800
 118599965.914 7  92415569.16644  22568823.602                    22568826.199
        46.600          29.700
 122137192.657 7  95171856.25544  23241934.000                    23241941.031
        44.300          29.100
 116900995.932 7  91091703.07446  22245520.742                    22245526.039
        47.300          36.400
 114336950.672 8  89093749.75846  21757598.172                    21757603.941
        48.600          38.300
 118257411.182 8  92148641.85645  22503637.430                    22503641.074
        48.900          35.500
 124529219.773 7  97035773.46444  23697122.352                    23697126.445
        42.900          25.900
 18  3 11 12 26 23.0000000  0 16R05R13R04G17R14R21R22R23R15G28G11G01
                                G10G24G15G13
                  84825939.769 5  20402289.172                    20402290.098
                        35.900
                  81655593.218 6  19660462.445                    19660463.180
                        40.200
                  87557103.527 7  21022296.031                    21022296.117
                        42.400
 123854106.279 7  96509729.20745  23568656.656                    23568660.383
        46.100          30.200
                  84020203.094 7  20265399.047                    20265401.242
                        42.900
                  91740793.165 7  22042235.883                    22042239.602
                        43.700
                  84882314.153 7  20444551.953                    20444553.234
                        42.700
                  95673090.128 5  22995094.555                    22995098.453
                        35.300
                  97576077.234 5  23477180.898                    23477184.938
                        35.900
 115866964.263 7  90285954.76945  22048750.953                    22048753.563
        47.800          34.300
 118599627.716 7  92415305.64145  22568759.516                    22568762.145
        46.600          30.400
 122135108.208 7  95170232.00544  23241537.477                    23241543.906
        44.700          28.700
 116901372.318 7  91091996.36846  22245592.508                    22245597.758
        47.300          36.100
 114335010.579 8  89092238.00046  21757228.938                    21757234.625
        48.800          38.400
 118260524.371 7  92151067.71745  22504228.992                    22504233.828
        47.400          35.200
 124533316.067 7  97038965.38544  23697902.148                    23697905.523
        43.100          26.200
 18  3 11 12 26 24.0000000  0 16R05R13R04G17R14R21R22R23R15G28G11G01
                                G10G24G15G13
                  84825466.583 6  20402174.164                    20402176.332
                        36.700
                  81657105.867 6  19660826.508                    19660827.484
                        40.600
                  87559832.019 7  21022949.383                    21022951.348
                        42.700
 123851440.064 7  96507651.63445  23568148.938                    23568152.742
        46.000          31.400
                  84018405.120 7  20264965.406                    20264966.957
                        43.000
                  91743770.314 7  22042951.953                    22042954.828
                        43.200
                  84882004.948 7  20444477.414                    20444478.789
                        42.600
                  95669929.551 6  22994336.164                    22994338.457
                        36.100
                  97572832.745 5  23476400.664                    23476404.223
                        35.700
 115869149.649 7  90287657.67245  22049166.641                    22049169.254
        47.400          34.400
 118599290.255 7  92415042.67845  22568695.023                    22568698.008
        46.300          30.100
 122133024.332 7  95168608.22144  23241142.031                    23241147.543
        46.500          29.800
 116901749.396 7  91092290.20646  22245664.359                    22245669.570
        47.800          36.300
 114333071.021 8  89090726.64946  21756859.750                    21756865.348
        48.800          37.900
 118263638.031 7  92153493.93345  22504822.086                    22504826.313
        47.200          35.600
 124537412.559 7  97042157.45444  23698682.289                    23698685.547
        43.900          26.700
 18  3 11 12 26 25.0000000  0 16R05R13R04G17R14R21R22R23R15G28G11G01
                                G10G24G15G13
                  84824994.127 5  20402060.672                    20402062.836
                        35.900
                  81658619.120 6  19661190.391                    19661192.598
                        40.700
                  87562561.017 7  21023605.234                    21023606.070
                        42.800
 123848774.216 7  96505574.35745  23567641.758                    23567645.359
        46.000          30.400
                  84016607.661 7  20264531.180                    20264533.707
                        43.000
                  91746747.928 7  22043668.109                    22043669.625
                        42.800
                  84881696.517 7  20444403.156                    20444403.934
                        42.700
                  95666769.210 6  22993577.266                    22993579.691
                        36.200
                  97569588.412 6  23475620.492                    23475623.770
                        36.200
 115871335.504 7  90289360.93845  22049582.656                    22049584.984
        47.300          34.600
 118598953.532 7  92414780.29245  22568630.734                    22568633.992
        46.500          30.600
 122130941.070 7  95166984.89845  23240745.906                    23240751.004
        47.700          30.900
 116902127.183 8  91092584.58646  22245735.938                    22245741.395
        48.100          36.000
 114331131.988 8  89089215.71446  21756490.914                    21756497.160
        48.100          38.400
 118266752.154 8  92155920.48845  22505416.336                    22505419.309
        48.700          35.700
 124541509.355 7  97045349.76644  23699461.531                    23699465.035
        43.200          26.700
 18  3 11 12 26 26.0000000  0 16R05R13R04G17R14R21R22R23R15G28G11G01
                                G10G24G15G13
                  84824522.395 6  20401947.563                    20401949.035
                        36.700
                  81660133.012 6  19661555.984                    19661556.375
                        40.600
                  87565290.559 7  21024259.609                    21024262.188
                        42.700
 123846108.754 7  96503497.38845  23567134.547                    23567138.453
        46.000          30.500
                  84014810.686 7  20264097.766                    20264100.285
                        42.500
                  91749726.039 7  22044383.938                    22044385.641
                        42.400
                  84881388.809 7  20444328.836                    20444330.094
                        43.000
                  95663609.074 6  22992817.766                    22992820.551
                        36.500
                  97566344.180 6  23474838.883                    23474843.262
                        36.000
 115873521.866 7  90291064.60045  22049998.461                    22050001.172
        46.800          34.600
 118598617.574 7  92414518.50545  22568567.289                    22568569.727
        46.800          30.700
 122128858.364 7  95165362.00145  23240349.375                    23240354.906
        47.500          30.200
 116902505.708 8  91092879.54045  22245808.211                    22245813.207
        48.200          35.800
 114329193.521 8  89087705.22446  21756122.016                    21756127.715
        48.500          38.400
 118269866.709 8  92158347.39946  22506009.133                    22506011.941
        49.200          36.000
 124545606.383 7  97048542.24444  23700240.695                    23700244.738
        43.200          26.900
 18  3 11 12 26 27.0000000  0 16R05R13R04G17R14R21R22R23R15G28G11G01
                                G10G24G15G13
                  84824051.414 6  20401834.180                    20401836.410
                        36.200
                  81661647.555 6  19661920.008                    19661921.082
                        40.200
                  87568020.674 7  21024915.867                    21024916.297
                        42.700
 123843443.672 7  96501420.70545  23566627.883                    23566631.070
        46.000          31.100
                  84013014.271 7  20263664.773                    20263667.078
                        42.700
                  91752704.660 7  22045099.703                    22045100.945
                        42.100
                  84881081.897 7  20444254.805                    20444256.035
                        43.000
                  95660449.253 6  22992057.242                    22992061.465
                        36.800
                  97563100.097 6  23474058.773                    23474062.672
                        36.200
 115875708.763 7  90292768.67745  22050414.742                    22050417.895
        46.300          34.700
 118598282.408 7  92414257.33345  22568502.961                    22568506.012
        46.400          30.900
 122126776.261 7  95163739.56345  23239952.531                    23239958.512
        46.300          30.400
 116902884.976 8  91093175.06346  22245880.117                    22245885.723
        48.100          36.000
 114327255.651 8  89086195.19546  21755753.461                    21755759.035
        48.300          38.400
 118272981.798 7  92160774.76345  22506600.180                    22506605.488
        47.600          34.700
 124549703.738 7  97051734.98044  23701020.844                    23701024.457
        43.400          27.000
 18  3 11 12 26 28.0000000  0 16R05R13R04G17R14R21R22R23R15G28G11G01
                                G10G24G15G13
                  84823581.119 5  20401720.508                    20401722.797
                        35.900
                  81663162.723 6  19662284.875                    19662285.582
                        40.700
                  87570751.281 7  21025571.977                    21025572.953
                        42.600
 123840778.959 7  96499344.31345  23566120.867                    23566124.070
        46.800          30.600
                  84011218.405 7  20263231.203                    20263233.605
                        42.500
                  91755683.759 6  22045815.563                    22045815.984
                        41.900
                  84880775.724 7  20444181.086                    20444182.637
                        42.600
                  95657289.685 6  22991297.492                    22991302.246
                        36.800
                  97559856.155 6  23473278.828                    23473281.949
                        36.700
 115877896.159 7  90294473.13645  22050830.984                    22050833.668
        46.500          34.000
 118597947.968 7  92413996.72944  22568438.688                    22568442.586
        45.300          29.800
 122124694.673 7  95162117.53645  23239555.789                    23239562.633
        45.800          31.300
 116903264.952 7  91093471.14645  22245952.289                    22245958.051
        47.500          35.500
 114325318.311 8  89084685.57246  21755384.789                    21755390.418
        48.600          38.100
 118276097.442 7  92163202.55145  22507191.758                    22507198.262
        44.600          34.200
 124553801.332 7  97054927.90344  23701800.914                    23701804.336
        43.700          26.200
 18  3 11 12 26 29.0000000  0 16R05R13R04G17R14R21R22R23R15G28G11G01
                                G10G24G15G13
                  84823111.569 5  20401608.883                    20401610.027
                        35.800
                  81664678.521 6  19662650.508                    19662650.969
                        40.900
                  87573482.440 7  21026227.953                    21026228.230
                        42.500
 123838114.615 7  96497268.20745  23565614.086                    23565617.203
        46.700          31.000
                  84009423.055 7  20262798.438                    20262801.020
                        42.600
                  91758663.318 6  22046530.867                    22046531.352
                        41.800
                  84880470.296 7  20444107.828                    20444108.828
                        42.800
                  95654130.380 6  22990538.008                    22990542.563
                        36.900
                  97556612.336 6  23472498.320                    23472501.656
                        37.300
 115880084.019 7  90296177.96545  22051247.281                    22051250.008
        46.200          33.900
 118597614.316 7  92413736.73644  22568376.039                    22568379.051
        45.300          29.900
 122122613.690 7  95160495.98745  23239159.516                    23239166.117
        45.800          30.800
 116903645.669 7  91093767.80945  22246024.383                    22246030.434
        47.500          35.900
 114323381.521 8  89083176.38646  21755015.898                    21755021.762
        49.000          38.100
 118279213.564 7  92165630.65945  22507787.844                    22507790.320
        47.600          34.400
 124557899.173 7  97058121.02644  23702580.531                    23702583.762
        43.200          25.800
 18  3 11 12 26 30.0000000  0 16R05R13R04G17R14R21R22R23R15G28G11G01
                                G10G24G15G13
                  84822642.712 5  20401495.172                    20401497.121
                        35.000
                  81666194.916 6  19663015.203                    19663015.703
                        40.600
                  87576214.062 7  21026885.352                    21026884.594
                        42.700
 123835450.599 7  96495192.34045  23565106.828                    23565109.848
        46.800          30.700
                  84007628.181 7  20262365.492                    20262367.938
                        42.700
                  91761643.346 7  22047246.609                    22047247.512
                        42.300
                  84880165.604 7  20444033.742                    20444035.465
                        42.700
                  95650971.304 6  22989778.117                    22989783.180
                        36.900
                  97553368.629 6  23471717.578                    23471721.148
                        37.400
 115882272.354 7  90297883.16145  22051663.703                    22051666.094
        46.500          34.200
 118597281.358 7  92413477.29444  22568312.820                    22568316.090
        45.700          29.700
 122120533.249 7  95158874.86045  23238764.211                    23238770.453
        45.800          30.200
 116904027.061 7  91094064.99445  22246097.109                    22246103.129
        47.300          35.700
 114321445.230 8  89081667.59046  21754647.602                    21754653.266
        48.800          38.200
 118282330.057 8  92168059.05345  22508382.492                    22508383.813
        50.900          34.700
 124561997.273 7  97061314.35944  23703360.398                    23703363.551
        42.700          25.900
 18  3 11 12 26 31.0000000  0 16R05R13R04G17R14R21R22R23R15G28G11G01
                                G10G24G15G13
                  84822174.541 5  20401382.727                    20401384.344
                        35.800
                  81667711.912 6  19663380.000                    19663381.441
                        40.600
                  87578946.233 7  21027539.953                    21027540.246
                        42.600
 123832786.936 7  96493116.75545  23564600.055                    23564603.445
        46.900          30.900
                  84005833.813 7  20261932.406                    20261934.789
                        42.900
                  91764623.810 7  22047963.164                    22047964.301
                        42.900
                  84879861.658 7  20443961.094                    20443962.172
                        43.000
                  95647812.459 6  22989018.797                    22989023.621
                        36.800
                  97550125.030 6  23470937.758                    23470940.906
                        36.700
 115884461.160 7  90299588.73245  22052080.367                    22052083.000
        46.600          34.100
 118596949.166 7  92413218.44744  22568249.492                    22568252.594
        44.600          29.300
 122118453.363 7  95157254.16845  23238367.836                    23238374.781
        44.800          30.600
 116904409.155 7  91094362.72945  22246169.961                    22246175.645
        47.300          35.500
 114319509.482 8  89080159.21446  21754279.281                    21754285.223
        48.200          38.400
 118285446.988 8  92170487.83945  22508974.586                    22508977.242
        50.500          34.800
 124566095.627 7  97064507.88144  23704139.469                    23704143.996
        42.700          25.200
 18  3 11 12 26 32.0000000  0 16R05R13R04G17R14R21R22R23R15G28G11G01
                                G10G24G15G13
                  84821707.114 6  20401270.008                    20401271.988
                        36.200
                  81669229.574 6  19663745.922                    19663747.082
                        40.200
                  87581678.941 7  21028195.727                    21028196.426
                        42.800
 123830123.665 7  96491041.47745  23564093.031                    23564096.273
        47.000          31.000
                  84004040.020 7  20261500.070                    20261502.004
                        42.700
                  91767604.752 7  22048679.359                    22048680.648
                        43.600
                  84879558.487 7  20443888.352                    20443889.402
                        43.000
                  95644653.894 6  22988260.633                    22988264.703
                        36.000
                  97546881.596 6  23470158.375                    23470160.730
                        37.100
 115886650.501 7  90301294.71145  22052497.055                    22052499.379
        46.600          34.200
 118596617.735 7  92412960.19645  22568185.875                    22568189.461
        44.600          30.200
 122116374.050 7  95155633.92645  23237971.945                    23237979.531
        44.100          30.900
 116904791.996 7  91094661.04445  22246242.484                    22246248.438
        47.000          35.400
 114317574.312 8  89078651.29046  21753910.891                    21753916.863
        48.500          38.600
 118288564.464 7  92172917.08545  22509564.820                    22509570.594
        47.800          33.900
 124570194.290 7  97067701.64244  23704919.414                    23704923.887
        43.000          26.100
 18  3 11 12 26 33.0000000  0 16R05R13R04G17R14R21R22R23R15G28G11G01
                                G10G24G15G13
                  84821240.426 6  20401157.594                    20401159.605
                        36.400
                  81670747.862 6  19664111.586                    19664111.676
                        40.600
                  87584412.193 7  21028851.758                    21028852.973
                        42.700
 123827460.766 7  96488966.48145  23563586.000                    23563589.273
        46.500          30.400
                  84002246.718 7  20261067.945                    20261069.609
                        43.000
                  91770586.167 7  22049394.883                    22049397.750
                        43.800
                  84879256.077 7  20443815.305                    20443817.039
                        42.700
                  95641495.575 5  22987501.242                    22987505.156
                        35.600
                  97543638.313 6  23469376.586                    23469380.156
                        37.800
 115888840.320 7  90303001.06245  22052913.828                    22052916.441
        46.800          34.200
 118596287.066 7  92412702.53645  22568124.242                    22568126.309
        45.100          30.400
 122114295.330 7  95154014.14644  23237576.180                    23237583.496
        43.900          29.900
 116905175.541 7  91094959.91345  22246315.461                    22246321.770
        47.000          35.700
 114315639.688 8  89077143.79546  21753542.914                    21753548.461
        48.600          38.400
 118291682.555 7  92175346.79745  22510157.484                    22510163.391
        44.900          33.800
 124574293.173 7  97070895.57744  23705700.063                    23705703.398
        43.200          27.300
 18  3 11 12 26 34.0000000  0 16R05R13R04G17R14R21R22R23R15G28G11G01
                                G10G24G15G13
                  84820774.489 6  20401046.195                    20401048.199
                        36.100
                  81672266.777 6  19664476.680                    19664477.684
                        40.500
                  87587145.961 7  21029508.445                    21029508.816
                        42.300
 123824798.243 7  96486891.78745  23563079.516                    23563083.176
        46.100          30.600
                  84000453.930 7  20260634.836                    20260637.148
                        42.700
                  91773568.052 7  22050111.680                    22050114.063
                        44.000
                  84878954.433 7  20443742.898                    20443743.863
                        42.600
                  95638337.471 5  22986742.477                    22986746.770
                        35.300
                  97540395.108 6  23468597.391                    23468599.266
                        37.400
 115891030.647 7  90304707.81545  22053330.273                    22053333.059
        46.800          34.100
 118595957.156 7  92412445.46544  22568061.484                    22568063.707
        45.600          29.900
 122112217.146 7  95152394.79645  23237181.320                    23237188.785
        43.600          30.400
 116905559.786 7  91095259.32645  22246388.102                    22246394.320
        47.400          35.700
 114313705.568 8  89075636.68446  21753174.680                    21753180.387
        48.800          37.900
 118294801.046 8  92177776.76345  22510754.664                    22510756.012
        49.200          34.400
 124578392.324 7  97074089.72644  23706479.742                    23706483.742
        42.700          25.600
 18  3 11 12 26 35.0000000  0 16R05R13R04G17R14R21R22R23R15G28G11G01
                                G10G24G15G13
                  84820309.291 6  20400934.203                    20400936.078
                        36.000
                  81673786.296 6  19664842.438                    19664843.387
                        40.400
                  87589880.256 7  21030164.977                    21030165.969
                        42.200
 123822136.049 7  96484817.35845  23562572.930                    23562576.219
        45.600          30.000
                  83998661.656 7  20260203.133                    20260204.855
                        42.800
                  91776550.420 7  22050827.578                    22050830.461
                        44.000
                  84878653.535 7  20443670.211                    20443671.258
                        42.600
                  95635179.615 5  22985983.508                    22985987.406
                        35.100
                  97537152.080 6  23467817.180                    23467819.695
                        37.400
 115893221.477 7  90306414.95445  22053747.867                    22053749.844
        46.700          34.700
 118595627.995 7  92412188.97145  22567998.133                    22568001.246
        45.300          30.400
 122110139.569 7  95150775.92244  23236786.008                    23236792.676
        43.800          29.900
 116905944.772 7  91095559.32446  22246461.586                    22246468.113
        47.000          36.000
 114311772.018 8  89074130.02146  21752806.969                    21752812.438
        48.200          38.600
 118297919.933 8  92180207.03945  22511348.898                    22511349.379
        51.500          34.800
 124582491.789 7  97077284.11944  23707259.906                    23707264.043
        42.400          25.600
 18  3 11 12 26 36.0000000  0 16R05R13R04G17R14R21R22R23R15G28G11G01
                                G10G24G15G13
                  84819844.777 6  20400821.898                    20400823.801
                        36.500
                  81675306.446 6  19665208.813                    19665209.613
                        40.500
                  87592615.088 7  21030821.625                    21030821.934
                        42.100
 123819474.249 7  96482743.23445  23562066.039                    23562069.551
        45.500          30.300
                  83996869.919 7  20259770.117                    20259773.129
                        42.800
                  91779533.271 7  22051544.266                    22051547.469
                        44.200
                  84878353.403 7  20443598.055                    20443598.469
                        42.300
                  95632022.021 5  22985223.844                    22985227.945
                        34.600
                  97533909.147 6  23467037.398                    23467038.926
                        37.700
 115895412.806 7  90308122.49045  22054164.531                    22054166.906
        47.500          34.500
 118595299.614 7  92411933.08645  22567935.227                    22567938.418
        45.800          30.500
 122108062.552 7  95149157.47345  23236391.336                    23236397.746
        43.600          30.000
 116906330.500 7  91095859.89545  22246535.320                    22246541.395
        46.700          35.600
 114309839.028 8  89072623.79646  21752439.078                    21752444.871
        48.100          38.700
 118301039.340 8  92182637.76845  22511940.617                    22511943.277
        49.600          34.400
 124586591.465 7  97080478.67444  23708040.266                    23708044.078
        42.300          24.100
 18  3 11 12 26 37.0000000  0 16R05R13R04G17R14R21R22R23R15G28G11G01
                                G10G24G15G13
                  84819380.994 6  20400710.555                    20400712.469
                        36.100
                  81676827.248 6  19665574.867                    19665575.824
                        40.900
                  87595350.448 7  21031479.617                    21031478.484
                        42.100
 123816812.825 7  96480669.40145  23561560.273                    23561563.234
        46.000          30.200
                  83995078.740 7  20259338.359                    20259340.879
                        42.900
                  91782516.589 7  22052262.023                    22052264.258
                        44.000
                  84878054.032 7  20443525.633                    20443527.215
                        42.500
                  95628864.704 5  22984465.602                    22984469.426
                        35.300
                  97530666.365 6  23466256.391                    23466258.453
                        37.900
 115897604.645 8  90309830.41545  22054581.609                    22054584.219
        48.000          34.100
 118594971.983 7  92411677.79345  22567873.711                    22567876.145
        46.000          30.400
 122105986.133 7  95147539.48144  23235995.219                    23236002.930
        42.300          29.700
 116906716.961 7  91096161.03945  22246608.617                    22246614.469
        46.900          35.900
 114307906.621 8  89071118.02346  21752070.828                    21752077.113
        48.600          38.300
 118304159.309 7  92185068.96045  22512531.008                    22512537.180
        45.200          33.700
 124590691.462 7  97083673.47044  23708820.813                    23708824.547
        42.600          26.500
 18  3 11 12 26 38.0000000  0 16R05R13R04G17R14R21R22R23R15G28G11G01
                                G10G24G15G13
                  84818917.941 6  20400599.227                    20400601.273
                        36.000
                  81678348.634 6  19665941.328                    19665942.551
                        40.900
                  87598086.279 7  21032135.336                    21032135.078
                        42.200
 123814151.733 7  96478595.82944  23561053.766                    23561056.992
        45.600          29.700
                  83993288.039 7  20258907.203                    20258908.957
                        42.400
                  91785500.344 7  22052978.789                    22052980.773
                        43.400
                  84877755.361 7  20443454.117                    20443455.113
                        42.400
                  95625707.582 5  22983705.961                    22983710.313
                        35.800
                  97527423.648 6  23465475.813                    23465478.320
                        37.800
 115899796.951 7  90311538.71145  22054999.047                    22055001.566
        47.800          34.200
 118594645.096 7  92411423.06644  22567811.531                    22567814.113
        45.900          29.600
 122103910.202 7  95145921.89844  23235600.891                    23235607.441
        43.200          29.600
 116907104.092 7  91096462.70445  22246682.773                    22246688.426
        47.000          35.600
 114305974.688 8  89069612.62246  21751703.102                    21751709.391
        48.900          38.000
 118307279.801 7  92187500.50845  22513126.766                    22513129.875
        45.300          34.200
 124594791.700 7  97086868.45244  23709600.969                    23709604.566
        43.000          25.500
 18  3 11 12 26 39.0000000  0 16R05R13R04G17R14R21R22R23R15G28G11G01
                                G10G24G15G13
                  84818455.619 6  20400488.461                    20400490.277
                        36.000
                  81679870.648 6  19666307.656                    19666309.051
                        40.900
                  87600822.690 7  21032792.945                    21032792.793
                        43.000
 123811491.048 7  96476522.57245  23560547.164                    23560550.957
        45.600          31.000
                  83991497.874 7  20258474.781                    20258476.816
                        42.600
                  91788484.610 7  22053696.539                    22053698.258
                        43.500
                  84877457.480 7  20443382.336                    20443383.504
                        42.700
                  95622550.771 5  22982948.219                    22982952.063
                        35.600
                  97524181.088 6  23464695.766                    23464698.660
                        37.900
 115901989.768 7  90313247.40145  22055415.734                    22055418.266
        47.300          34.300
 118594318.986 7  92411168.94645  22567748.984                    22567751.879
        45.600          30.000
 122101834.917 7  95144304.82445  23235207.438                    23235212.566
        45.600          30.200
 116907491.977 7  91096764.94646  22246756.688                    22246762.059
        47.200          36.000
 114304043.359 8  89068107.69146  21751336.070                    21751341.793
        48.800          38.700
 118310400.682 8  92189932.31245  22513723.758                    22513723.949
        50.000          34.900
 124598892.189 7  97090063.64044  23710381.117                    23710384.910
        43.000          25.300
 18  3 11 12 26 40.0000000  0 16R05R13R04G17R14R21R22R23R15G28G11G01
                                G10G24G15G13
                  84817994.041 6  20400377.234                    20400379.016
                        36.000
                  81681393.335 6  19666674.039                    19666675.781
                        40.400
                  87603559.653 7  21033449.945                    21033450.484
                        42.700
 123808830.760 7  96474449.63045  23560041.570                    23560044.305
        46.400          30.900
                  83989708.268 7  20258043.484                    20258045.766
                        42.600
                  91791469.371 7  22054413.422                    22054414.750
                        42.500
                  84877160.382 7  20443310.508                    20443311.563
                        42.400
                  95619394.221 5  22982188.578                    22982193.063
                        35.500
                  97520938.667 6  23463915.641                    23463918.453
                        37.400
 115904183.131 7  90314956.51745  22055833.227                    22055835.828
        47.000          34.100
 118593993.656 7  92410915.44645  22567687.148                    22567689.730
        45.600          30.400
 122099760.280 7  95142688.23045  23234813.016                    23234817.672
        46.700          30.300
 116907880.621 7  91097067.77745  22246830.531                    22246835.781
        47.000          35.700
 114302112.626 8  89066603.22946  21750968.891                    21750974.793
        48.500          38.200
 118313522.059 8  92192364.54345  22514317.164                    22514318.512
        50.200          35.500
 124602992.983 7  97093259.05544  23711161.117                    23711165.227
        43.000          25.900
 18  3 11 12 26 41.0000000  0 16R05R13R04G17R14R21R22R23R15G28G11G01
                                G10G24G15G13
                  84817533.134 5  20400265.516                    20400268.031
                        35.600
                  81682916.602 6  19667040.906                    19667042.277
                        40.600
                  87606297.152 7  21034105.656                    21034107.332
                        42.700
 123806170.794 7  96472376.92645  23559535.086                    23559538.379
        46.400          30.700
                  83987919.145 7  20257611.773                    20257613.707
                        43.000
                  91794454.563 7  22055130.555                    22055131.855
                        42.400
                  84876864.006 7  20443239.078                    20443239.992
                        42.500
                  95616237.906 6  22981429.688                    22981434.316
                        36.300
                  97517696.343 6  23463135.461                    23463138.602
                        37.500
 115906376.935 7  90316665.97545  22056250.727                    22056253.449
        46.700          34.400
 118593669.021 7  92410662.48045  22567625.789                    22567628.238
        46.000          30.200
 122097686.146 7  95141072.00145  23234417.203                    23234423.430
        46.000          30.700
 116908269.947 7  91097371.14646  22246904.742                    22246909.863
        47.100          36.200
 114300182.386 8  89065099.14046  21750601.266                    21750607.359
        48.400          38.200
 118316643.913 7  92194797.18145  22514908.508                    22514912.824
        47.600          35.200
 124607094.020 7  97096454.66344  23711941.375                    23711945.688
        43.000          25.700
 18  3 11 12 26 42.0000000  0 16R05R13R04G17R14R21R22R23R15G28G11G01
                                G10G24G15G13
                  84817072.957 6  20400156.094                    20400157.766
                        36.400
                  81684440.484 6  19667407.539                    19667408.719
                        40.700
                  87609035.173 7  21034763.898                    21034764.680
                        42.400
 123803511.240 7  96470304.54545  23559028.953                    23559032.285
        46.600          31.200
                  83986130.530 7  20257180.609                    20257182.926
                        42.800
                  91797440.224 6  22055848.547                    22055848.980
                        41.700
                  84876568.396 7  20443168.609                    20443169.105
                        42.700
                  95613081.899 6  22980670.484                    22980675.777
                        36.600
                  97514454.166 6  23462354.820                    23462358.348
                        37.300
 115908571.231 7  90318375.82045  22056668.586                    22056671.035
        46.900          34.600
 118593345.177 7  92410410.14145  22567564.500                    22567566.895
        46.000          30.200
 122095612.569 7  95139456.21145  23234021.516                    23234028.691
        44.800          31.200
 116908659.988 7  91097675.06746  22246978.977                    22246984.582
        46.900          36.100
 114298252.714 8  89063595.49946  21750234.211                    21750240.016
        48.700          38.300
 118319766.315 7  92197230.23645  22515502.570                    22515506.723
        45.700          35.300
 124611195.294 7  97099650.46544  23712721.969                    23712726.020
        42.800          24.200
 18  3 11 12 26 43.0000000  0 16R05R13R04G17R14R21R22R23R15G28G11G01
                                G10G24G15G13
                  84816613.458 6  20400046.125                    20400046.570
                        36.200
                  81685964.988 6  19667775.219                    19667775.723
                        40.600
                  87611773.671 7  21035421.367                    21035422.184
                        42.700
 123800851.996 7  96468232.39945  23558522.906                    23558526.285
        46.600          31.500
                  83984342.443 7  20256748.523                    20256751.258
                        42.600
                  91800426.378 6  22056565.133                    22056566.672
                        41.700
                  84876273.533 7  20443096.961                    20443097.957
                        42.900
                  95609926.066 6  22979914.055                    22979917.969
                        36.900
                  97511212.038 6  23461573.852                    23461577.977
                        37.500
 115910765.979 7  90320086.02045  22057086.180                    22057088.484
        45.700          35.000
 118593021.999 7  92410158.31245  22567502.406                    22567504.883
        45.500          30.000
 122093539.512 7  95137840.84345  23233627.117                    23233633.969
        45.500          30.100
 116909050.727 7  91097979.53045  22247053.000                    22247058.715
        47.500          35.800
 114296323.537 8  89062092.24446  21749867.086                    21749872.617
        48.800          37.700
 118322889.133 8  92199663.57745  22516099.758                    22516100.938
        49.100          35.400
 124615296.796 7  97102846.45044  23713502.641                    23713506.484
        42.300          25.500
 18  3 11 12 26 44.0000000  0 16R05R13R04G17R14R21R22R23R15G28G11G01
                                G10G24G15G13
                  84816154.734 5  20399935.930                    20399936.996
                        35.900
                  81687490.151 6  19668142.734                    19668143.332
                        40.400
                  87614512.720 7  21036080.102                    21036080.215
                        42.500
 123798193.172 7  96466160.57845  23558017.156                    23558020.559
        46.500          30.500
                  83982554.894 7  20256317.781                    20256319.977
                        42.400
                  91803413.059 6  22057282.867                    22057284.184
                        41.900
                  84875979.459 7  20443025.750                    20443027.293
                        43.000
                  95606770.506 6  22979155.906                    22979159.406
                        36.300
                  97507970.124 6  23460794.406                    23460797.980
                        37.900
 115912961.306 7  90321796.66445  22057503.852                    22057506.297
        45.600          34.800
 118592699.705 7  92409907.17944  22567440.961                    22567443.828
        45.300          29.500
 122091467.105 7  95136225.99544  23233234.023                    23233239.969
        46.800          29.100
 116909442.222 7  91098284.59146  22247127.914                    22247133.523
        46.700          36.000
 114294394.975 8  89060589.46846  21749500.172                    21749505.867
        48.000          38.300
 118326012.425 8  92202097.29645  22516694.242                    22516695.684
        50.600          35.900
 124619398.641 6  97106042.69944  23714283.258                    23714286.785
        41.600          25.900
 18  3 11 12 26 45.0000000  0 16R05R13R04G17R14R21R22R23R15G28G11G01
                                G10G24G15G13
                  84815696.740 6  20399825.406                    20399826.258
                        36.500
                  81689015.960 6  19668509.695                    19668511.051
                        40.200
                  87617252.297 7  21036737.398                    21036738.156
                        42.800
 123795534.740 7  96464089.06945  23557510.523                    23557514.277
        46.200          30.000
                  83980767.895 7  20255886.305                    20255889.121
                        42.800
                  91806400.220 7  22058000.320                    22058001.582
                        42.100
                  84875686.160 7  20442955.500                    20442956.789
                        42.900
                  95603615.214 5  22978397.656                    22978401.188
                        35.600
                  97504728.346 6  23460014.109                    23460018.340
                        36.900
 115915157.128 7  90323507.69245  22057921.484                    22057923.801
        46.500          34.700
 118592378.159 7  92409656.62444  22567380.219                    22567382.523
        45.400          29.600
 122089395.333 7  95134611.63045  23232839.672                    23232845.508
        46.700          30.800
 116909834.465 7  91098590.23645  22247202.367                    22247207.680
        46.600          35.500
 114292466.989 8  89059087.14246  21749133.305                    21749138.598
        48.200          38.400
 118329136.240 8  92204531.46445  22517286.664                    22517290.484
        49.000          35.200
 124623500.738 6  97109239.14244  23715064.305                    23715067.508
        40.900          25.900
 18  3 11 12 26 46.0000000  0 16R05R13R04G17R14R21R22R23R15G28G11G01
                                G10G24G15G13
                  84815239.462 6  20399715.047                    20399716.109
                        36.200
                  81690542.384 6  19668877.156                    19668878.301
                        40.400
                  87619992.412 7  21037394.742                    21037395.855
                        42.500
 123792876.681 7  96462017.84845  23557004.773                    23557008.938
        46.400          31.700
                  83978981.396 7  20255455.727                    20255458.406
                        42.800
                  91809387.846 6  22058718.313                    22058719.012
                        41.900
                  84875393.614 7  20442885.023                    20442886.613
                        42.800
                  95600460.181 6  22977637.953                    22977643.270
                        36.400
                  97501486.710 6  23459234.406                    23459238.648
                        37.600
 115917353.453 7  90325219.11345  22058339.734                    22058341.977
        46.700          34.000
 118592057.343 7  92409406.62745  22567318.961                    22567321.477
        45.300          30.500
 122087324.082 7  95132997.65345  23232444.453                    23232451.430
        46.300          30.900
 116910227.439 7  91098896.45945  22247277.117                    22247282.570
        46.100          35.700
 114290539.536 7  89057585.23046  21748766.164                    21748772.523
        47.500          38.600
 118332260.600 7  92206966.05745  22517879.258                    22517884.973
        45.100          34.900
 124627603.127 6  97112435.81543  23715844.570                    23715848.090
        41.000          23.000
 18  3 11 12 26 47.0000000  0 16R05R13R04G17R14R21R22R23R15G28G11G01
                                G10G24G15G13
                  84814782.905 6  20399605.023                    20399606.766
                        36.500
                  81692069.420 6  19669244.070                    19669245.840
                        40.300
                  87622733.056 7  21038053.195                    21038053.754
                        42.300
 123790218.956 7  96459946.90145  23556499.273                    23556502.801
        46.400          30.200
                  83977195.433 7  20255025.227                    20255027.605
                        42.700
                  91812375.938 7  22059436.102                    22059437.355
                        42.800
                  84875101.798 7  20442814.867                    20442815.398
                        43.200
                  95597305.413 5  22976879.438                    22976883.656
                        35.800
                  97498245.201 6  23458454.375                    23458458.293
                        37.100
 115919550.261 7  90326930.91145  22058757.234                    22058759.832
        46.400          34.200
 118591737.289 7  92409157.22845  22567258.258                    22567260.719
        45.500          30.200
 122085253.411 7  95131384.13645  23232051.086                    23232057.313
        46.500          31.400
 116910621.117 7  91099203.22145  22247351.719                    22247357.641
        45.400          34.800
 114288612.648 7  89056083.75746  21748399.703                    21748405.305
        47.200          38.400
 118335385.441 8  92209400.97745  22518476.242                    22518479.102
        48.200          35.400
 124631705.772 6  97115632.66444  23716625.031                    23716628.664
        41.800          24.100
 18  3 11 12 26 48.0000000  0 16R05R13R04G17R14R21R22R23R15G28G11G01
                                G10G24G15G13
                  84814327.124 6  20399495.344                    20399497.574
                        37.000
                  81693597.104 6  19669612.188                    19669613.844
                        40.000
                  87625474.257 7  21038710.336                    21038711.242
                        42.500
 123787561.601 7  96457876.23445  23555993.555                    23555997.375
        45.800          30.700
                  83975410.007 7  20254594.813                    20254597.129
                        42.700
                  91815364.489 7  22060153.797                    22060156.137
                        43.100
                  84874810.749 7  20442744.555                    20442745.648
                        42.800
                  95594150.884 6  22976122.648                    22976125.719
                        36.000
                  97495003.815 6  23457674.672                    23457678.695
                        37.600
 115921747.566 7  90328643.10245  22059175.430                    22059178.184
        45.700          34.800
 118591418.013 7  92408908.44345  22567197.930                    22567199.910
        46.100          30.600
 122083183.334 7  95129771.08545  23231657.305                    23231663.598
        46.600          31.200
 116911015.512 7  91099510.54845  22247426.570                    22247432.758
        44.700          34.800
 114286686.282 7  89054582.69246  21748032.891                    21748038.824
        47.400          38.200
 118338510.688 8  92211836.20345  22519072.133                    22519074.113
        49.900          35.200
 124635808.660 6  97118829.71544  23717405.906                    23717409.582
        41.700          24.600
 18  3 11 12 26 49.0000000  0 16R05R13R04G17R14R21R22R23R15G28G11G01
                                G10G24G15G13
                  84813872.014 6  20399385.906                    20399387.945
                        36.700
                  81695125.379 6  19669980.781                    19669982.023
                        40.400
                  87628215.942 7  21039369.703                    21039369.160
                        42.800
 123784904.606 7  96455805.85845  23555487.875                    23555491.914
        46.000          31.100
                  83973625.102 7  20254164.352                    20254166.969
                        42.800
                  91818353.498 7  22060871.805                    22060873.836
                        43.000
                  84874520.453 7  20442674.570                    20442676.047
                        42.900
                  95590996.606 6  22975364.211                    22975367.648
                        36.000
                  97491762.552 6  23456894.047                    23456898.734
                        37.300
 115923945.349 7  90330355.65945  22059593.977                    22059596.367
        45.700          34.700
 118591099.477 7  92408660.22944  22567136.773                    22567139.352
        46.200          29.900
 122081113.826 7  95128158.47345  23231263.008                    23231269.484
        45.900          31.400
 116911410.629 7  91099818.44145  22247501.961                    22247507.508
        44.400          34.300
 114284760.474 7  89053082.06046  21747666.719                    21747672.586
        47.600          38.100
 118341636.389 8  92214271.83345  22519665.797                    22519669.664
        48.100          34.600
 124639911.842 6  97122027.00344  23718187.063                    23718190.117
        41.400          24.500
 18  3 11 12 26 50.0000000  0 16R05R13R04G17R14R21R22R23R15G28G11G01
                                G10G24G15G13
                  84813417.671 5  20399277.359                    20399278.480
                        35.700
                  81696654.312 6  19670349.039                    19670350.055
                        40.500
                  87630958.144 7  21040027.516                    21040028.047
                        42.500
 123782248.019 7  96453735.79545  23554982.602                    23554986.145
        46.100          30.700
                  83971840.717 7  20253733.391                    20253735.801
                        42.700
                  91821343.012 7  22061590.000                    22061592.340
                        43.200
                  84874230.931 7  20442605.586                    20442606.059
                        42.900
                  95587842.591 6  22974605.766                    22974609.301
                        37.000
                  97488521.464 6  23456114.906                    23456119.375
                        36.800
 115926143.647 7  90332068.62145  22060012.391                    22060014.930
        46.000          35.200
 118590781.721 7  92408412.62545  22567076.273                    22567078.590
        45.900          31.300
 122079044.895 7  95126546.30445  23230867.867                    23230875.426
        44.700          31.000
 116911806.485 7  91100126.91045  22247577.328                    22247583.121
        44.400          34.700
 114282835.228 7  89051581.86946  21747300.641                    21747306.375
        47.800          38.100
 118344762.688 7  92216707.95645  22520257.297                    22520264.555
        42.800          33.900
 124644015.270 6  97125224.47143  23718967.414                    23718971.105
        41.100          22.600
 18  3 11 12 26 51.0000000  0 16R05R13R04G17R14R21R22R23R15G28G11G01
                                G10G24G15G13
                  84812963.998 6  20399167.992                    20399168.898
                        36.000
                  81698183.844 6  19670717.023                    19670718.289
                        40.500
                  87633700.865 7  21040686.547                    21040686.254
                        43.000
 123779591.762 7  96451665.99645  23554477.438                    23554480.332
        46.500          30.800
                  83970056.825 7  20253302.984                    20253305.602
                        42.800
                  91824332.927 7  22062309.539                    22062310.953
                        43.500
                  84873942.125 7  20442535.492                    20442536.664
                        43.100
                  95584688.825 6  22973848.055                    22973851.621
                        36.700
                  97485280.450 6  23455333.930                    23455338.852
                        36.700
 115928342.428 7  90333781.96645  22060430.391                    22060433.008
        46.400          34.700
 118590464.694 7  92408165.58445  22567015.500                    22567018.516
        45.400          30.000
 122076976.490 7  95124934.56045  23230474.625                    23230482.258
        44.600          30.900
 116912203.022 7  91100435.90545  22247653.148                    22247658.891
        44.500          35.200
 114280910.499 8  89050082.08546  21746934.133                    21746939.641
        48.200          38.100
 118347889.561 7  92219144.46145  22520855.125                    22520858.203
        44.800          34.000
 124648118.936 6  97128422.12443  23719748.633                    23719752.031
        40.700          23.600
 18  3 11 12 26 52.0000000  0 16R05R13R04G17R14R21R22R23R15G28G11G01
                                G10G24G15G13
                  84812511.041 6  20399058.500                    20399060.461
                        36.300
                  81699714.001 6  19671085.625                    19671086.426
                        40.600
                  87636444.109 7  21041345.258                    21041345.750
                        43.000
 123776935.886 7  96449596.48845  23553972.203                    23553975.094
        46.700          31.300
                  83968273.500 7  20252873.125                    20252875.418
                        42.800
                  91827323.327 7  22063027.734                    22063029.543
                        44.000
                  84873654.101 7  20442466.117                    20442467.309
                        42.700
                  95581535.302 6  22973089.172                    22973093.930
                        37.200
                  97482039.585 6  23454554.250                    23454559.273
                        36.900
 115930541.709 7  90335495.69345  22060849.102                    22060851.598
        46.200          34.500
 118590148.423 7  92407919.14345  22566955.547                    22566958.480
        45.000          30.400
 122074908.666 7  95123323.28245  23230081.336                    23230088.363
        44.500          31.200
 116912600.283 7  91100745.47345  22247728.875                    22247734.070
        45.000          35.400
 114278986.301 7  89048582.70546  21746568.195                    21746573.813
        47.800          37.900
 118351016.729 8  92221581.14645  22521452.703                    22521453.320
        49.100          35.000
 124652222.896 6  97131620.02044  23720529.406                    23720532.984
        40.000          24.600
 18  3 11 12 26 53.0000000  0 16R05R13R04G17R14R21R22R23R15G28G11G01
                                G10G24G15G13
                  84812058.828 6  20398949.133                    20398951.102
                        36.100
                  81701244.785 6  19671454.008                    19671455.105
                        40.600
                  87639187.904 7  21042003.805                    21042004.031
                        42.900
 123774280.378 7  96447527.26045  23553466.992                    23553469.703
        47.200          30.200
                  83966490.666 7  20252442.438                    20252445.586
                        42.800
                  91830314.218 7  22063746.234                    22063748.406
                        44.300
                  84873366.808 7  20442397.258                    20442398.121
                        42.600
                  95578382.035 6  22972331.570                    22972336.246
                        36.100
                  97478798.848 6  23453775.125                    23453778.922
                        37.400
 115932741.480 7  90337209.80145  22061267.906                    22061270.172
        46.000          34.600
 118589832.907 7  92407673.29744  22566895.195                    22566898.496
        44.600          29.800
 122072841.450 7  95121712.47745  23229688.563                    23229695.578
        44.500          30.400
 116912998.271 7  91101055.60545  22247805.305                    22247809.793
        45.600          35.200
 114277062.662 7  89047083.76646  21746201.969                    21746207.566
        47.800          37.800
 118354144.367 8  92224018.25845  22522047.297                    22522049.004
        49.100          35.300
 124656327.092 6  97134818.10244  23721310.461                    23721314.016
        40.500          24.500
 18  3 11 12 26 54.0000000  0 16R05R13R04G17R14R21R22R23R15G28G11G01
                                G10G24G15G13
                  84811607.316 5  20398840.953                    20398842.914
                        35.700
                  81702776.165 6  19671822.695                    19671823.844
                        40.400
                  87641932.206 7  21042662.664                    21042663.430
                        42.900
 123771625.205 8  96445458.28845  23552961.945                    23552964.305
        48.100          31.900
                  83964708.339 7  20252013.164                    20252015.215
                        42.800
                  91833305.564 7  22064465.242                    22064467.645
                        44.000
                  84873080.259 7  20442327.500                    20442329.227
                        42.700
                  95575228.979 5  22971573.188                    22971577.844
                        35.900
                  97475558.195 6  23452995.172                    23452999.629
                        37.000
 115934941.708 7  90338924.26645  22061686.375                    22061688.945
        45.900          34.400
 118589518.096 7  92407427.99545  22566835.727                    22566838.152
        45.100          30.500
 122070774.748 7  95120102.05645  23229295.672                    23229301.344
        44.700          30.200
 116913396.957 7  91101366.27245  22247881.180                    22247885.746
        46.000          35.700
 114275139.528 7  89045585.22046  21745835.789                    21745841.336
        47.800          38.300
 118357272.489 7  92226455.79945  22522639.438                    22522644.469
        45.700          34.900
 124660431.547 6  97138016.38144  23722091.570                    23722095.164
        40.700          25.300
 18  3 11 12 26 55.0000000  0 16R05R13R04G17R14R21R22R23R15G28G11G01
                                G10G24G15G13
                  84811156.571 6  20398732.336                    20398734.563
                        36.100
                  81704308.191 6  19672191.195                    19672192.438
                        40.400
                  87644677.052 7  21043321.414                    21043321.781
                        42.600
 123768970.432 7  96443389.62145  23552456.148                    23552459.371
        47.500          30.900
                  83962926.548 7  20251583.648                    20251586.027
                        43.200
                  91836297.384 7  22065184.172                    22065185.996
                        43.900
                  84872794.478 7  20442258.852                    20442260.168
                        42.600
                  95572076.203 6  22970815.445                    22970820.324
                        36.200
                  97472317.673 6  23452215.055                    23452219.590
                        36.900
 115937142.457 7  90340639.13545  22062105.359                    22062107.672
        46.400          34.100
 118589204.050 7  92407183.28545  22566776.313                    22566778.641
        45.600          30.600
 122068708.667 7  95118492.11845  23228902.625                    23228908.047
        44.400          30.200
 116913796.377 7  91101677.51645  22247956.789                    22247961.879
        46.500          35.400
 114273216.979 7  89044087.13046  21745470.055                    21745475.699
        47.900          38.200
 118360401.272 7  92228893.82145  22523234.781                    22523238.805
        44.700          33.600
 124664536.275 6  97141214.87343  23722873.078                    23722876.254
        40.900          23.000
 18  3 11 12 26 56.0000000  0 16R05R13R04G17R14R21R22R23R15G28G11G01
                                G10G24G15G13
                  84810706.534 6  20398624.828                    20398626.219
                        36.000
                  81705840.859 6  19672560.031                    19672561.926
                        40.400
                  87647422.434 7  21043980.313                    21043980.895
                        42.700
 123766316.041 7  96441321.26145  23551951.172                    23551954.129
        47.300          31.700
                  83961145.271 7  20251154.188                    20251156.148
                        43.100
                  91839289.705 7  22065902.461                    22065905.332
                        43.500
                  84872509.456 7  20442190.859                    20442191.500
                        42.600
                  95568923.708 5  22970058.727                    22970062.465
                        35.300
                  97469077.338 6  23451436.305                    23451440.602
                        36.900
 115939343.690 7  90342354.38245  22062523.758                    22062526.613
        46.000          34.100
 118588890.807 7  92406939.19745  22566717.055                    22566719.211
        45.400          30.000
 122066643.142 7  95116882.61344  23228509.242                    23228515.699
        43.300          29.700
 116914196.527 7  91101989.31745  22248033.180                    22248038.387
        46.700          35.800
 114271294.985 7  89042589.47746  21745104.281                    21745109.879
        47.800          38.000
 118363530.403 8  92231332.05245  22523835.492                    22523834.684
        49.900          34.700
 124668641.261 6  97144413.55543  23723653.789                    23723657.086
        41.100          22.600
 18  3 11 12 26 57.0000000  0 16R05R13R04G17R14R21R22R23R15G28G11G01
                                G10G24G15G13
                  84810257.213 6  20398515.711                    20398518.168
                        36.000
                  81707374.156 6  19672930.281                    19672930.363
                        40.400
                  87650168.291 7  21044640.609                    21044641.113
                        43.200
 123763661.994 7  96439253.16845  23551445.922                    23551449.426
        46.800          32.000
                  83959364.517 7  20250724.609                    20250726.633
                        42.800
                  91842282.488 7  22066621.383                    22066623.535
                        43.500
                  84872225.202 7  20442122.016                    20442123.000
                        42.600
                  95565771.438 5  22969299.430                    22969305.395
                        35.800
                  97465837.069 6  23450656.422                    23450660.871
                        36.900
 115941545.445 7  90344070.03845  22062943.117                    22062945.746
        45.600          33.400
 118588578.313 7  92406695.69144  22566656.930                    22566659.523
        45.700          29.900
 122064578.156 6  95115273.52945  23228115.336                    23228122.867
        41.600          30.500
 116914597.398 7  91102301.67745  22248109.047                    22248114.016
        46.600          35.400
 114269373.565 7  89041092.27146  21744738.641                    21744744.488
        47.600          37.600
 118366659.953 8  92233770.64345  22524431.078                    22524430.336
        51.900          35.700
 124672746.510 6  97147612.44843  23724434.750                    23724438.770
        41.100          22.500
 18  3 11 12 26 58.0000000  0 16R05R13R04G17R14R21R22R23R15G28G11G01
                                G10G24G15G13
                  84809808.630 6  20398408.023                    20398410.070
                        36.000
                  81708908.047 6  19673299.094                    19673300.207
                        40.100
                  87652914.716 7  21045299.227                    21045299.691
                        42.800
 123761008.319 7  96437185.37445  23550940.648                    23550944.629
        45.900          31.000
                  83957584.283 7  20250295.016                    20250297.094
                        42.700
                  91845275.735 7  22067340.742                    22067342.777
                        42.300
                  84871941.693 7  20442054.094                    20442054.953
                        42.500
                  95562619.429 6  22968541.961                    22968547.383
                        36.200
                  97462596.961 6  23449877.531                    23449881.379
                        36.800
 115943747.683 7  90345786.06645  22063361.906                    22063364.582
        46.000          33.200
 118588266.552 7  92406452.76044  22566597.883                    22566599.941
        45.400          29.900
 122062513.727 6  95113664.89944  23227722.570                    23227729.500
        41.300          29.500
 116914998.966 7  91102614.58345  22248185.664                    22248190.840
        47.000          35.400
 114267452.691 7  89039595.48546  21744373.391                    21744378.973
        47.700          37.900
 118369789.974 8  92236209.65945  22525024.531                    22525027.098
        50.800          35.300
 124676851.998 6  97150811.53643  23725216.586                    23725219.719
        41.400          22.600
 18  3 11 12 26 59.0000000  0 16R05R13R04G17R14R21R22R23R15G28G11G01
                                G10G24G15G13
                  84809360.776 6  20398299.992                    20398302.168
                        36.300
                  81710442.555 6  19673668.727                    19673669.344
                        40.500
                  87655661.604 7  21045960.078                    21045959.129
                        43.100
 123758354.964 7  96435117.82945  23550435.688                    23550439.465
        45.500          30.700
                  83955804.549 7  20249865.414                    20249868.344
                        42.800
                  91848269.435 7  22068059.563                    22068061.770
                        42.600
                  84871658.929 7  20441985.031                    20441986.926
                        42.700
                  95559467.671 5  22967784.992                    22967790.195
                        35.500
                  97459356.923 6  23449097.313                    23449101.578
                        36.500
 115945950.354 7  90347502.43145  22063781.383                    22063783.648
        46.500          33.600
 118587955.530 7  92406210.41044  22566538.203                    22566540.977
        45.600          29.900
 122060449.858 7  95112056.73144  23227332.328                    23227336.664
        44.100          29.600
 116915401.229 7  91102928.03945  22248261.750                    22248267.461
        47.000          35.400
 114265532.322 7  89038099.09246  21744007.461                    21744013.449
        47.300          37.400
 118372920.510 7  92238649.08745  22525616.633                    22525622.586
        46.800          34.900
 124680957.772 6  97154010.82943  23725997.477                    23726000.883
        40.900          22.300
 18  3 11 12 27  0.0000000  0 16R05R13R04G17R14R21R22R23R15G28G11G01
                                G10G24G15G13
                  84808913.675 6  20398194.117                    20398194.891
                        36.200
                  81711977.727 6  19674038.641                    19674039.402
                        40.600
                  87658409.072 7  21046618.625                    21046619.520
                        42.600
 123755702.046 7  96433050.62345  23549930.453                    23549934.781
        45.100          31.300
                  83954025.381 7  20249436.258                    20249438.703
                        42.900
                  91851263.622 7  22068778.297                    22068780.801
                        42.400
                  84871376.910 7  20441917.664                    20441918.797
                        42.600
                  95556316.207 6  22967028.523                    22967032.012
                        36.500
                  97456117.046 6  23448317.523                    23448321.676
                        36.200
 115948153.597 7  90349219.24245  22064200.555                    22064202.836
        46.800          34.400
 118587645.312 7  92405968.67545  22566479.398                    22566482.172
        45.400          30.100
 122058386.659 7  95110449.05444  23226940.375                    23226943.977
        45.500          29.800
 116915804.269 7  91103242.09645  22248338.477                    22248343.887
        47.400          35.200
 114263612.556 8  89036603.16946  21743642.648                    21743647.898
        48.000          38.000
 118376051.674 7  92241088.97545  22526212.664                    22526217.563
        47.200          35.100
 124685063.823 6  97157210.35343  23726778.984                    23726782.672
        41.100          22.900
 18  3 11 12 27  1.0000000  0 16R05R13R04G17R14R21R22R23R15G28G11G01
                                G10G24G15G13
                  84808467.236 6  20398086.188                    20398087.398
                        36.000
                  81713513.464 6  19674407.906                    19674409.066
                        40.800
                  87661156.972 7  21047279.094                    21047278.887
                        42.600
 123753049.413 7  96430983.65945  23549426.242                    23549429.957
        45.100          30.500
                  83952246.689 7  20249006.898                    20249010.117
                        42.700
                  91854258.243 7  22069498.031                    22069500.691
                        42.300
                  84871095.644 7  20441850.273                    20441851.133
                        42.600
                  95553164.939 5  22966272.422                    22966275.668
                        35.900
                  97452877.280 6  23447538.211                    23447542.422
                        36.200
 115950357.274 7  90350936.39645  22064619.305                    22064622.023
        46.800          33.700
 118587335.791 7  92405727.48144  22566420.586                    22566423.219
        45.300          29.700
 122056324.001 7  95108841.76845  23226546.383                    23226552.016
        45.200          30.200
 116916207.968 8  91103556.66545  22248415.531                    22248420.957
        48.300          35.100
 114261693.270 7  89035107.62646  21743277.156                    21743283.027
        47.700          38.100
 118379183.144 8  92243529.04645  22526811.461                    22526813.473
        50.300          35.400
 124689170.048 6  97160410.00743  23727560.469                    23727564.055
        41.100          22.300
 18  3 11 12 27  2.0000000  0 16R05R13R04G17R14R21R22R23R15G28G11G01
                                G10G24G15G13
                  84808021.514 5  20397978.930                    20397980.480
                        35.800
                  81715049.844 6  19674777.938                    19674778.699
                        41.100
                  87663905.415 7  21047938.047                    21047939.301
                        42.100
 123750397.177 7  96428916.98645  23548921.484                    23548925.094
        45.600          31.300
                  83950468.571 7  20248578.602                    20248581.527
                        42.400
                  91857253.367 7  22070217.578                    22070219.957
                        42.700
                  84870815.123 7  20441782.086                    20441783.410
                        42.700
                  95550013.902 6  22965514.063                    22965518.324
                        36.100
                  97449637.634 6  23446758.227                    23446762.602
                        36.000
 115952561.442 7  90352653.93345  22065039.117                    22065041.637
        46.400          33.800
 118587027.032 7  92405486.89145  22566361.000                    22566364.320
        45.200          30.000
 122054261.888 7  95107234.88845  23226152.391                    23226159.719
        42.300          30.000
 116916612.409 8  91103871.81245  22248492.258                    22248497.758
        48.200          35.700
 114259774.600 8  89033612.55246  21742911.813                    21742917.750
        48.200          37.800
 118382315.059 8  92245969.49545  22527407.586                    22527409.609
        50.800          34.500
 124693276.612 6  97163609.92943  23728341.602                    23728345.367
        40.800          22.500
 18  3 11 12 27  3.0000000  0 16R05R13R04G17R14R21R22R23R15G28G11G01
                                G10G24G15G13
                  84807576.506 5  20397872.070                    20397873.242
                        35.600
                  81716586.834 6  19675147.727                    19675148.672
                        40.800
                  87666654.389 7  21048598.133                    21048598.973
                        42.700
 123747745.316 7  96426850.61445  23548417.141                    23548420.219
        45.500          30.800
                  83948690.931 7  20248149.617                    20248152.059
                        42.800
                  91860248.961 7  22070937.977                    22070939.805
                        43.400
                  84870535.347 7  20441715.125                    20441715.945
                        42.800
                  95546863.146 6  22964756.781                    22964761.023
                        36.400
                  97446398.106 6  23445979.664                    23445983.488
                        36.000
 115954766.104 7  90354371.85445  22065458.492                    22065461.223
        46.900          33.500
 118586719.019 7  92405246.88245  22566303.328                    22566305.387
        45.400          30.400
 122052200.278 7  95105628.44244  23225759.695                    23225766.871
        42.400          29.500
 116917017.553 8  91104187.51245  22248569.766                    22248574.801
        48.800          35.800
 114257856.465 8  89032117.90346  21742546.883                    21742552.539
        48.400          37.900
 118385447.487 8  92248410.37645  22528001.953                    22528006.234
        48.000          33.600
 124697383.386 6  97166810.02043  23729123.516                    23729126.988
        40.900          22.200
 18  3 11 12 27  4.0000000  0 16R05R13R04G17R14R21R22R23R15G28G11G01
                                G10G24G15G13
                  84807132.267 5  20397764.797                    20397766.391
                        35.500
                  81718124.464 6  19675518.234                    19675519.500
                        40.400
                  87669403.943 7  21049258.156                    21049258.508
                        42.500
 123745093.854 7  96424784.53745  23547912.945                    23547915.918
        46.000          30.200
                  83946913.842 7  20247721.109                    20247724.004
                        42.700
                  91863245.045 7  22071658.602                    22071659.836
                        43.500
                  84870256.383 7  20441647.563                    20441648.824
                        43.000
                  95543712.638 6  22963998.047                    22964003.285
                        36.600
                  97443158.746 5  23445199.398                    23445203.992
                        34.700
 115956971.306 7  90356090.20045  22065878.563                    22065880.953
        46.400          33.700
 118586411.827 7  92405007.51344  22566244.789                    22566246.629
        45.400          29.600
 122050139.335 7  95104022.55244  23225369.648                    23225375.074
        45.400          29.700
 116917423.470 8  91104503.80845  22248646.695                    22248652.160
        49.000          35.500
 114255938.929 8  89030623.72446  21742182.539                    21742187.754
        48.100          38.100
 118388580.539 7  92250851.74145  22528594.750                    22528602.527
        43.500          34.000
 124701490.461 6  97170010.32943  23729905.195                    23729908.270
        40.800          21.700
 18  3 11 12 27  5.0000000  0 16R05R13R04G17R14R21R22R23R15G28G11G01
                                G10G24G15G13
                  84806688.712 5  20397658.602                    20397659.863
                        35.800
                  81719662.683 6  19675888.805                    19675889.570
                        40.400
                  87672154.026 7  21049918.141                    21049918.691
                        42.800
 123742442.705 7  96422718.71045  23547408.453                    23547411.270
        46.300          30.900
                  83945137.244 7  20247292.977                    20247295.152
                        42.800
                  91866241.504 7  22072379.500                    22072380.133
                        43.700
                  84869978.142 7  20441580.711                    20441582.109
                        43.100
                  95540562.384 6  22963241.008                    22963245.859
                        36.200
                  97439919.491 5  23444420.414                    23444424.742
                        34.900
 115959176.958 7  90357808.88945  22066297.742                    22066300.641
        46.300          33.300
 118586105.324 7  92404768.67944  22566186.000                    22566189.043
        45.100          29.500
 122048078.973 7  95102417.09245  23224978.758                    23224983.199
        47.300          30.900
 116917830.058 8  91104820.62445  22248724.547                    22248729.184
        49.300          35.500
 114254021.904 8  89029129.94546  21741817.313                    21741823.328
        48.200          38.100
 118391714.039 7  92253293.38745  22529193.844                    22529197.797
        45.800          33.900
 124705597.800 6  97173210.86543  23730686.523                    23730690.242
        40.700          20.400
 18  3 11 12 27  6.0000000  0 16R05R13R04G17R14R21R22R23R15G28G11G01
                                G10G24G15G13
                  84806245.880 5  20397550.969                    20397553.352
                        35.800
                  81721201.550 6  19676259.102                    19676259.746
                        40.300
                  87674904.578 7  21050580.211                    21050579.855
                        42.400
 123739791.962 7  96420653.19545  23546904.211                    23546906.699
        45.700          31.300
                  83943361.176 7  20246863.914                    20246866.473
                        42.600
                  91869238.489 7  22073098.531                    22073100.199
                        43.300
                  84869700.652 7  20441514.430                    20441515.012
                        42.600
                  95537412.392 6  22962485.242                    22962488.840
                        36.300
                  97436680.377 5  23443641.000                    23443645.000
                        35.100
 115961383.098 7  90359527.96445  22066718.008                    22066720.293
        45.300          33.400
 118585799.600 7  92404530.45744  22566128.367                    22566130.547
        45.900          29.700
 122046019.181 7  95100812.05345  23224585.859                    23224591.539
        47.000          31.500
 116918237.360 8  91105138.00045  22248801.992                    22248807.117
        48.900          35.600
 114252105.435 8  89027636.59446  21741452.703                    21741458.078
        48.400          37.700
 118394847.938 7  92255735.34345  22529792.234                    22529794.492
        46.800          34.200
 124709705.404 6  97176411.59343  23731468.539                    23731471.922
        40.500          20.600
 18  3 11 12 27  7.0000000  0 16R05R13R04G17R14R21R22R23R15G28G11G01
                                G10G24G15G13
                  84805803.785 5  20397445.258                    20397446.711
                        35.800
                  81722741.037 6  19676629.992                    19676631.043
                        40.400
                  87677655.683 7  21051238.773                    21051240.215
                        42.600
 123737141.580 7  96418587.95645  23546399.547                    23546402.535
        46.400          31.500
                  83941585.644 7  20246436.328                    20246438.703
                        42.700
                  91872235.968 7  22073819.555                    22073820.367
                        44.300
                  84869423.938 7  20441447.398                    20441448.398
                        43.100
                  95534262.648 6  22961727.477                    22961732.234
                        36.800
                  97433441.387 5  23442861.672                    23442865.770
                        35.100
 115963589.749 7  90361247.43045  22067137.984                    22067140.516
        45.400          33.500
 118585494.624 7  92404292.80844  22566070.852                    22566072.270
        45.600          29.900
 122043959.959 7  95099207.43645  23224192.266                    23224200.008
        45.300          31.600
 116918645.413 8  91105455.96145  22248879.258                    22248884.566
        49.400          35.500
 114250189.542 8  89026143.68846  21741088.063                    21741093.926
        48.800          37.900
 118397982.325 7  92258177.71445  22530387.227                    22530391.086
        45.200          34.200
 124713813.228 6  97179612.48343  23732249.539                    23732253.918
        40.800          21.300
 18  3 11 12 27  8.0000000  0 16R05R13R04G17R14R21R22R23R15G28G11G01
                                G10G24G15G13
                  84805362.458 6  20397340.297                    20397341.199
                        36.500
                  81724281.184 6  19677000.742                    19677001.977
                        40.600
                  87680407.322 7  21051900.250                    21051900.883
                        42.500
 123734491.612 7  96416523.03045  23545894.766                    23545898.406
        46.200          32.100
                  83939810.662 7  20246008.102                    20246010.516
                        42.400
                  91875233.907 7  22074539.555                    22074541.160
                        44.100
                  84869147.992 7  20441380.398                    20441382.160
                        42.800
                  95531113.181 6  22960971.391                    22960975.453
                        36.300
                  97430202.556 5  23442082.953                    23442086.441
                        34.800
 115965796.920 7  90362967.30445  22067557.930                    22067560.594
        46.100          33.900
 118585190.442 7  92404055.77844  22566012.703                    22566014.887
        45.400          29.800
 122041901.295 7  95097603.26545  23223799.609                    23223807.875
        44.900          30.700
 116919054.193 8  91105774.48545  22248957.453                    22248962.625
        49.300          35.000
 114248274.233 8  89024651.23646  21740723.617                    21740729.000
        49.300          38.000
 118401117.292 7  92260620.55545  22530983.461                    22530987.004
        43.900          34.100
 124717921.390 6  97182813.65043  23733031.125                    23733035.098
        40.900          21.700
 18  3 11 12 27  9.0000000  0 16R05R13R04G17R14R21R22R23R15G28G11G01
                                G10G24G15G13
                  84804921.831 6  20397233.297                    20397235.410
                        36.200
                  81725821.906 6  19677371.516                    19677372.625
                        40.600
                  87683159.463 7  21052560.422                    21052561.633
                        42.700
 123731841.941 7  96414458.34345  23545390.703                    23545394.039
        46.300          31.400
                  83938036.166 7  20245579.852                    20245582.438
                        42.400
                  91878232.281 7  22075259.813                    22075261.180
                        43.900
                  84868872.783 7  20441314.227                    20441315.777
                        43.100
                  95527963.914 6  22960213.547                    22960218.133
                        36.800
                  97426963.842 5  23441303.680                    23441307.016
                        33.400
 115968004.529 7  90364687.52645  22067977.953                    22067980.297
        46.300          33.300
 118584886.974 7  92403819.31345  22565953.750                    22565956.922
        45.400          30.000
 122039843.190 7  95095999.56045  23223409.586                    23223415.914
        46.000          30.500
 116919463.662 8  91106093.55145  22249035.445                    22249040.418
        49.200          35.300
 114246359.422 8  89023159.17946  21740359.039                    21740364.703
        49.000          38.300
 118404252.662 7  92263063.67145  22531582.906                    22531583.219
        47.200          34.600
 124722029.739 6  97186014.95043  23733813.523                    23733817.023
        40.300          21.100
 18  3 11 12 27 10.0000000  0 16R05R13R04G17R14R21R22R23R15G28G11G01
                                G10G24G15G13
                  84804481.942 6  20397126.570                    20397128.859
                        36.000
                  81727363.263 6  19677742.750                    19677743.730
                        40.600
                  87685912.176 7  21053221.625                    21053222.734
                        42.400
 123729192.670 7  96412393.97945  23544886.266                    23544889.984
        46.400          31.700
                  83936262.206 7  20245152.039                    20245154.359
                        42.600
                  91881231.123 7  22075980.750                    22075982.398
                        43.900
                  84868598.334 7  20441248.891                    20441249.734
                        43.000
                  95524814.952 6  22959457.172                    22959461.172
                        36.400
                  97423725.230 5  23440524.438                    23440527.691
                        33.100
 115970212.675 7  90366408.16045  22068398.195                    22068400.602
        45.500          33.600
 118584584.277 7  92403583.44145  22565897.352                    22565899.727
        45.600          30.000
 122037785.693 7  95094396.32545  23223018.813                    23223024.672
        47.000          30.200
 116919873.864 8  91106413.18745  22249113.055                    22249118.430
        49.100          35.500
 114244445.177 8  89021667.56346  21739994.813                    21740000.590
        49.000          37.600
 118407388.460 8  92265507.14045  22532180.508                    22532180.043
        49.300          35.800
 124726138.353 6  97189216.47143  23734595.406                    23734598.781
        40.200          20.900
 18  3 11 12 27 11.0000000  0 16R05R13R04G17R14R21R22R23R15G28G11G01
                                G10G24G15G13
                  84804042.746 6  20397021.625                    20397023.359
                        36.000
                  81728905.215 6  19678113.648                    19678114.898
                        40.700
                  87688665.351 7  21053884.258                    21053883.504
                        42.400
 123726543.749 7  96410329.88445  23544382.500                    23544386.086
        46.100          32.200
                  83934488.768 7  20244723.922                    20244726.473
                        42.400
                  91884230.455 7  22076701.172                    22076702.707
                        44.100
                  84868324.623 7  20441182.938                    20441183.668
                        43.200
                  95521666.222 6  22958700.047                    22958704.879
                        36.300
                  97420486.765 5  23439745.477                    23439748.488
                        33.600
 115972421.271 7  90368129.13945  22068818.633                    22068820.848
        45.500          33.600
 118584282.316 7  92403348.14344  22565840.734                    22565841.840
        46.000          29.900
 122035728.743 7  95092793.49645  23222626.547                    23222633.328
        46.000          30.400
 116920284.771 8  91106733.38345  22249190.914                    22249196.656
        48.600          35.200
 114242531.440 8  89020176.34146  21739630.570                    21739636.602
        48.600          37.500
 118410524.726 8  92267951.00045  22532775.750                    22532777.219
        49.200          35.400
 124730247.256 6  97192418.21943  23735376.586                    23735380.508
        40.200          21.300
 18  3 11 12 27 12.0000000  0 16R05R13R04G17R14R21R22R23R15G28G11G01
                                G10G24G15G13
                  84803604.280 6  20396916.961                    20396918.242
                        36.100
                  81730447.831 6  19678484.875                    19678486.672
                        40.500
                  87691419.018 7  21054543.945                    21054544.699
                        42.600
 123723895.203 7  96408266.08245  23543878.102                    23543882.297
        45.500          32.000
                  83932715.865 7  20244296.219                    20244299.207
                        42.700
                  91887230.255 7  22077420.828                    22077423.840
                        43.700
                  84868051.687 7  20441117.539                    20441118.156
                        43.000
                  95518517.795 5  22957943.117                    22957947.754
                        35.600
                  97417248.434 5  23438965.539                    23438969.867
                        32.900
 115974630.400 7  90369850.54545  22069238.563                    22069240.988
        45.600          33.500
 118583981.133 7  92403113.44344  22565782.047                    22565785.027
        45.800          29.400
 122033672.383 7  95091191.13645  23222234.438                    23222242.035
        45.300          31.300
 116920696.425 8  91107054.15445  22249269.008                    22249274.672
        48.300          35.200
 114240618.291 8  89018685.57246  21739266.805                    21739272.469
        48.400          37.900
 118413661.519 7  92270395.29145  22533370.773                    22533374.668
        47.800          34.700
 124734356.398 6  97195620.15243  23736158.719                    23736162.332
        40.300          21.700
 18  3 11 12 27 13.0000000  0 16R05R13R04G17R14R21R22R23R15G28G11G01
                                G10G24G15G13
                  84803166.529 5  20396811.539                    20396812.445
                        35.800
                  81731991.070 6  19678857.031                    19678858.211
                        40.700
                  87694173.214 7  21055205.844                    21055205.586
                        42.400
 123721247.034 7  96406202.58745  23543373.930                    23543378.219
        45.500          32.300
                  83930943.492 7  20243869.406                    20243871.324
                        42.700
                  91890230.552 7  22078141.414                    22078144.395
                        43.200
                  84867779.495 7  20441051.336                    20441052.359
                        43.200
                  95515369.601 5  22957187.484                    22957190.934
                        35.400
                  97414010.239 5  23438186.805                    23438190.438
                        31.800
 115976840.007 7  90371572.31745  22069659.063                    22069661.574
        45.900          33.100
 118583680.694 7  92402879.34045  22565724.094                    22565727.496
        45.600          30.500
 122031616.599 7  95089589.22745  23221843.047                    23221850.703
        45.500          30.300
 116921108.773 8  91107375.46545  22249347.813                    22249353.102
        48.000          35.500
 114238705.642 7  89017195.19446  21738902.930                    21738908.453
        47.700          37.700
 118416798.862 7  92272840.00045  22533967.445                    22533970.980
        47.600          35.600
 124738465.813 6  97198822.30743  23736940.609                    23736944.410
        40.400          21.100
 18  3 11 12 27 14.0000000  0 16R05R13R04G17R14R21R22R23R15G28G11G01
                                G10G24G15G13
                  84802729.486 5  20396706.586                    20396707.484
                        35.700
                  81733534.900 6  19679228.570                    19679229.438
                        40.400
                  87696927.901 7  21055867.141                    21055867.039
                        42.400
 123718599.193 7  96404139.35345  23542870.672                    23542874.508
        46.000          31.000
                  83929171.604 7  20243441.961                    20243444.457
                        42.600
                  91893231.284 7  22078862.414                    22078865.094
                        42.400
                  84867508.026 7  20440985.305                    20440986.922
                        43.100
                  95512221.604 5  22956429.891                    22956434.754
                        35.600
                  97410772.162 5  23437407.688                    23437410.508
                        31.200
 115979050.078 7  90373294.45245  22070079.633                    22070081.938
        46.000          33.600
 118583381.021 7  92402645.83345  22565667.734                    22565670.469
        45.900          30.900
 122029561.351 7  95087987.73845  23221453.180                    23221459.598
        46.400          30.300
 116921521.821 7  91107697.31945  22249426.102                    22249431.473
        47.800          35.200
 114236793.536 7  89015705.24646  21738538.805                    21738544.547
        47.800          37.300
 118419936.573 8  92275284.95845  22534566.688                    22534568.238
        49.800          35.000
 124742575.477 6  97202024.62843  23737723.055                    23737726.426
        40.800          21.500
 18  3 11 12 27 15.0000000  0 16R05R13R04G17R14R21R22R23R15G28G11G01
                                G10G24G15G13
                  84802293.212 5  20396600.703                    20396602.258
                        35.800
                  81735079.393 6  19679600.148                    19679601.523
                        39.800
                  87699683.236 7  21056528.055                    21056528.668
                        42.500
 123715951.792 7  96402076.46045  23542366.922                    23542370.449
        46.500          31.300
                  83927400.288 7  20243014.836                    20243016.563
                        43.000
                  91896232.511 7  22079582.703                    22079585.863
                        42.600
                  84867237.354 7  20440920.969                    20440921.969
                        43.100
                  95509073.942 5  22955672.297                    22955677.750
                        35.900
                  97407534.202 5  23436628.781                    23436631.953
                        30.700
 115981260.699 7  90375017.01645  22070500.477                    22070503.184
        46.300          34.200
 118583082.121 7  92402412.93244  22565611.422                    22565613.527
        46.300          29.500
 122027506.763 7  95086386.75745  23221063.117                    23221068.555
        47.100          30.500
 116921935.638 7  91108019.77745  22249504.695                    22249510.746
        47.300          35.100
 114234882.026 7  89014215.76046  21738175.211                    21738180.523
        47.600          37.200
 118423074.793 8  92277730.32445  22535163.992                    22535165.496
        50.800          35.300
 124746685.499 6  97205227.23143  23738505.508                    23738508.758
        40.400          20.600
 18  3 11 12 27 16.0000000  0 16R05R13R04G17R14R21R22R23R15G28G11G01
                                G10G24G15G13
                  84801857.658 6  20396496.477                    20396497.422
                        36.000
                  81736624.497 6  19679972.742                    19679973.531
                        40.000
                  87702439.042 7  21057190.500                    21057190.773
                        42.700
 123713304.722 7  96400013.81745  23541863.539                    23541867.121
        46.700          31.600
                  83925629.472 7  20242587.586                    20242589.703
                        42.800
                  91899234.171 6  22080304.992                    22080307.406
                        41.900
                  84866967.428 7  20440856.133                    20440856.516
                        42.800
                  95505926.523 6  22954916.891                    22954920.594
                        36.200
                  97404296.374 5  23435850.141                    23435852.941
                        31.200
 115983471.788 7  90376739.94245  22070921.141                    22070923.523
        46.600          33.800
 118582783.933 7  92402180.57344  22565553.914                    22565557.219
        46.300          29.500
 122025452.737 7  95084786.20445  23220671.961                    23220677.727
        46.700          30.700
 116922350.152 7  91108342.77845  22249583.945                    22249589.262
        46.900          35.300
 114232971.046 7  89012726.68646  21737811.273                    21737816.992
        47.700          37.600
 118426213.455 8  92280176.05645  22535760.109                    22535763.348
        48.700          34.600
 124750795.639 6  97208429.91943  23739287.094                    23739290.746
        39.200          20.400
 18  3 11 12 27 17.0000000  0 16R05R13R04G17R14R21R22R23R15G28G11G01
                                G10G24G15G13
                  84801422.791 5  20396390.844                    20396392.992
                        35.900
                  81738170.196 6  19680344.813                    19680345.270
                        40.100
                  87705195.384 7  21057850.859                    21057852.773
                        42.600
 123710657.979 7  96397951.42545  23541359.609                    23541363.617
        46.700          31.600
                  83923859.155 7  20242160.438                    20242162.527
                        42.800
                  91902236.268 6  22081026.281                    22081027.961
                        41.600
                  84866698.225 7  20440790.594                    20440791.727
                        43.100
                  95502779.313 5  22954160.297                    22954164.141
                        35.600
                  97401058.646 5  23435070.727                    23435073.621
                        30.800
 115985683.325 7  90378463.21645  22071342.414                    22071344.508
        47.100          33.900
 118582486.484 7  92401948.80245  22565497.281                    22565500.215
        46.300          30.200
 122023399.220 7  95083186.02345  23220279.055                    23220286.789
        45.000          30.000
 116922765.343 7  91108666.31345  22249662.859                    22249668.469
        46.600          35.300
 114231060.623 7  89011238.04846  21737447.867                    21737453.797
        47.900          37.800
 118429352.656 7  92282622.22245  22536354.305                    22536361.109
        45.000          34.700
 124754906.025 6  97211632.82143  23740069.203                    23740072.516
        38.700          20.100
 18  3 11 12 27 18.0000000  0 16R05R13R04G17R14R21R22R23R15G28G11G01
                                G10G24G15G13
                  84800988.676 6  20396286.797                    20396288.125
                        36.000
                  81739716.580 6  19680716.789                    19680718.207
                        40.400
                  87707952.247 7  21058514.508                    21058514.934
                        42.300
 123708011.681 7  96395889.36344  23540856.633                    23540859.332
        47.000          29.800
                  83922089.419 7  20241733.859                    20241736.438
                        42.700
                  91905238.932 7  22081748.297                    22081748.637
                        42.300
                  84866429.833 7  20440727.164                    20440727.039
                        42.800
                  95499632.393 6  22953404.570                    22953408.070
                        36.000
                  97397821.104 5  23434293.281                    23434295.043
                        30.200
 115987895.421 7  90380186.92745  22071763.094                    22071765.379
        47.200          33.700
 118582189.855 7  92401717.67245  22565441.969                    22565443.684
        47.300          30.400
 122021346.252 7  95081586.31244  23219887.109                    23219896.141
        42.500          29.700
 116923181.298 7  91108990.43445  22249741.453                    22249747.871
        46.300          35.100
 114229150.783 8  89009749.85846  21737084.320                    21737090.164
        48.200          38.100
 118432492.430 7  92285068.78545  22536952.656                    22536957.758
        44.900          34.900
 124759016.767 6  97214835.98443  23740851.484                    23740854.770
        39.500          19.900
 18  3 11 12 27 19.0000000  0 16R05R13R04G17R14R21R22R23R15G28G11G01
                                G10G24G15G13
                  84800555.284 5  20396182.688                    20396184.781
                        35.800
                  81741263.533 6  19681089.563                    19681090.754
                        40.800
                  87710709.602 7  21059175.547                    21059176.609
                        42.200
 123705365.706 7  96393827.55645  23540352.820                    23540355.727
        47.200          30.500
                  83920320.161 7  20241306.906                    20241309.250
                        42.700
                  91908242.021 7  22082469.773                    22082471.063
                        42.400
                  84866162.172 7  20440660.961                    20440663.160
                        43.400
                  95496485.629 6  22952648.914                    22952652.172
                        36.000
                  97394583.626 4  23433512.563                    23433516.004
                        29.800
 115990107.963 7  90381910.98845  22072184.039                    22072186.457
        46.900          33.800
 118581893.935 7  92401487.08744  22565385.742                    22565387.176
        47.800          29.700
 122019293.892 7  95079987.10444  23219499.055                    23219505.359
        44.200          29.600
 116923597.951 7  91109315.10745  22249821.336                    22249826.973
        46.600          35.000
 114227241.449 8  89008262.05846  21736721.047                    21736726.828
        48.300          37.700
 118435632.562 8  92287515.58445  22537553.234                    22537555.531
        48.200          34.700
 124763127.727 6  97218039.33443  23741633.750                    23741637.074
        39.400          19.600
 18  3 11 12 27 20.0000000  0 16R05R13R04G17R14R21R22R23R15G28G11G01
                                G10G24G15G13
                  84800122.600 6  20396079.430                    20396080.523
                        36.500
                  81742811.124 6  19681461.828                    19681463.129
                        40.400
                  87713467.463 7  21059838.820                    21059839.117
                        42.800
 123702720.115 7  96391766.04645  23539848.977                    23539852.219
        47.000          31.300
                  83918551.424 7  20240880.555                    20240882.820
                        42.800
                  91911245.563 7  22083191.672                    22083192.695
                        43.000
                  84865895.277 7  20440597.719                    20440598.777
                        43.400
                  95493339.159 6  22951890.969                    22951896.305
                        36.200
                  97391346.289 4  23432735.133                    23432736.500
                        28.200
 115992321.011 7  90383635.44845  22072605.148                    22072607.418
        46.300          33.500
 118581598.758 7  92401257.08245  22565329.352                    22565331.145
        47.300          31.000
 122017242.158 7  95078388.38045  23219109.742                    23219114.984
        45.500          30.400
 116924015.317 7  91109640.33045  22249900.430                    22249906.262
        46.900          35.000
 114225332.681 8  89006774.70946  21736357.906                    21736363.441
        48.600          37.800
 118438773.156 8  92289962.77545  22538150.469                    22538153.410
        48.000          34.800
 124767238.903 6  97221242.86243  23742416.773                    23742419.719
        39.700          19.900
 18  3 11 12 27 21.0000000  0 16R05R13R04G17R14R21R22R23R15G28G11G01
                                G10G24G15G13
                  84799690.631 6  20395974.555                    20395976.945
                        36.400
                  81744359.320 6  19681834.648                    19681835.777
                        40.700
                  87716225.824 7  21060500.289                    21060500.984
                        42.600
 123700074.886 7  96389704.81945  23539345.766                    23539348.652
        47.100          30.400
                  83916783.223 7  20240453.688                    20240456.129
                        43.100
                  91914249.576 7  22083913.305                    22083914.160
                        43.100
                  84865629.121 7  20440533.773                    20440534.016
                        43.100
                  95490192.962 6  22951134.180                    22951139.973
                        36.300
                  97388109.080 4  23431955.867                    23431957.930
                        28.200
 115994534.522 7  90385360.26445  22073026.805                    22073028.738
        46.600          33.800
 118581304.337 7  92401027.66744  22565273.492                    22565275.145
        47.800          29.900
 122015190.944 7  95076790.02144  23218718.703                    23218724.289
        44.600          29.100
 116924433.412 7  91109966.12045  22249980.328                    22249986.078
        47.300          35.100
 114223424.471 8  89005287.79346  21735994.930                    21736000.344
        48.800          37.700
 118441914.230 7  92292410.38045  22538746.609                    22538751.871
        46.000          34.800
 124771350.393 6  97224446.61843  23743198.859                    23743202.109
        39.500          19.900
 18  3 11 12 27 22.0000000  0 16R05R13R04G17R14R21R22R23R15G28G11G01
                                G10G24G15G13
                  84799259.361 6  20395870.883                    20395873.082
                        36.200
                  81745908.142 6  19682207.648                    19682208.766
                        40.800
                  87718984.759 7  21061162.609                    21061162.762
                        42.400
 123697430.014 7  96387643.87545  23538841.766                    23538845.203
        46.300          30.400
                  83915015.528 7  20240027.320                    20240030.020
                        42.700
                  91917254.036 7  22084635.359                    22084636.809
                        43.300
                  84865363.694 7  20440470.070                    20440470.918
                        42.900
                  95487047.012 5  22950379.297                    22950383.516
                        35.400
                  97384872.021 4  23431177.445                    23431178.813
                        27.800
 115996748.526 7  90387085.46545  22073447.820                    22073449.934
        47.000          33.500
 118581010.663 8  92400798.83145  22565217.977                    22565219.133
        48.200          30.700
 122013140.250 7  95075192.05044  23218326.961                    23218333.516
        42.400          28.800
 116924852.209 7  91110292.45545  22250060.156                    22250065.492
        47.300          35.200
 114221516.799 8  89003801.28946  21735631.836                    21735637.555
        48.700          37.400
 118445055.891 7  92294858.42045  22539344.148                    22539348.918
        44.200          33.500
 124775462.098 6  97227650.54543  23743981.430                    23743985.047
        39.500          19.900
 18  3 11 12 27 23.0000000  0 16R05R13R04G17R14R21R22R23R15G28G11G01
                                G10G24G15G13
                  84798828.875 5  20395766.586                    20395769.281
                        35.600
                  81747457.610 6  19682580.352                    19682581.813
                        40.400
                  87721744.245 7  21061825.102                    21061825.613
                        42.300
 123694785.559 7  96385583.26345  23538338.797                    23538342.504
        45.800          30.100
                  83913248.408 7  20239601.000                    20239603.379
                        42.600
                  91920259.014 7  22085357.578                    22085358.633
                        43.800
                  84865099.072 7  20440405.836                    20440406.211
                        42.600
                  95483901.364 5  22949622.945                    22949627.246
                        35.700
                  97381635.095 4  23430397.063                    23430399.250
                        26.700
 115998963.081 7  90388811.09245  22073868.844                    22073871.324
        47.100          33.600
 118580717.805 7  92400570.62144  22565161.844                    22565163.750
        47.900          29.800
 122011090.210 7  95073594.61844  23217937.156                    23217943.672
        42.900          28.900
 116925271.769 7  91110619.38245  22250139.922                    22250145.355
        47.200          35.700
 114219609.723 8  89002315.26046  21735268.711                    21735274.480
        48.700          37.200
 118448198.007 8  92297306.78445  22539946.063                    22539946.727
        48.700          34.100
 124779574.127 6  97230854.72543  23744764.328                    23744767.266
        39.400          19.600
 18  3 11 12 27 24.0000000  0 16R05R13R04G17R14R21R22R23R15G28G11G01
                                G10G24G15G13
                  84798399.119 5  20395663.633                    20395665.777
                        35.600
                  81749007.690 6  19682953.797                    19682955.547
                        40.500
                  87724504.251 7  21062487.922                    21062488.191
                        42.600
 123692141.454 7  96383522.92745  23537835.750                    23537838.969
        45.600          30.500
                  83911481.794 7  20239174.570                    20239177.523
                        42.400
                  91923264.435 7  22086078.797                    22086080.781
                        43.700
                  84864835.188 7  20440341.891                    20440343.258
                        42.800
                  95480755.972 5  22948867.547                    22948871.359
                        35.900
                  97378398.284 4  23429620.672                    23429621.270
                        28.300
 116001178.097 7  90390537.07345  22074290.672                    22074292.754
        46.700          33.300
 118580425.688 7  92400342.99444  22565105.234                    22565108.098
        47.000          29.800
 122009040.778 7  95071997.67945  23217548.969                    23217554.137
        44.700          30.600
 116925692.058 7  91110946.87845  22250219.570                    22250225.848
        46.700          35.800
 114217703.167 8  89000829.63346  21734906.039                    21734911.570
        48.800          37.500
 118451340.521 8  92299755.47345  22540544.656                    22540545.059
        51.000          35.000
 124783686.376 6  97234059.06543  23745546.516                    23745549.766
        38.800          19.000
 18  3 11 12 27 25.0000000  0 16R05R13R04G17R14R21R22R23R15G28G11G01
                                G10G24G15G13
                  84797970.056 6  20395561.586                    20395562.785
                        36.200
                  81750558.354 6  19683327.516                    19683328.598
                        40.500
                  87727264.743 7  21063150.797                    21063150.992
                        42.600
 123689497.707 7  96381462.87745  23537332.820                    23537336.078
        45.100          30.400
                  83909715.665 7  20238749.039                    20238750.887
                        42.400
                  91926270.311 7  22086801.039                    22086803.625
                        44.000
                  84864572.050 7  20440279.141                    20440279.570
                        43.000
                  95477610.807 5  22948112.117                    22948115.969
                        35.800
                  97375161.576 4  23428842.430                    23428842.113
                        27.900
 116003393.581 7  90392263.42245  22074712.398                    22074714.445
        46.900          34.300
 118580134.270 7  92400115.91745  22565049.203                    22565052.348
        47.200          30.700
 122006991.883 7  95070401.14644  23217158.414                    23217163.961
        44.300          29.000
 116926113.030 7  91111274.91245  22250299.727                    22250305.570
        46.800          35.000
 114215797.140 8  88999344.41646  21734543.117                    21734548.789
        48.500          37.300
 118454483.478 8  92302204.55045  22541140.945                    22541143.125
        51.100          35.000
 124787798.842 6  97237263.59243  23746328.945                    23746332.176
        38.700          20.100
 18  3 11 12 27 26.0000000  0 16R05R13R04G17R14R21R22R23R15G28G11G01
                                G10G24G15G13
                  84797541.730 5  20395458.570                    20395460.004
                        35.600
                  81752109.700 6  19683701.516                    19683702.168
                        40.700
                  87730025.756 7  21063813.563                    21063813.844
                        42.000
 123686854.336 7  96379403.11845  23536829.945                    23536833.191
        45.300          31.100
                  83907950.102 7  20238323.164                    20238325.828
                        42.400
                  91929276.685 7  22087522.438                    22087525.219
                        44.200
                  84864309.693 7  20440215.977                    20440217.016
                        42.700
                  95474465.908 6  22947356.711                    22947360.215
                        36.200
                  97371925.082 4  23428063.781                    23428064.008
                        28.000
 116005609.604 7  90393990.19545  22075133.961                    22075136.137
        47.200          34.200
 118579843.695 7  92399889.50344  22564994.367                    22564997.078
        46.800          29.900
 122004943.575 7  95068805.05844  23216767.492                    23216774.695
        43.300          29.900
 116926534.734 7  91111603.51545  22250380.367                    22250385.945
        47.000          35.400
 114213891.725 8  88997859.67546  21734181.094                    21734186.566
        48.200          37.200
 118457626.976 8  92304654.07345  22541737.516                    22541741.523
        49.600          34.800
 124791911.665 6  97240468.39143  23747111.352                    23747114.789
        39.100          19.000
 18  3 11 12 27 27.0000000  0 16R05R13R04G17R14R21R22R23R15G28G11G01
                                G10G24G15G13
                  84797114.157 5  20395355.398                    20395357.621
                        35.400
                  81753661.673 6  19684075.234                    19684075.391
                        40.900
                  87732787.307 7  21064476.094                    21064477.242
                        42.300
 123684211.408 7  96377343.70145  23536326.656                    23536330.047
        45.700          30.800
                  83906185.119 7  20237897.320                    20237899.500
                        42.500
                  91932283.527 7  22088245.336                    22088247.844
                        43.900
                  84864048.119 7  20440151.750                    20440153.719
                        42.800
                  95471321.313 5  22946599.375                    22946603.930
                        35.300
                  97368688.731 4  23427284.789                    23427285.023
                        28.700
 116007826.143 7  90395717.37245  22075555.516                    22075558.035
        46.400          33.700
 118579553.879 7  92399663.67444  22564939.289                    22564942.281
        47.000          29.400
 122002895.827 7  95067209.42744  23216378.180                    23216384.504
        43.400          29.900
 116926957.203 7  91111932.71745  22250460.570                    22250466.398
        47.100          35.000
 114211986.892 8  88996375.39246  21733818.727                    21733823.730
        48.000          37.400
 118460771.052 8  92307104.03645  22542334.766                    22542339.039
        48.200          34.700
 124796024.778 6  97243673.41643  23747893.789                    23747897.547
        39.300          18.300
 18  3 11 12 27 28.0000000  0 16R05R13R04G17R14R21R22R23R15G28G11G01
                                G10G24G15G13
                  84796687.284 5  20395253.039                    20395254.418
                        35.100
                  81755214.264 6  19684448.367                    19684449.969
                        40.900
                  87735549.348 7  21065140.078                    21065140.301
                        42.400
 123681568.809 7  96375284.53145  23535823.953                    23535827.410
        46.300          31.200
                  83904420.621 7  20237471.984                    20237474.227
                        42.600
                  91935290.790 7  22088967.570                    22088970.672
                        43.500
                  84863787.274 7  20440089.938                    20440091.254
                        42.800
                  95468176.950 5  22945843.281                    22945847.633
                        34.500
                  97365452.486 4  23426507.117                    23426506.309
                        29.000
 116010043.146 7  90397444.90445  22075977.688                    22075979.734
        46.200          33.600
 118579264.797 7  92399438.41445  22564883.961                    22564886.949
        46.900          30.000
 122000848.708 7  95065614.29344  23215990.617                    23215995.086
        45.900          29.700
 116927380.358 7  91112262.45245  22250541.156                    22250546.727
        46.500          34.800
 114210082.608 7  88994891.52946  21733456.102                    21733461.441
        47.900          37.400
 118463915.533 8  92309554.29045  22542934.000                    22542937.168
        49.000          34.800
 124800138.052 6  97246878.57342  23748677.922                    23748680.637
        38.800          17.800
 18  3 11 12 27 29.0000000  0 16R05R13R04G17R14R21R22R23R15G28G11G01
                                G10G24G15G13
                  84796261.164 5  20395150.469                    20395151.434
                        35.200
                  81756767.488 6  19684822.898                    19684823.863
                        41.000
                  87738311.947 7  21065803.055                    21065803.832
                        42.700
 123678926.593 7  96373225.65845  23535321.422                    23535324.945
        46.800          30.900
                  83902656.646 7  20237046.961                    20237048.777
                        42.700
                  91938298.558 7  22089690.938                    22089693.406
                        43.500
                  84863527.205 7  20440026.773                    20440028.098
                        42.600
                  95465032.852 5  22945088.391                    22945091.637
                        34.900
                  97362216.351 4  23425728.984                    23425727.473
                        29.500
 116012260.665 7  90399172.84545  22076399.430                    22076402.051
        45.500          34.100
 118578976.480 7  92399213.75945  22564829.273                    22564831.949
        47.100          31.400
 121998802.197 7  95064019.61545  23215601.750                    23215605.664
        47.800          30.200
 116927804.269 7  91112592.77745  22250622.039                    22250627.367
        46.800          35.700
 114208178.869 7  88993408.09446  21733093.492                    21733099.789
        47.700          37.700
 118467060.493 8  92312004.90145  22543533.531                    22543535.219
        49.600          34.700
 124804251.657 6  97250083.96043  23749460.016                    23749463.227
        38.100          18.300
 18  3 11 12 27 30.0000000  0 16R05R13R04G17R14R21R22R23R15G28G11G01
                                G10G24G15G13
                  84795835.751 5  20395048.461                    20395050.016
                        35.500
                  81758321.317 6  19685196.508                    19685197.480
                        40.900
                  87741075.120 7  21066466.805                    21066467.406
                        42.400
 123676284.750 7  96371167.08445  23534818.727                    23534821.953
        47.100          31.300
                  83900893.190 7  20236621.539                    20236623.355
                        42.700
                  91941306.790 7  22090413.906                    22090416.031
                        43.300
                  84863267.866 7  20439964.180                    20439965.535
                        42.700
                  95461888.985 5  22944333.406                    22944337.102
                        35.300
                  97358980.368 4  23424949.922                    23424949.117
                        28.800
 116014478.640 7  90400901.14045  22076821.547                    22076823.461
        45.700          34.500
 118578688.934 7  92398989.70645  22564775.141                    22564777.461
        47.800          31.100
 121996756.244 8  95062425.35045  23215211.781                    23215216.641
        48.300          30.800
 116928228.869 7  91112923.63645  22250702.555                    22250708.496
        46.800          35.900
 114206275.683 7  88991925.09146  21732731.422                    21732737.117
        47.400          37.300
 118470205.906 8  92314455.88345  22544131.172                    22544134.223
        48.500          34.100
 124808365.531 6  97253289.56743  23750242.242                    23750246.152
        38.300          19.000
 18  3 11 12 27 31.0000000  0 16R05R13R04G17R14R21R22R23R15G28G11G01
                                G10G24G15G13
                  84795411.076 6  20394945.594                    20394946.848
                        36.400
                  81759875.785 6  19685570.852                    19685571.992
                        40.800
                  87743838.794 7  21067129.797                    21067130.715
                        42.400
 123673643.313 7  96369108.81545  23534316.359                    23534319.738
        47.200          31.000
                  83899130.287 7  20236196.172                    20236198.426
                        42.700
                  91944315.517 7  22091136.688                    22091138.438
                        43.100
                  84863009.310 7  20439901.727                    20439903.355
                        42.800
                  95458745.361 5  22943577.586                    22943581.492
                        35.200
                  97355744.538 5  23424170.344                    23424171.035
                        30.700
 116016697.160 7  90402629.85245  22077243.828                    22077246.137
        46.000          34.400
 118578402.149 8  92398766.23645  22564720.570                    22564722.910
        48.000          30.200
 121994710.896 7  95060831.54445  23214821.422                    23214827.305
        47.100          31.000
 116928654.249 7  91113255.10145  22250783.609                    22250789.469
        46.600          35.900
 114204373.061 7  88990442.53246  21732369.273                    21732375.086
        47.800          37.200
 118473351.872 7  92316907.30745  22544727.719                    22544733.184
        44.900          34.000
 124812479.628 6  97256495.35043  23751025.781                    23751028.852
        38.700          18.300
 18  3 11 12 27 32.0000000  0 16R05R13R04G17R14R21R22R23R15G28G11G01
                                G10G24G15G13
                  84794987.132 6  20394844.414                    20394845.203
                        36.400
                  81761430.851 6  19685945.641                    19685946.809
                        41.100
                  87746602.995 7  21067794.266                    21067794.719
                        42.500
 123671002.207 7  96367050.80045  23533813.422                    23533816.609
        47.200          31.900
                  83897367.897 7  20235770.391                    20235772.785
                        42.700
                  91947324.712 7  22091859.977                    22091861.805
                        43.200
                  84862751.476 7  20439840.016                    20439841.367
                        42.800
                  95455602.053 5  22942820.719                    22942825.699
                        35.600
                  97352508.802 5  23423391.273                    23423391.965
                        31.400
 116018916.152 7  90404358.93845  22077666.219                    22077668.441
        46.500          33.900
 118578116.105 7  92398543.33944  22564666.016                    22564668.523
        47.800          29.800
 121992666.068 7  95059238.14745  23214430.961                    23214438.301
        45.800          31.600
 116929080.307 7  91113587.09645  22250864.648                    22250870.410
        47.000          35.900
 114202470.983 8  88988960.39546  21732007.352                    21732013.219
        48.000          38.200
 118476498.363 7  92319359.11545  22545326.656                    22545331.578
        42.800          34.100
 124816593.993 6  97259701.36642  23751808.633                    23751812.270
        39.000          17.800
 18  3 11 12 27 33.0000000  0 16R05R13R04G17R14R21R22R23R15G28G11G01
                                G10G24G15G13
                  84794563.880 6  20394741.531                    20394743.340
                        36.200
                  81762986.496 6  19686319.508                    19686320.777
                        40.600
                  87749367.593 7  21068458.734                    21068457.898
                        42.400
 123668361.429 7  96364993.04545  23533310.625                    23533314.152
        47.000          30.500
                  83895606.008 7  20235345.922                    20235348.137
                        42.700
                  91950334.314 7  22092583.695                    22092584.832
                        42.900
                  84862494.408 7  20439777.867                    20439779.352
                        42.700
                  95452458.985 5  22942065.023                    22942070.234
                        35.900
                  97349273.175 5  23422611.133                    23422614.387
                        32.000
 116021135.559 7  90406088.34645  22078088.391                    22078091.020
        46.500          34.200
 118577830.791 7  92398321.02045  22564612.172                    22564614.203
        47.800          30.600
 121990621.776 7  95057645.19245  23214042.844                    23214049.660
        46.600          31.300
 116929507.025 7  91113919.60445  22250946.188                    22250951.875
        47.500          35.800
 114200569.412 8  88987478.65046  21731645.398                    21731651.441
        48.200          38.100
 118479645.229 7  92321811.18445  22545927.734                    22545929.758
        45.200          34.300
 124820708.601 6  97262907.55543  23752591.273                    23752594.941
        39.200          18.300
 18  3 11 12 27 34.0000000  0 16R05R13R04G17R14R21R22R23R15G28G11G01
                                G10G24G15G13
                  84794141.396 6  20394640.070                    20394642.055
                        36.000
                  81764542.821 6  19686694.391                    19686695.563
                        40.700
                  87752132.778 7  21069121.906                    21069122.090
                        42.300
 123665721.098 7  96362935.63345  23532807.859                    23532811.535
        46.700          30.200
                  83893844.706 7  20234921.883                    20234923.152
                        42.400
                  91953344.449 7  22093306.727                    22093307.855
                        42.900
                  84862238.116 7  20439716.570                    20439717.852
                        42.600
                  95449316.226 6  22941310.477                    22941314.809
                        36.000
                  97346037.713 5  23421833.078                    23421835.684
                        32.500
 116023355.566 7  90407818.22445  22078510.234                    22078513.332
        46.300          34.000
 118577546.289 8  92398099.33645  22564557.961                    22564560.109
        48.200          30.500
 121988578.134 7  95056052.75045  23213654.352                    23213660.805
        47.000          31.300
 116929934.534 7  91114252.72445  22251027.648                    22251032.555
        47.700          35.400
 114198668.445 8  88985997.38146  21731283.938                    21731289.586
        48.000          37.900
 118482792.593 7  92324263.64845  22546526.750                    22546529.160
        45.800          34.700
 124824823.469 6  97266113.96243  23753374.664                    23753377.949
        39.000          18.600
 18  3 11 12 27 35.0000000  0 16R05R13R04G17R14R21R22R23R15G28G11G01
                                G10G24G15G13
                  84793719.656 6  20394538.492                    20394540.469
                        36.000
                  81766099.808 6  19687069.914                    19687070.637
                        40.700
                  87754898.538 7  21069786.281                    21069786.340
                        42.500
 123663081.128 7  96360878.51545  23532305.570                    23532309.172
        46.000          30.300
                  83892083.940 7  20234496.906                    20234498.531
                        42.500
                  91956355.076 7  22094030.266                    22094030.992
                        43.400
                  84861982.629 7  20439654.992                    20439655.672
                        42.500
                  95446173.718 6  22940555.484                    22940559.668
                        36.500
                  97342802.436 5  23421053.867                    23421057.250
                        32.000
 116025576.050 7  90409548.46745  22078933.438                    22078935.711
        46.400          34.000
 118577262.563 8  92397878.24745  22564503.086                    22564506.367
        48.000          30.400
 121986535.094 7  95054460.76545  23213265.055                    23213272.219
        46.700          30.600
 116930362.794 7  91114586.43545  22251109.008                    22251114.457
        47.300          35.700
 114196768.074 8  88984516.57546  21730922.039                    21730927.773
        48.200          38.100
 118485940.517 7  92326716.56945  22547125.383                    22547128.527
        44.600          34.400
 124828938.646 6  97269320.59443  23754157.344                    23754161.086
        38.800          19.600
 18  3 11 12 27 36.0000000  0 16R05R13R04G17R14R21R22R23R15G28G11G01
                                G10G24G15G13
                  84793298.646 5  20394437.273                    20394439.453
                        35.900
                  81767657.415 6  19687444.781                    19687445.816
                        40.700
                  87757664.862 7  21070449.992                    21070450.375
                        42.700
 123660441.546 7  96358821.70345  23531802.898                    23531807.172
        45.100          30.400
                  83890323.712 7  20234072.531                    20234074.402
                        42.700
                  91959366.183 7  22094753.359                    22094754.266
                        43.100
                  84861727.909 7  20439594.266                    20439594.316
                        42.800
                  95443031.492 6  22939799.883                    22939805.332
                        36.700
                  97339567.315 5  23420275.391                    23420278.770
                        33.400
 116027797.057 7  90411279.12445  22079356.188                    22079358.961
        46.700          33.700
 118576979.615 8  92397657.77545  22564448.945                    22564452.691
        48.000          30.400
 121984492.632 7  95052869.24145  23212876.156                    23212883.559
        46.100          30.500
 116930791.787 7  91114920.71745  22251190.508                    22251196.094
        47.300          35.100
 114194868.270 8  88983036.20946  21730560.586                    21730566.336
        48.500          37.900
 118489088.951 7  92329169.87345  22547725.742                    22547727.484
        46.200          34.700
 124833054.121 6  97272527.46843  23754941.055                    23754944.293
        38.600          19.600
 18  3 11 12 27 37.0000000  0 16R05R13R04G17R14R21R22R23R15G28G11G01
                                G10G24G15G13
                  84792878.390 6  20394336.375                    20394338.227
                        36.000
                  81769215.668 6  19687819.789                    19687820.844
                        39.900
                  87760431.717 7  21071113.500                    21071114.789
                        42.600
 123657802.344 7  96356765.19945  23531301.023                    23531304.180
        45.300          30.900
                  83888563.982 7  20233647.289                    20233649.781
                        42.900
                  91962377.752 7  22095476.938                    22095478.625
                        42.900
                  84861473.935 7  20439533.172                    20439533.699
                        42.800
                  95439889.500 6  22939045.633                    22939049.980
                        36.100
                  97336332.341 5  23419496.734                    23419500.902
                        33.700
 116030018.541 7  90413010.15145  22079778.805                    22079780.953
        46.800          33.600
 118576697.423 7  92397437.87844  22564395.516                    22564399.172
        47.200          29.900
 121982450.781 7  95051278.19644  23212488.797                    23212494.977
        46.400          29.900
 116931221.488 7  91115255.54445  22251271.883                    22251277.730
        47.000          35.500
 114192969.002 8  88981556.25446  21730199.336                    21730205.059
        48.500          37.900
 118492237.813 8  92331623.50245  22548327.039                    22548326.766
        49.000          34.500
 124837169.880 6  97275734.53943  23755723.898                    23755727.410
        37.700          19.300
 18  3 11 12 27 38.0000000  0 16R05R13R04G17R14R21R22R23R15G28G11G01
                                G10G24G15G13
                  84792458.849 6  20394236.016                    20394237.254
                        36.300
                  81770774.548 6  19688195.430                    19688196.039
                        40.200
                  87763199.070 7  21071777.508                    21071778.730
                        42.300
 123655163.522 7  96354708.99045  23530799.047                    23530802.484
        45.600          30.700
                  83886804.797 7  20233223.594                    20233225.090
                        42.500
                  91965389.794 7  22096200.156                    22096201.828
                        42.800
                  84861220.742 7  20439471.461                    20439473.000
                        42.600
                  95436747.771 5  22938289.547                    22938294.418
                        35.600
                  97333097.467 5  23418718.781                    23418722.488
                        34.400
 116032240.560 7  90414741.59645  22080201.852                    22080203.941
        46.700          32.800
 118576415.996 7  92397218.57644  22564341.938                    22564345.180
        47.000          29.800
 121980409.552 7  95049687.61844  23212100.555                    23212106.336
        46.400          29.600
 116931651.938 7  91115590.96245  22251353.813                    22251359.879
        46.700          35.700
 114191070.307 8  88980076.75146  21729837.953                    21729843.742
        48.700          37.600
 118495387.135 8  92334077.51845  22548926.039                    22548926.738
        50.000          35.600
 124841285.806 6  97278941.75543  23756506.844                    23756510.824
        37.900          19.300
 18  3 11 12 27 39.0000000  0 16R05R13R04G17R14R21R22R23R15G28G11G01
                                G10G24G15G13
                  84792040.015 6  20394135.172                    20394136.594
                        36.400
                  81772334.045 6  19688570.945                    19688571.820
                        40.100
                  87765966.931 7  21072442.039                    21072443.391
                        42.300
 123652525.084 7  96352653.07245  23530297.461                    23530300.043
        45.900          30.200
                  83885046.118 7  20232798.703                    20232801.063
                        42.700
                  91968402.284 7  22096924.031                    22096925.738
                        43.700
                  84860968.265 7  20439411.273                    20439411.758
                        42.800
                  95433606.301 5  22937534.563                    22937539.703
                        35.400
                  97329862.729 5  23417940.992                    23417944.625
                        35.100
 116034463.020 7  90416473.38345  22080624.609                    22080626.727
        46.900          33.800
 118576135.341 7  92396999.88645  22564288.406                    22564291.496
        46.800          30.900
 121978368.845 7  95048097.43044  23211711.492                    23211718.512
        44.100          29.900
 116932083.067 7  91115926.91145  22251436.102                    22251441.801
        46.000          35.700
 114189172.133 7  88978597.65046  21729476.711                    21729482.676
        47.800          37.900
 118498536.926 8  92336531.92745  22549523.633                    22549526.277
        49.400          35.200
 124845402.056 6  97282149.18443  23757289.930                    23757294.164
        37.700          18.300
 18  3 11 12 27 40.0000000  0 16R05R13R04G17R14R21R22R23R15G28G11G01
                                G10G24G15G13
                  84791621.933 6  20394035.094                    20394035.863
                        36.500
                  81773894.183 6  19688946.227                    19688946.906
                        40.500
                  87768735.320 7  21073107.664                    21073107.613
                        42.500
 123649887.040 7  96350597.46045  23529795.547                    23529798.137
        46.700          30.800
                  83883287.998 7  20232374.930                    20232377.313
                        43.200
                  91971415.282 7  22097648.148                    22097650.594
                        44.000
                  84860716.585 7  20439350.281                    20439351.523
                        42.700
                  95430465.136 5  22936779.938                    22936783.637
                        34.500
                  97326628.183 5  23417163.234                    23417166.656
                        35.200
 116036686.023 7  90418205.59445  22081047.453                    22081049.930
        47.000          33.800
 118575855.448 7  92396781.78345  22564235.055                    22564238.316
        46.500          30.900
 121976328.666 6  95046507.66544  23211320.586                    23211329.641
        41.100          29.700
 116932514.972 7  91116263.46545  22251518.156                    22251523.793
        46.000          35.900
 114187274.563 8  88977119.02746  21729115.578                    21729121.367
        48.100          37.800
 118501687.261 8  92338986.76545  22550121.648                    22550125.844
        48.200          35.200
 124849518.582 6  97285356.82843  23758073.539                    23758077.527
        37.300          18.600
 18  3 11 12 27 41.0000000  0 16R05R13R04G17R14R21R22R23R15G28G11G01
                                G10G24G15G13
                  84791204.538 5  20393933.789                    20393934.664
                        35.700
                  81775454.897 6  19689322.438                    19689323.152
                        40.700
                  87771504.209 7  21073772.555                    21073772.727
                        42.600
 123647249.332 7  96348542.09345  23529293.430                    23529296.523
        47.100          31.200
                  83881530.384 7  20231950.805                    20231953.309
                        43.000
                  91974428.690 7  22098371.117                    22098373.848
                        44.400
                  84860465.620 7  20439290.281                    20439290.797
                        42.900
                  95427324.185 5  22936026.180                    22936029.047
                        35.600
                  97323393.704 5  23416384.531                    23416388.383
                        35.100
 116038909.495 7  90419938.17145  22081470.203                    22081473.098
        46.900          34.000
 118575576.299 7  92396564.26845  22564182.219                    22564184.977
        47.200          30.200
 121974289.061 6  95044918.39645  23210933.711                    23210941.059
        41.600          30.900
 116932947.560 7  91116600.55245  22251600.516                    22251606.203
        45.800          35.400
 114185377.516 8  88975640.80946  21728755.234                    21728760.281
        48.200          38.100
 118504838.038 8  92341441.91945  22550722.125                    22550725.184
        49.100          34.800
 124853635.320 6  97288564.71942  23758857.391                    23758860.703
        37.100          17.400
 18  3 11 12 27 42.0000000  0 16R05R13R04G17R14R21R22R23R15G28G11G01
                                G10G24G15G13
                  84790787.835 5  20393833.414                    20393834.848
                        35.600
                  81777016.212 6  19689697.914                    19689699.289
                        40.400
                  87774273.604 7  21074438.656                    21074437.148
                        42.500
 123644611.981 7  96346487.01345  23528791.320                    23528794.219
        47.000          30.800
                  83879773.271 7  20231527.359                    20231529.449
                        42.800
                  91977442.532 7  22099095.594                    22099098.277
                        44.600
                  84860215.386 7  20439229.563                    20439230.617
                        43.100
                  95424183.441 5  22935270.203                    22935274.688
                        34.500
                  97320159.313 6  23415606.273                    23415609.891
                        36.500
 116041133.425 7  90421671.10045  22081893.875                    22081895.992
        47.300          33.700
 118575297.858 7  92396347.30345  22564129.539                    22564131.902
        47.600          30.700
 121972250.048 7  95043329.59945  23210546.914                    23210553.398
        42.800          30.700
 116933380.814 7  91116938.15846  22251683.055                    22251688.688
        45.500          36.100
 114183480.995 8  88974163.00346  21728393.875                    21728399.457
        48.200          37.700
 118507989.234 8  92343897.39145  22551323.117                    22551325.066
        51.200          34.900
 124857752.282 6  97291772.75542  23759640.969                    23759644.234
        37.300          17.800
 18  3 11 12 27 43.0000000  0 16R05R13R04G17R14R21R22R23R15G28G11G01
                                G10G24G15G13
                  84790371.914 5  20393732.727                    20393735.449
                        35.700
                  81778578.205 6  19690074.484                    19690074.949
                        40.200
                  87777043.528 7  21075103.305                    21075102.473
                        43.000
 123641975.052 7  96344432.25345  23528289.813                    23528292.703
        47.500          31.200
                  83878016.736 7  20231103.219                    20231105.602
                        42.600
                  91980456.897 7  22099819.516                    22099822.711
                        44.100
                  84859965.978 7  20439169.133                    20439170.613
                        43.200
                  95421043.061 5  22934514.492                    22934519.094
                        35.100
                  97316925.125 6  23414827.523                    23414831.938
                        37.000
 116043357.879 7  90423404.43745  22082317.172                    22082319.715
        46.800          33.600
 118575020.251 7  92396130.99944  22564077.266                    22564079.387
        47.900          29.500
 121970211.662 7  95041741.27045  23210159.469                    23210165.172
        43.000          30.900
 116933814.863 7  91117276.38046  22251765.609                    22251771.227
        45.200          36.000
 114181585.102 7  88972685.68646  21728032.617                    21728038.625
        47.300          37.600
 118511140.952 8  92346353.28445  22551923.031                    22551925.027
        51.300          34.600
 124861869.549 6  97294980.98442  23760424.594                    23760427.574
        36.800          16.900
 18  3 11 12 27 44.0000000  0 16R05R13R04G17R14R21R22R23R15G28G11G01
                                G10G24G15G13
                  84789956.725 5  20393633.672                    20393635.258
                        35.600
                  81780140.805 6  19690450.336                    19690450.977
                        40.000
                  87779813.980 7  21075767.781                    21075768.117
                        42.600
 123639338.472 7  96342377.76545  23527787.695                    23527791.125
        47.000          31.400
                  83876260.688 7  20230679.898                    20230682.023
                        42.600
                  91983471.704 7  22100543.906                    22100547.508
                        44.300
                  84859717.293 7  20439109.297                    20439110.313
                        43.100
                  95417902.882 5  22933759.609                    22933764.719
                        34.900
                  97313691.055 6  23414048.594                    23414053.590
                        37.400
 116045582.834 7  90425138.17545  22082739.906                    22082742.750
        45.700          32.900
 118574743.352 8  92395915.24844  22564024.102                    22564026.723
        48.300          29.300
 121968173.860 7  95040153.37445  23209771.734                    23209777.598
        43.500          31.300
 116934249.599 7  91117615.13745  22251848.430                    22251853.922
        45.000          35.900
 114179689.737 7  88971208.77546  21727672.391                    21727677.992
        46.800          37.300
 118514293.093 8  92348809.52845  22552520.922                    22552524.688
        49.100          33.600
 124865987.159 6  97298189.54642  23761207.688                    23761211.188
        37.100          17.400
 18  3 11 12 27 45.0000000  0 16R05R13R04G17R14R21R22R23R15G28G11G01
                                G10G24G15G13
                  84789542.330 6  20393534.500                    20393535.410
                        36.000
                  81781704.064 6  19690826.141                    19690827.336
                        40.300
                  87782585.008 7  21076433.031                    21076433.660
                        43.100
 123636702.339 7  96340323.62745  23527285.914                    23527289.387
        46.200          32.100
                  83874505.228 7  20230256.375                    20230258.707
                        42.400
                  91986487.021 7  22101269.117                    22101271.578
                        44.100
                  84859469.428 7  20439050.180                    20439050.359
                        43.100
                  95414763.041 5  22933005.859                    22933009.266
                        35.200
                  97310457.157 6  23413272.063                    23413275.977
                        37.400
 116047808.328 7  90426872.32545  22083164.031                    22083166.082
        45.700          33.100
 118574467.309 8  92395700.15444  22563971.867                    22563974.113
        48.100          29.000
 121966136.688 7  95038565.95645  23209384.570                    23209389.715
        43.900          30.200
 116934685.126 7  91117954.51546  22251931.055                    22251936.805
        45.300          36.500
 114177794.971 7  88969732.33746  21727311.570                    21727317.309
        47.000          37.800
 118517445.879 7  92351266.27845  22553117.156                    22553124.879
        44.800          33.600
 124870105.011 6  97301398.25242  23761991.906                    23761995.035
        37.200          17.800
 18  3 11 12 27 46.0000000  0 16R05R13R04G17R14R21R22R23R15G28G11G01
                                G10G24G15G13
                  84789128.557 5  20393434.570                    20393435.664
                        35.600
                  81783267.913 6  19691202.922                    19691204.246
                        40.200
                  87785356.511 7  21077097.609                    21077098.723
                        42.800
 123634066.517 7  96338269.73245  23526783.906                    23526787.785
        46.200          31.200
                  83872750.267 7  20229833.266                    20229835.121
                        42.800
                  91989502.756 7  22101994.055                    22101996.832
                        43.900
                  84859222.278 7  20438990.492                    20438991.445
                        42.900
                  95411623.394 5  22932251.367                    22932255.105
                        35.600
                  97307223.352 6  23412493.242                    23412497.320
                        37.800
 116050034.241 7  90428606.80145  22083587.852                    22083590.063
        45.900          33.600
 118574191.921 8  92395485.57144  22563919.172                    22563921.977
        48.300          29.800
 121964099.997 7  95036978.90044  23208996.125                    23209002.480
        42.900          29.700
 116935121.283 7  91118294.39146  22252014.398                    22252019.926
        45.900          36.000
 114175900.693 7  88968256.27546  21726951.242                    21726956.934
        47.300          37.400
 118520599.122 7  92353723.33245  22553718.469                    22553724.082
        44.500          33.800
 124874222.993 6  97304607.03342  23762774.953                    23762778.551
        37.000          16.300
 18  3 11 12 27 47.0000000  0 16R05R13R04G17R14R21R22R23R15G28G11G01
                                G10G24G15G13
                  84788715.563 6  20393335.164                    20393336.973
                        36.200
                  81784832.387 6  19691580.344                    19691580.711
                        40.700
                  87788128.544 7  21077763.813                    21077764.949
                        42.400
 123631431.028 7  96336216.09845  23526282.758                    23526286.832
        45.400          30.000
                  83870995.842 7  20229410.633                    20229412.477
                        42.800
                  91992518.983 7  22102718.414                    22102720.477
                        43.400
                  84858975.865 7  20438930.164                    20438931.992
                        43.000
                  95408483.994 6  22931496.172                    22931500.945
                        36.100
                  97303989.685 6  23411715.305                    23411719.434
                        38.100
 116052260.651 7  90430341.67345  22084011.531                    22084013.734
        46.100          33.700
 118573917.316 8  92395271.58444  22563866.938                    22563869.648
        48.000          29.900
 121962063.852 6  95035392.28644  23208607.047                    23208614.332
        41.600          29.300
 116935558.190 7  91118634.84146  22252097.797                    22252103.109
        46.600          36.500
 114174006.983 8  88966780.65746  21726591.219                    21726596.957
        48.100          36.900
 118523752.753 7  92356180.65945  22554321.250                    22554323.551
        47.400          34.100
 124878341.293 6  97307816.11942  23763558.234                    23763562.406
        37.200          16.300
