     2.11           OBSERVATION DATA    M (MIXED)           RINEX VERSION / TYPE
teqc  2018Mar15                         20180319 14:17:34UTCPGM / RUN BY / DATE
Linux 2.6.32-573.12.1.x86_64|x86_64|gcc -static|Linux 64|=+ COMMENT
END OF STATIC MODE OBSERVATION                              COMMENT
BIT 2 OF LLI FLAGS DATA COLLECTED UNDER A/S CONDITION       COMMENT
-Unknown-                                                   MARKER NAME
4625                                                        MARKER NUMBER
-Unknown-           -Unknown-                               OBSERVER / AGENCY
5127468778          TRIMBLE             4.63                REC # / TYPE / VERS
47477114                            NONE                    ANT # / TYPE
  5387055.1119  3054441.0719  1521530.8858                  APPROX POSITION XYZ
        0.0000        0.0000        0.0000                  ANTENNA: DELTA H/E/N
     1     1                                                WAVELENGTH FACT L1/2
     7    L1    L2    C1    P1    P2    S1    S2            # / TYPES OF OBSERV
    18                                                      LEAP SECONDS
 SNR is mapped to RINEX snr flag value [0-9]                COMMENT
  L1 & L2: min(max(int(snr_dBHz/6), 0), 9)                  COMMENT
  2018     3    16    10    25   16.0000000     GPS         TIME OF FIRST OBS
                                                            END OF HEADER
 18  3 16 10 25 16.0000000  0 15R01G27G30G15R10R16R17R18G20G21R09G08
                                G28G07G13
                  84048336.725 6  20215297.008                    20215300.055
                        39.900
 123070607.407 6  95899216.41844  23419562.422                    23419568.035
        41.300          26.000
 115805351.641 8  90237884.24746  22037027.211                    22037032.734
        48.400          38.800
 113154177.356 8  88172030.99246  21532506.586                    21532509.949
        50.500          37.100
                  85797410.198 6  20694052.047                    20694056.852
                        38.500
                  96321600.236 5  23183491.180                    23183493.055
                        35.300
                  89427470.021 6  21486419.828                    21486420.324
                        40.200
                  86693111.374 6  20880690.586                    20880693.590
                        41.100
 117017404.643 7  91182408.39144  22267673.297                    22267676.141
        44.100          29.300
 129152516.750 7 100638330.17544  24576906.750                    24576909.180
        44.500          29.100
                  82063762.808 7  19758738.398                    19758737.961
                        43.800
 117661431.047 7  91684403.10846  22390261.523                    22390267.773
        47.000          36.900
 115460407.631 8  89969148.01146  21971383.945                    21971386.383
        48.000          37.300
 124687309.763 7  97158970.14244  23727207.633                    23727210.297
        45.800          26.000
 110387306.352 8  86016095.25545  21006006.398                    21006009.680
        48.100          34.900
 18  3 16 10 25 17.0000000  0 15R01G27G30G15R10R16R17R18G20G21R09G08
                                G28G07G13
                  84047374.966 6  20215065.898                    20215068.582
                        39.700
 123073509.987 6  95901478.17544  23420114.406                    23420120.438
        41.400          27.300
 115808002.172 7  90239949.55146  22037531.453                    22037537.133
        47.900          37.500
 113153234.108 8  88171296.00446  21532326.648                    21532330.008
        50.600          37.500
                  85795121.945 6  20693501.117                    20693504.938
                        38.800
                  96325207.570 5  23184359.828                    23184361.563
                        34.900
                  89429629.070 6  21486938.328                    21486939.363
                        40.900
                  86692083.163 6  20880443.813                    20880446.535
                        41.000
 117019520.269 7  91184056.93144  22268074.711                    22268078.398
        43.200          28.600
 129155106.382 7 100640348.07844  24577399.859                    24577402.469
        44.300          28.500
                  82064886.067 7  19759008.844                    19759008.766
                        43.900
 117661763.873 7  91684662.44246  22390324.992                    22390330.781
        46.800          36.800
 115458992.733 7  89968045.45646  21971114.320                    21971117.324
        47.200          36.800
 124690938.029 7  97161797.36744  23727898.414                    23727901.441
        45.700          27.000
 110388123.677 8  86016732.14345  21006161.914                    21006165.355
        48.200          34.900
 18  3 16 10 25 18.0000000  0 15R01G27G30G15R10R16R17R18G20G21R09G08
                                G28G07G13
                  84046413.880 6  20214834.156                    20214837.211
                        39.900
 123076413.105 7  95903740.35344  23420667.609                    23420672.809
        42.600          25.200
 115810653.271 8  90242015.30346  22038035.930                    22038041.980
        48.400          37.900
 113152291.532 8  88170561.52346  21532147.414                    21532150.898
        50.800          37.000
                  85792834.141 6  20692948.313                    20692952.918
                        38.500
                  96328815.123 5  23185228.492                    23185229.734
                        34.300
                  89431788.739 6  21487455.891                    21487458.219
                        41.100
                  86691055.653 6  20880196.625                    20880199.004
                        41.000
 117021636.488 7  91185705.91944  22268478.953                    22268481.227
        43.800          28.100
 129157696.402 7 100642366.27544  24577892.742                    24577895.074
        43.800          28.700
                  82066009.976 7  19759279.016                    19759279.031
                        43.700
 117662097.422 7  91684922.33746  22390389.063                    22390394.430
        46.600          36.700
 115457578.436 7  89966943.39246  21970844.820                    21970848.430
        47.300          37.000
 124694566.587 7  97164624.81344  23728588.539                    23728591.793
        45.600          26.300
 110388941.733 8  86017369.59845  21006317.438                    21006320.652
        48.200          35.100
 18  3 16 10 25 19.0000000  0 15R01G27G30G15R10R16R17R18G20G21R09G08
                                G28G07G13
                  84045453.434 6  20214603.242                    20214606.492
                        40.000
 123079316.692 7  95906002.89944  23421219.820                    23421225.430
        42.700          26.100
 115813304.802 7  90244081.40546  22038540.125                    22038546.445
        47.600          37.500
 113151349.582 8  88169827.52046  21531967.898                    21531971.137
        50.400          36.500
                  85790546.805 6  20692397.609                    20692401.203
                        38.300
                  96332422.813 5  23186096.859                    23186097.715
                        34.200
                  89433949.019 6  21487974.508                    21487977.430
                        41.200
                  86690028.784 6  20879949.523                    20879951.629
                        41.300
 117023753.265 7  91187355.34644  22268880.234                    22268883.766
        43.100          27.900
 129160286.759 7 100644384.73344  24578385.375                    24578388.176
        43.400          28.200
                  82067134.517 7  19759550.109                    19759550.414
                        43.600
 117662431.642 7  91685182.75946  22390452.734                    22390458.148
        46.400          36.900
 115456164.631 7  89965841.74446  21970576.430                    21970579.629
        47.500          37.500
 124698195.368 7  97167452.40644  23729278.844                    23729282.648
        45.000          27.500
 110389760.452 8  86018007.56645  21006472.992                    21006476.289
        48.500          35.000
 18  3 16 10 25 20.0000000  0 15R01G27G30G15R10R16R17R18G20G21R09G08
                                G28G07G13
                  84044493.688 6  20214372.320                    20214374.980
                        39.400
 123082220.812 7  95908265.85544  23421772.953                    23421777.641
        43.500          25.400
 115815956.933 7  90246147.98846  22039045.125                    22039051.324
        47.900          37.500
 113150408.398 8  88169094.11846  21531789.008                    21531792.242
        50.500          36.900
                  85788259.983 6  20691845.820                    20691850.000
                        38.200
                  96336030.717 5  23186965.250                    23186966.355
                        34.100
                  89436109.908 6  21488493.898                    21488497.098
                        41.500
                  86689002.660 6  20879702.914                    20879703.969
                        41.000
 117025870.688 7  91189005.26844  22269285.938                    22269286.750
        45.300          28.100
 129162877.514 7 100646403.50644  24578878.469                    24578881.363
        43.700          27.500
                  82068259.735 7  19759820.516                    19759820.930
                        43.900
 117662766.602 7  91685443.75946  22390516.805                    22390521.863
        46.400          36.900
 115454751.425 8  89964740.56246  21970308.070                    21970310.375
        48.000          36.900
 124701824.451 7  97170280.24344  23729969.734                    23729972.668
        44.900          26.600
 110390579.880 8  86018646.08745  21006629.453                    21006632.203
        48.600          35.000
 18  3 16 10 25 21.0000000  0 15R01G27G30G15R10R16R17R18G20G21R09G08
                                G28G07G13
                  84043534.695 6  20214141.750                    20214144.977
                        39.500
 123085125.497 7  95910529.26744  23422325.203                    23422330.363
        44.000          24.200
 115818609.601 8  90248214.99746  22039549.586                    22039555.961
        48.100          37.900
 113149467.914 8  88168361.26846  21531610.273                    21531613.113
        50.000          36.500
                  85785973.698 6  20691292.977                    20691298.152
                        38.300
                  96339638.857 5  23187833.953                    23187834.035
                        33.600
                  89438271.470 6  21489012.672                    21489015.863
                        41.300
                  86687977.355 6  20879456.867                    20879457.469
                        40.900
 117027988.778 7  91190655.71744  22269687.938                    22269690.309
        43.400          28.100
 129165468.734 7 100648422.63244  24579371.891                    24579374.176
        43.700          28.200
                  82069385.705 7  19760091.969                    19760092.445
                        44.100
 117663102.393 7  91685705.41046  22390581.086                    22390585.816
        46.700          36.900
 115453338.843 8  89963639.85346  21970038.875                    21970041.609
        48.300          37.000
 124705453.898 7  97173108.35244  23730660.391                    23730663.977
        44.500          27.100
 110391400.104 8  86019285.21845  21006785.406                    21006788.391
        48.800          35.800
 18  3 16 10 25 22.0000000  0 15R01G27G30G15R10R16R17R18G20G21R09G08
                                G28G07G13
                  84042576.374 6  20213911.328                    20213914.543
                        39.600
 123088030.724 7  95912793.09543  23422878.227                    23422882.508
        43.700          22.800
 115821262.792 7  90250282.40246  22040054.539                    22040060.930
        47.400          36.900
 113148528.178 8  88167628.99346  21531431.211                    21531434.344
        50.500          37.000
                  85783687.927 6  20690744.117                    20690746.637
                        38.600
                  96343247.189 5  23188700.906                    23188702.387
                        34.500
                  89440433.634 6  21489531.797                    21489536.043
                        41.400
                  86686952.766 6  20879209.984                    20879210.711
                        40.900
 117030107.604 6  91192306.74344  22270086.922                    22270093.121
        41.100          27.500
 129168060.301 7 100650442.03944  24579865.031                    24579867.215
        44.100          28.100
                  82070512.272 7  19760363.563                    19760363.676
                        43.700
 117663438.899 7  91685967.62246  22390645.008                    22390649.629
        47.500          37.300
 115451926.893 8  89962539.63746  21969769.906                    21969772.770
        48.300          37.400
 124709083.638 7  97175936.69844  23731351.836                    23731355.379
        44.700          26.700
 110392221.081 8  86019924.94546  21006941.453                    21006944.715
        48.400          36.300
 18  3 16 10 25 23.0000000  0 15R01G27G30G15R10R16R17R18G20G21R09G08
                                G28G07G13
                  84041618.737 6  20213681.039                    20213683.914
                        39.400
 123090936.481 7  95915057.33944  23423431.141                    23423435.121
        43.900          25.600
 115823916.542 8  90252350.23846  22040560.461                    22040566.152
        48.200          37.500
 113147589.138 8  88166897.27446  21531252.680                    21531255.891
        50.500          37.400
                  85781402.604 6  20690191.648                    20690196.156
                        38.600
                  96346855.617 5  23189568.875                    23189570.699
                        34.700
                  89442596.445 6  21490050.672                    21490056.223
                        40.900
                  86685928.906 6  20878963.047                    20878963.832
                        40.900
 117032226.987 7  91193958.17844  22270496.086                    22270496.074
        44.900          28.800
 129170652.286 7 100652461.76844  24580358.563                    24580360.418
        44.300          28.400
                  82071639.495 7  19760634.734                    19760634.066
                        43.700
 117663776.114 7  91686230.38446  22390709.719                    22390714.094
        47.900          37.200
 115450515.531 7  89961439.90646  21969501.281                    21969504.480
        47.300          37.700
 124712713.637 7  97178765.24744  23732042.531                    23732046.035
        45.300          27.400
 110393042.735 8  86020565.20145  21007097.820                    21007101.219
        48.800          35.400
 18  3 16 10 25 24.0000000  0 15R01G27G30G15R10R16R17R18G20G21R09G08
                                G28G07G13
                  84040661.821 6  20213450.773                    20213453.586
                        39.100
 123093842.796 7  95917322.02143  23423984.406                    23423988.316
        42.900          23.000
 115826570.830 7  90254418.52646  22041065.180                    22041071.355
        47.800          37.300
 113146650.816 8  88166166.13246  21531073.922                    21531077.641
        50.200          37.200
                  85779117.793 6  20689640.289                    20689643.930
                        38.400
                  96350464.262 5  23190439.398                    23190439.227
                        35.700
                  89444759.906 6  21490571.086                    21490575.469
                        41.000
                  86684905.777 6  20878716.906                    20878717.582
                        40.600
 117034346.962 7  91195610.11544  22270898.766                    22270900.680
        44.800          28.100
 129173244.635 7 100654481.77744  24580852.320                    24580853.805
        44.900          28.800
                  82072767.381 7  19760905.688                    19760905.961
                        43.800
 117664114.111 8  91686493.76446  22390773.625                    22390778.078
        49.100          37.400
 115449104.666 7  89960340.58546  21969232.570                    21969236.078
        47.600          37.100
 124716343.945 7  97181594.04844  23732733.469                    23732736.773
        45.400          26.500
 110393865.113 8  86021206.01645  21007254.695                    21007257.777
        48.000          34.700
 18  3 16 10 25 25.0000000  0 15R01G27G30G15R10R16R17R18G20G21R09G08
                                G28G07G13
                  84039705.556 6  20213220.734                    20213223.938
                        39.300
 123096749.549 7  95919587.06643  23424537.492                    23424540.938
        43.500          23.900
 115829225.537 7  90256487.14846  22041569.961                    22041576.266
        47.300          37.700
 113145713.067 8  88165435.43546  21530895.531                    21530899.004
        50.300          37.600
                  85776833.460 6  20689090.648                    20689093.852
                        38.600
                  96354073.024 5  23191308.461                    23191308.090
                        35.800
                  89446923.911 6  21491091.086                    21491095.121
                        40.800
                  86683883.289 6  20878470.719                    20878470.977
                        40.600
 117036467.591 7  91197262.58144  22271298.039                    22271303.602
        42.000          27.600
 129175837.336 7 100656502.06644  24581345.070                    24581347.242
        44.700          29.300
                  82073895.909 7  19761177.570                    19761178.121
                        43.900
 117664452.764 8  91686757.65946  22390838.781                    22390843.000
        49.500          37.300
 115447694.258 8  89959241.60146  21968964.570                    21968967.246
        48.100          37.300
 124719974.484 7  97184423.03944  23733424.492                    23733427.910
        46.100          26.800
 110394688.177 8  86021847.36745  21007411.406                    21007414.164
        48.400          35.500
 18  3 16 10 25 26.0000000  0 15R01G27G30G15R10R16R17R18G20G21R09G08
                                G28G07G13
                  84038749.982 6  20212991.078                    20212994.664
                        39.700
 123099656.868 7  95921852.55244  23425090.828                    23425094.250
        44.100          24.600
 115831880.790 7  90258556.18346  22042075.391                    22042081.723
        47.300          37.400
 113144775.990 8  88164705.24746  21530717.078                    21530720.781
        50.000          36.800
                  85774549.604 6  20688538.250                    20688542.238
                        38.500
                  96357681.956 6  23192176.242                    23192176.891
                        36.600
                  89449088.504 6  21491612.898                    21491615.309
                        40.800
                  86682861.523 6  20878224.484                    20878224.805
                        40.800
 117038588.862 7  91198915.50444  22271705.055                    22271706.840
        42.900          28.500
 129178430.396 7 100658522.64544  24581838.633                    24581840.785
        44.900          29.700
                  82075025.053 7  19761449.633                    19761449.551
                        43.600
 117664792.162 8  91687022.13546  22390902.688                    22390907.023
        49.500          37.300
 115446284.425 8  89958143.03746  21968696.742                    21968698.508
        48.700          37.500
 124723605.337 7  97187252.28844  23734114.992                    23734118.566
        45.300          25.300
 110395511.947 8  86022489.27045  21007568.195                    21007570.996
        48.300          35.000
 18  3 16 10 25 27.0000000  0 15R01G27G30G15R10R16R17R18G20G21R09G08
                                G28G07G13
                  84037795.110 6  20212761.656                    20212764.895
                        39.500
 123102564.688 7  95924118.41844  23425644.328                    23425647.590
        44.300          26.700
 115834536.524 7  90260625.58646  22042580.523                    22042586.781
        47.100          37.200
 113143839.634 8  88163975.60046  21530539.109                    21530542.230
        50.200          37.400
                  85772266.262 6  20687987.953                    20687991.777
                        38.700
                  96361291.095 6  23193045.648                    23193046.137
                        36.800
                  89451253.730 6  21492134.789                    21492135.500
                        40.500
                  86681840.488 6  20877978.297                    20877978.883
                        40.700
 117040710.680 7  91200568.86644  22272108.539                    22272111.109
        42.800          27.800
 129181023.888 7 100660543.55945  24582331.836                    24582334.340
        45.500          30.200
                  82076154.868 7  19761721.625                    19761721.918
                        43.900
 117665132.314 8  91687287.20246  22390966.945                    22390971.980
        48.900          37.500
 115444875.131 8  89957044.85546  21968428.117                    21968430.418
        48.700          37.300
 124727236.479 7  97190081.76444  23734806.242                    23734809.262
        45.300          24.900
 110396336.441 8  86023131.73145  21007724.922                    21007727.980
        48.500          35.300
 18  3 16 10 25 28.0000000  0 15R01G27G30G15R10R16R17R18G20G21R09G08
                                G28G07G13
                  84036840.952 6  20212531.859                    20212534.801
                        39.400
 123105473.109 7  95926384.74244  23426197.273                    23426200.813
        43.600          26.700
 115837192.830 7  90262695.40446  22043086.461                    22043092.137
        47.200          36.900
 113142903.994 8  88163246.49946  21530360.828                    21530364.160
        50.200          37.300
                  85769983.463 6  20687438.305                    20687441.590
                        38.300
                  96364900.452 6  23193913.219                    23193915.180
                        36.200
                  89453419.650 6  21492655.602                    21492656.230
                        40.500
                  86680820.257 6  20877732.234                    20877733.730
                        41.100
 117042833.220 7  91202222.80344  22272511.531                    22272514.895
        42.400          28.600
 129183617.791 7 100662564.78544  24582825.516                    24582827.648
        44.800          29.500
                  82077285.399 7  19761994.008                    19761994.668
                        43.900
 117665473.244 8  91687552.88246  22391031.836                    22391036.938
        49.600          38.100
 115443466.481 8  89955947.15846  21968160.000                    21968162.898
        48.200          36.600
 124730867.987 7  97192911.52644  23735497.227                    23735500.313
        44.800          25.100
 110397161.702 8  86023774.78945  21007881.789                    21007884.754
        48.100          35.100
 18  3 16 10 25 29.0000000  0 15R01G27G30G15R10R16R17R18G20G21R09G08
                                G28G07G13
                  84035887.480 6  20212302.664                    20212305.480
                        39.700
 123108382.034 7  95928651.44944  23426750.805                    23426754.602
        44.500          28.800
 115839849.658 7  90264765.62946  22043592.109                    22043597.391
        46.600          37.500
 113141969.055 8  88162517.94746  21530183.063                    21530186.445
        49.800          36.700
                  85767701.090 6  20686886.828                    20686890.863
                        38.100
                  96368509.922 6  23194782.734                    23194784.043
                        36.800
                  89455586.196 6  21493176.445                    21493177.203
                        40.500
                  86679800.720 6  20877486.031                    20877487.668
                        41.100
 117044956.391 7  91203877.22144  22272915.641                    22272919.262
        42.900          28.100
 129186212.073 7 100664586.31344  24583318.797                    24583321.348
        43.300          28.700
                  82078416.563 7  19762266.172                    19762266.324
                        43.700
 117665814.899 8  91687819.11746  22391096.805                    22391102.145
        49.600          37.200
 115442058.400 7  89954849.92546  21967891.898                    21967894.352
        47.600          37.000
 124734499.782 7  97195741.50544  23736187.922                    23736191.055
        44.700          24.700
 110397987.679 8  86024418.39845  21008038.883                    21008041.957
        48.200          35.600
 18  3 16 10 25 30.0000000  0 15R01G27G30G15R10R16R17R18G20G21R09G08
                                G28G07G13
                  84034934.709 6  20212073.383                    20212076.500
                        39.700
 123111291.508 7  95930918.56744  23427304.695                    23427308.191
        44.700          29.900
 115842506.980 7  90266836.24846  22044097.570                    22044103.473
        46.700          37.700
 113141034.873 8  88161789.99246  21530005.930                    21530009.000
        50.200          37.400
                  85765419.237 6  20686336.914                    20686340.344
                        38.100
                  96372119.667 6  23195650.992                    23195652.258
                        36.200
                  89457753.367 6  21493696.961                    21493696.934
                        40.500
                  86678781.926 6  20877239.805                    20877242.543
                        41.200
 117047080.203 7  91205532.12544  22273320.969                    22273322.895
        44.300          28.200
 129188806.776 7 100666608.16344  24583811.797                    24583815.301
        42.800          29.000
                  82079548.420 7  19762538.875                    19762538.891
                        43.800
 117666157.293 8  91688085.92546  22391161.203                    22391166.980
        49.800          36.800
 115440650.897 7  89953753.17146  21967624.555                    21967627.023
        47.600          37.400
 124738131.891 7  97198571.74844  23736878.945                    23736882.215
        44.700          25.300
 110398814.393 7  86025062.59645  21008196.461                    21008199.195
        47.900          34.900
 18  3 16 10 25 31.0000000  0 15R01G27G30G15R10R16R17R18G20G21R09G08
                                G28G07G13
                  84033982.653 6  20211844.336                    20211847.895
                        39.600
 123114201.517 7  95933186.11645  23427858.313                    23427862.172
        44.500          30.100
 115845164.836 7  90268907.28246  22044603.219                    22044609.375
        46.500          37.600
 113140101.365 8  88161062.58246  21529828.188                    21529831.086
        50.200          37.200
                  85763137.893 6  20685787.234                    20685790.422
                        38.100
                  96375729.596 6  23196519.352                    23196521.770
                        36.400
                  89459921.186 6  21494216.953                    21494217.695
                        40.200
                  86677763.871 6  20876994.320                    20876997.457
                        41.000
 117049204.602 7  91207187.49544  22273724.578                    22273727.320
        43.800          28.600
 129191401.879 7 100668630.31044  24584305.516                    24584308.945
        42.200          29.100
                  82080680.955 7  19762811.797                    19762811.734
                        43.700
 117666500.445 8  91688353.32046  22391226.719                    22391232.477
        50.200          37.500
 115439243.993 8  89952656.90646  21967357.086                    21967359.293
        48.300          37.700
 124741764.259 7  97201402.18844  23737569.922                    23737573.305
        44.100          25.600
 110399641.852 8  86025707.36645  21008353.500                    21008356.738
        48.100          34.800
 18  3 16 10 25 32.0000000  0 15R01G27G30G15R10R16R17R18G20G21R09G08
                                G28G07G13
                  84033031.274 6  20211615.422                    20211618.578
                        39.400
 123117112.051 7  95935454.06445  23428412.422                    23428416.383
        43.900          30.600
 115847823.250 7  90270978.76146  22045108.430                    22045115.125
        46.200          37.700
 113139168.549 8  88160335.71546  21529650.188                    21529653.832
        50.200          37.100
                  85760857.023 6  20685236.586                    20685240.227
                        38.200
                  96379339.681 6  23197389.250                    23197390.570
                        36.500
                  89462089.652 6  21494738.000                    21494738.566
                        40.100
                  86676746.509 6  20876749.633                    20876752.664
                        40.500
 117051329.660 7  91208843.37644  22274128.688                    22274131.785
        42.400          28.600
 129193997.349 7 100670652.74844  24584799.969                    24584803.109
        42.100          29.200
                  82081814.169 7  19763084.914                    19763084.457
                        43.800
 117666844.328 8  91688621.28446  22391292.406                    22391298.141
        50.800          37.300
 115437837.661 8  89951561.09846  21967089.016                    21967091.676
        48.600          37.900
 124745396.966 7  97204232.87844  23738261.078                    23738264.672
        44.200          27.000
 110400470.033 8  86026352.70445  21008511.047                    21008514.410
        48.500          35.200
 18  3 16 10 25 33.0000000  0 15R01G27G30G15R10R16R17R18G20G21R09G08
                                G28G07G13
                  84032080.597 6  20211386.844                    20211389.703
                        39.300
 123120023.122 7  95937722.43844  23428966.188                    23428970.742
        43.900          29.800
 115850482.182 7  90273050.64046  22045615.297                    22045620.902
        46.900          37.100
 113138236.439 8  88159609.39346  21529472.945                    21529476.336
        50.000          36.900
                  85758576.661 6  20684686.109                    20684689.742
                        38.200
                  96382949.970 6  23198257.281                    23198259.355
                        36.500
                  89464258.738 6  21495257.859                    21495259.539
                        40.200
                  86675729.898 6  20876504.711                    20876507.270
                        40.800
 117053455.372 7  91210499.75644  22274533.141                    22274536.289
        42.400          28.500
 129196593.212 7 100672675.49045  24585294.336                    24585296.828
        42.000          30.100
                  82082948.030 7  19763357.078                    19763357.453
                        43.900
 117667188.935 8  91688889.81946  22391357.016                    22391363.035
        50.300          37.300
 115436431.906 8  89950465.72946  21966821.586                    21966824.465
        48.700          37.800
 124749029.938 7  97207063.77344  23738952.688                    23738955.832
        44.300          26.900
 110401298.951 8  86026998.60645  21008668.703                    21008672.172
        48.300          34.800
 18  3 16 10 25 34.0000000  0 15R01G27G30G15R10R16R17R18G20G21R09G08
                                G28G07G13
                  84031130.581 6  20211157.688                    20211161.652
                        39.600
 123122934.685 7  95939991.18745  23429520.125                    23429524.641
        43.700          31.500
 115853141.585 7  90275122.88946  22046121.313                    22046127.188
        47.100          37.700
 113137305.001 8  88158883.60546  21529296.063                    21529298.969
        50.500          37.100
                  85756296.799 6  20684136.063                    20684140.816
                        38.000
                  96386560.427 6  23199126.328                    23199128.656
                        37.000
                  89466428.421 6  21495778.906                    21495780.156
                        40.100
                  86674714.004 6  20876260.594                    20876262.691
                        41.000
 117055581.675 7  91212156.60544  22274938.383                    22274941.066
        43.400          28.700
 129199189.454 6 100674698.52744  24585788.273                    24585790.684
        41.400          29.500
                  82084082.494 7  19763630.383                    19763630.457
                        44.000
 117667534.277 8  91689158.93146  22391422.891                    22391429.230
        50.300          37.600
 115435026.690 8  89949370.77746  21966553.898                    21966557.000
        48.000          37.300
 124752663.197 7  97209894.87744  23739644.875                    23739647.570
        44.700          27.900
 110402128.557 8  86027645.04845  21008826.813                    21008829.930
        48.500          35.000
 18  3 16 10 25 35.0000000  0 15R01G27G30G15R10R16R17R18G20G21R09G08
                                G28G07G13
                  84030181.207 6  20210930.016                    20210933.027
                        39.800
 123125846.709 7  95942260.29345  23430074.320                    23430079.203
        43.000          31.400
 115855801.477 7  90277195.52346  22046627.281                    22046633.488
        46.900          37.900
 113136374.213 8  88158158.31946  21529118.711                    21529121.891
        50.500          36.900
                  85754017.383 6  20683585.281                    20683590.477
                        37.900
                  96390171.035 5  23199995.945                    23199998.051
                        35.600
                  89468598.661 6  21496300.016                    21496301.398
                        40.000
                  86673698.795 6  20876016.766                    20876017.957
                        41.000
 117057708.521 7  91213813.87344  22275343.344                    22275345.688
        43.800          28.000
 129201786.032 6 100676721.83044  24586281.859                    24586285.027
        41.300          29.300
                  82085217.568 7  19763903.305                    19763903.832
                        43.700
 117667880.286 8  91689428.55746  22391488.672                    22391495.125
        50.300          37.700
 115433621.978 7  89948276.22546  21966286.023                    21966289.305
        47.500          37.100
 124756296.649 7  97212726.13344  23740336.258                    23740339.070
        45.500          26.900
 110402958.832 8  86028292.01745  21008984.664                    21008988.289
        48.000          35.300
 18  3 16 10 25 36.0000000  0 15R01G27G30G15R10R16R17R18G20G21R09G08
                                G28G07G13
                  84029232.563 6  20210702.141                    20210704.656
                        39.900
 123128759.322 7  95944529.85445  23430628.547                    23430633.555
        42.500          31.700
 115858461.896 7  90279268.55746  22047134.102                    22047139.480
        47.000          37.600
 113135444.160 8  88157433.59946  21528941.750                    21528944.867
        50.700          36.700
                  85751738.496 6  20683037.492                    20683040.984
                        38.100
                  96393781.820 5  23200864.070                    23200867.094
                        35.700
                  89470769.579 6  21496821.953                    21496822.867
                        40.200
                  86672684.346 6  20875772.852                    20875773.820
                        40.800
 117059836.059 7  91215471.69644  22275746.930                    22275750.992
        42.800          28.300
 129204383.022 6 100678745.45844  24586776.703                    24586779.223
        40.600          29.100
                  82086353.323 7  19764177.742                    19764177.730
                        43.700
 117668227.060 8  91689698.77546  22391554.867                    22391561.145
        50.000          37.300
 115432217.799 8  89947182.08146  21966019.336                    21966022.121
        48.000          37.500
 124759930.427 7  97215557.64644  23741027.742                    23741030.563
        46.100          28.000
 110403789.875 8  86028939.58245  21009142.891                    21009146.199
        48.200          35.200
 18  3 16 10 25 37.0000000  0 15R01G27G30G15R10R16R17R18G20G21R09G08
                                G28G07G13
                  84028284.612 6  20210473.961                    20210476.836
                        39.400
 123131672.464 7  95946799.81745  23431183.320                    23431188.250
        42.000          31.200
 115861122.858 7  90281342.01946  22047640.359                    22047646.523
        47.000          37.400
 113134514.823 8  88156709.44446  21528764.734                    21528767.906
        50.800          36.900
                  85749460.124 6  20682488.109                    20682491.633
                        37.900
                  96397392.834 5  23201733.164                    23201735.316
                        35.100
                  89472941.147 6  21497344.695                    21497345.184
                        40.200
                  86671670.612 6  20875528.992                    20875529.277
                        40.800
 117061964.251 7  91217130.01244  22276152.016                    22276155.523
        43.200          28.300
 129206980.420 6 100680769.39044  24587271.063                    24587273.492
        40.500          28.600
                  82087489.776 7  19764450.977                    19764451.000
                        44.000
 117668574.604 8  91689969.58446  22391621.078                    22391626.980
        49.800          37.100
 115430814.150 8  89946088.32646  21965752.477                    21965755.051
        48.200          37.800
 124763564.498 7  97218389.38044  23741719.367                    23741722.563
        46.400          27.600
 110404621.625 7  86029587.69845  21009301.320                    21009304.504
        47.700          34.600
 18  3 16 10 25 38.0000000  0 15R01G27G30G15R10R16R17R18G20G21R09G08
                                G28G07G13
                  84027337.360 6  20210246.016                    20210249.117
                        39.700
 123134586.161 7  95949070.22145  23431737.242                    23431742.559
        42.100          31.100
 115863784.344 7  90283415.89246  22048146.773                    22048152.633
        46.900          37.900
 113133586.148 8  88155985.80346  21528587.953                    21528591.195
        50.700          36.800
                  85747182.221 6  20681937.641                    20681941.625
                        38.000
                  96401004.058 5  23202602.648                    23202604.594
                        35.300
                  89475113.340 6  21497866.898                    21497866.867
                        40.100
                  86670657.594 6  20875285.531                    20875285.289
                        40.900
 117064093.042 7  91218788.78544  22276558.828                    22276560.488
        44.100          29.000
 129209578.246 6 100682793.65944  24587765.445                    24587767.957
        40.400          28.300
                  82088626.916 7  19764725.258                    19764724.801
                        43.600
 117668922.885 8  91690240.96846  22391687.219                    22391693.059
        50.000          37.300
 115429411.144 7  89944995.04146  21965485.836                    21965488.012
        47.800          37.700
 124767198.878 7  97221221.35544  23742410.734                    23742414.137
        46.400          27.700
 110405454.128 8  86030236.38945  21009459.930                    21009463.059
        48.000          34.300
 18  3 16 10 25 39.0000000  0 15R01G27G30G15R10R16R17R18G20G21R09G08
                                G28G07G13
                  84026390.796 6  20210018.313                    20210021.180
                        39.600
 123137500.396 6  95951341.06145  23432291.742                    23432297.199
        41.700          32.300
 115866446.381 7  90285490.19146  22048653.109                    22048659.008
        47.200          37.300
 113132658.220 8  88155262.73546  21528411.508                    21528414.652
        50.700          36.800
                  85744904.861 6  20681389.102                    20681392.719
                        38.100
                  96404615.414 5  23203472.055                    23203473.203
                        35.800
                  89477286.129 6  21498389.742                    21498389.016
                        40.200
                  86669645.335 6  20875040.906                    20875041.973
                        40.400
 117066222.444 7  91220448.05444  22276962.266                    22276965.820
        43.300          28.200
 129212176.409 6 100684818.19144  24588259.813                    24588262.000
        40.500          28.500
                  82089764.712 7  19764998.336                    19764998.777
                        43.800
 117669271.914 8  91690512.93646  22391753.367                    22391759.727
        49.700          37.600
 115428008.677 7  89943902.17046  21965218.516                    21965221.129
        47.800          37.400
 124770833.533 7  97224053.55444  23743102.039                    23743106.113
        46.800          25.600
 110406287.368 7  86030885.66745  21009618.352                    21009621.609
        47.800          35.000
 18  3 16 10 25 40.0000000  0 15R01G27G30G15R10R16R17R18G20G21R09G08
                                G28G07G13
                  84025444.952 6  20209790.258                    20209793.715
                        39.700
 123140415.177 6  95953612.31645  23432846.125                    23432852.176
        41.100          31.900
 115869108.990 7  90287564.95746  22049159.602                    22049165.664
        47.400          37.900
 113131730.998 8  88154540.22646  21528235.180                    21528238.332
        50.500          36.600
                  85742627.941 6  20680839.063                    20680843.527
                        38.400
                  96408226.970 5  23204342.023                    23204342.438
                        34.800
                  89479459.558 6  21498912.289                    21498911.164
                        40.600
                  86668633.828 6  20874797.930                    20874797.848
                        40.800
 117068352.513 7  91222107.82944  22277368.008                    22277371.313
        43.200          28.700
 129214775.021 6 100686843.07244  24588755.172                    24588756.934
        41.000          29.300
                  82090903.200 7  19765272.609                    19765272.684
                        43.600
 117669621.708 8  91690785.49146  22391820.539                    22391826.391
        49.800          37.800
 115426606.830 7  89942809.79046  21964951.367                    21964954.535
        47.600          37.300
 124774468.524 7  97226886.03244  23743793.234                    23743797.883
        46.500          27.100
 110407121.347 8  86031535.52045  21009776.805                    21009779.977
        48.400          35.200
 18  3 16 10 25 41.0000000  0 15R01G27G30G15R10R16R17R18G20G21R09G08
                                G28G07G13
                  84024499.854 6  20209563.375                    20209566.406
                        39.700
 123143330.527 6  95955884.01245  23433400.375                    23433406.844
        40.200          30.900
 115871772.151 7  90289640.15146  22049666.938                    22049672.676
        47.600          38.100
 113130804.522 8  88153818.29346  21528058.664                    21528061.957
        50.600          37.200
                  85740351.625 6  20680290.414                    20680293.547
                        38.400
                  96411838.783 5  23205210.594                    23205211.637
                        35.600
                  89481633.681 6  21499434.930                    21499433.719
                        40.900
                  86667623.098 6  20874553.109                    20874554.805
                        40.700
 117070483.326 7  91223768.16544  22277773.906                    22277776.621
        43.400          28.500
 129217374.103 6 100688868.31744  24589250.125                    24589251.293
        41.400          29.600
                  82092042.396 7  19765547.234                    19765547.664
                        43.800
 117669972.313 8  91691058.69346  22391887.500                    22391893.031
        49.800          37.800
 115425205.620 7  89941717.91546  21964684.625                    21964687.680
        47.500          37.500
 124778103.896 7  97229718.80944  23744485.078                    23744489.414
        46.100          26.300
 110407956.151 8  86032186.01345  21009935.398                    21009938.766
        48.300          35.100
 18  3 16 10 25 42.0000000  0 15R01G27G30G15R10R16R17R18G20G21R09G08
                                G28G07G13
                  84023555.420 6  20209336.875                    20209339.906
                        39.700
 123146246.423 6  95958156.12545  23433955.703                    23433961.336
        39.100          30.500
 115874435.802 7  90291715.72846  22050173.594                    22050180.105
        47.300          37.500
 113129878.694 8  88153096.85146  21527882.430                    21527885.602
        50.600          37.300
                  85738075.741 6  20679742.094                    20679745.398
                        38.400
                  96415450.704 6  23206080.281                    23206080.938
                        36.000
                  89483808.421 6  21499956.492                    21499956.480
                        40.900
                  86666613.073 6  20874310.797                    20874311.270
                        40.600
 117072614.658 7  91225428.90344  22278180.648                    22278182.203
        44.300          28.500
 129219973.528 7 100690893.84644  24589744.852                    24589746.316
        42.100          29.500
                  82093182.218 7  19765821.445                    19765821.777
                        43.900
 117670323.603 8  91691332.42946  22391954.016                    22391959.855
        49.300          37.800
 115423804.930 7  89940626.47646  21964418.445                    21964421.918
        47.600          37.500
 124781739.483 7  97232551.74944  23745177.070                    23745181.195
        45.800          25.800
 110408791.612 8  86032837.02145  21010094.930                    21010098.082
        48.200          34.800
 18  3 16 10 25 43.0000000  0 15R01G27G30G15R10R16R17R18G20G21R09G08
                                G28G07G13
                  84022611.649 6  20209109.297                    20209112.820
                        39.500
 123149162.783 6  95960428.60345  23434510.820                    23434516.480
        37.900          30.000
 115877099.949 7  90293791.69646  22050680.188                    22050686.480
        47.000          37.600
 113128953.552 8  88152375.95146  21527706.328                    21527709.492
        50.500          36.900
                  85735800.312 6  20679192.266                    20679196.340
                        38.300
                  96419062.775 6  23206949.055                    23206950.527
                        36.200
                  89485983.713 6  21500478.953                    21500479.508
                        40.900
                  86665603.751 6  20874067.055                    20874067.895
                        41.400
 117074746.541 7  91227090.08944  22278585.625                    22278588.801
        43.600          28.300
 129222573.245 7 100692919.60745  24590239.438                    24590240.828
        42.400          30.100
                  82094322.672 7  19766096.258                    19766096.527
                        43.900
 117670675.574 8  91691606.70246  22392020.617                    22392026.852
        48.900          37.300
 115422404.729 7  89939535.42346  21964151.883                    21964154.645
        47.300          37.600
 124785375.313 7  97235384.87544  23745868.695                    23745872.773
        45.800          24.100
 110409627.751 8  86033488.56345  21010253.898                    21010257.422
        48.000          35.200
 18  3 16 10 25 44.0000000  0 15R01G27G30G15R10R16R17R18G20G21R09G08
                                G28G07G13
                  84021668.586 6  20208882.133                    20208885.586
                        39.600
 123152079.703 6  95962701.50244  23435065.086                    23435071.484
        37.100          29.100
 115879764.651 7  90295868.09546  22051188.313                    22051193.555
        47.500          37.100
 113128029.154 8  88151655.64146  21527530.508                    21527533.746
        50.200          36.900
                  85733525.440 6  20678644.477                    20678647.809
                        38.100
                  96422675.075 6  23207817.492                    23207820.305
                        36.800
                  89488159.661 6  21501001.398                    21501002.133
                        40.800
                  86664595.173 6  20873824.820                    20873825.129
                        41.000
 117076879.237 7  91228751.90944  22278989.125                    22278994.125
        42.000          27.400
 129225173.447 7 100694945.74944  24590733.422                    24590736.039
        42.200          28.700
                  82095463.857 7  19766371.008                    19766371.473
                        43.800
 117671028.360 8  91691881.62246  22392087.570                    22392093.918
        48.300          37.300
 115421005.229 7  89938444.91446  21963886.273                    21963888.488
        47.600          37.500
 124789011.458 7  97238218.24444  23746560.867                    23746564.477
        45.300          24.300
 110410464.635 7  86034140.67445  21010413.313                    21010416.801
        47.900          35.500
 18  3 16 10 25 45.0000000  0 15R01G27G30G15R10R16R17R18G20G21R09G08
                                G28G07G13
                  84020726.261 6  20208656.125                    20208659.246
                        39.800
 123154997.232 6  95964974.89344  23435620.320                    23435626.914
        36.300          29.000
 115882429.937 7  90297944.94846  22051694.352                    22051700.949
        46.700          37.400
 113127105.532 8  88150935.94146  21527354.484                    21527357.801
        50.700          36.800
                  85731251.136 6  20678096.398                    20678099.559
                        38.200
                  96426287.596 6  23208688.500                    23208689.559
                        36.400
                  89490336.294 6  21501523.328                    21501525.633
                        40.900
                  86663587.392 6  20873582.219                    20873582.875
                        40.900
 117079012.556 7  91230414.18844  22279398.086                    22279399.313
        44.100          28.300
 129227774.083 7 100696972.22944  24591228.281                    24591230.613
        42.000          28.800
                  82096605.781 7  19766645.531                    19766646.637
                        43.800
 117671381.949 7  91692157.15446  22392154.680                    22392161.387
        47.500          36.400
 115419606.318 7  89937354.86946  21963619.766                    21963622.254
        47.800          37.600
 124792647.999 7  97241051.91844  23747252.977                    23747256.270
        45.300          25.100
 110411302.347 7  86034793.41745  21010572.500                    21010575.883
        47.800          34.900
 18  3 16 10 25 46.0000000  0 15R01G27G30G15R10R16R17R18G20G21R09G08
                                G28G07G13
                  84019784.627 6  20208429.336                    20208432.367
                        39.600
 123157915.301 5  95967248.69444  23436174.695                    23436182.184
        35.200          28.400
 115885095.758 7  90300022.22046  22052201.648                    22052207.645
        46.700          37.100
 113126182.588 8  88150216.77146  21527179.320                    21527182.625
        50.300          37.100
                  85728977.278 6  20677546.875                    20677550.957
                        38.200
                  96429900.339 6  23209558.680                    23209559.320
                        36.800
                  89492513.590 6  21502046.461                    21502049.488
                        40.700
                  86662580.341 6  20873338.711                    20873339.391
                        40.900
 117081146.490 7  91232076.97944  22279804.078                    22279806.543
        43.500          28.500
 129230375.128 7 100698999.02144  24591723.281                    24591725.508
        42.000          28.600
                  82097748.389 7  19766921.570                    19766921.473
                        43.800
 117671736.273 7  91692433.24646  22392221.477                    22392228.504
        47.000          37.100
 115418207.976 7  89936265.25646  21963353.227                    21963356.707
        47.800          37.900
 124796284.786 7  97243885.77444  23747945.117                    23747948.496
        45.800          25.800
 110412140.743 8  86035446.70445  21010732.367                    21010735.246
        48.000          35.100
 18  3 16 10 25 47.0000000  0 15R01G27G30G15R10R16R17R18G20G21R09G08
                                G28G07G13
                  84018843.716 6  20208202.414                    20208205.762
                        39.700
 123160833.919 5  95969522.92244  23436730.406                    23436737.633
        34.400          27.100
 115887762.077 7  90302099.86946  22052709.891                    22052715.602
        47.300          37.100
 113125260.321 8  88149498.12246  21527003.914                    21527007.004
        50.200          37.300
                  85726703.942 6  20676998.125                    20677002.063
                        38.100
                  96433513.221 6  23210427.070                    23210429.094
                        36.900
                  89494691.489 6  21502568.648                    21502572.293
                        40.600
                  86661574.013 6  20873096.609                    20873097.805
                        41.500
 117083281.104 7  91233740.30744  22280208.063                    22280211.957
        42.200          28.800
 129232976.571 6 100701026.13444  24592217.695                    24592220.438
        41.500          29.000
                  82098891.637 7  19767196.625                    19767196.789
                        43.600
 117672091.302 7  91692709.88146  22392289.500                    22392296.395
        46.300          37.300
 115416810.175 8  89935176.06746  21963087.539                    21963090.262
        48.300          37.800
 124799921.882 7  97246719.86944  23748637.758                    23748640.457
        46.400          27.000
 110412979.884 7  86036100.56445  21010892.086                    21010895.105
        47.900          34.900
 18  3 16 10 25 48.0000000  0 15R01G27G30G15R10R16R17R18G20G21R09G08
                                G28G07G13
                  84017903.491 6  20207977.250                    20207980.141
                        39.900
 123163753.041 5  95971797.55044  23437285.156                    23437293.105
        34.100          26.500
 115890428.979 7  90304177.98346  22053216.672                    22053222.695
        47.200          37.000
 113124338.755 8  88148780.00246  21526828.734                    21526831.391
        50.000          37.500
                  85724431.143 6  20676450.867                    20676454.496
                        38.700
                  96437126.333 6  23211295.883                    23211299.090
                        37.300
                  89496870.001 6  21503091.258                    21503096.578
                        40.700
                  86660568.430 6  20872854.281                    20872855.543
                        41.200
 117085416.416 6  91235404.18644  22280614.703                    22280618.508
        41.800          28.800
 129235578.395 6 100703053.51844  24592713.047                    24592716.055
        41.100          27.500
                  82100035.558 7  19767472.023                    19767472.223
                        44.000
 117672447.113 7  91692987.12846  22392357.484                    22392363.918
        46.200          37.300
 115415412.984 7  89934087.35546  21962821.617                    21962824.441
        47.500          37.300
 124803559.291 7  97249554.21844  23749329.516                    23749332.512
        47.000          27.900
 110413819.740 8  86036754.98445  21011051.766                    21011055.078
        48.000          35.100
 18  3 16 10 25 49.0000000  0 15R01G27G30G15R10R16R17R18G20G21R09G08
                                G28G07G13
                  84016963.945 6  20207751.023                    20207754.016
                        39.600
 123166672.769 5  95974072.64044  23437841.188                    23437848.754
        34.600          27.000
 115893096.387 7  90306256.50446  22053724.492                    22053730.367
        46.600          37.100
 113123417.911 8  88148062.44046  21526653.258                    21526656.305
        49.800          37.600
                  85722158.813 6  20675901.711                    20675906.195
                        38.300
                  96440739.538 6  23212166.852                    23212168.914
                        37.000
                  89499049.153 6  21503614.898                    21503619.379
                        40.900
                  86659563.585 6  20872612.016                    20872613.414
                        41.000
 117087552.278 7  91237068.47844  22281023.688                    22281024.816
        43.200          28.800
 129238180.607 6 100705081.20944  24593208.414                    24593210.766
        41.600          28.300
                  82101180.110 7  19767747.797                    19767747.828
                        44.000
 117672803.685 7  91693264.96246  22392425.430                    22392431.434
        45.500          37.400
 115414016.362 7  89932999.08346  21962555.883                    21962558.750
        47.300          37.500
 124807196.972 7  97252388.77144  23750021.852                    23750025.352
        46.500          28.000
 110414660.357 8  86037409.99345  21011211.531                    21011215.090
        48.500          35.400
 18  3 16 10 25 50.0000000  0 15R01G27G30G15R10R16R17R18G20G21R09G08
                                G28G07G13
                  84016025.075 6  20207525.367                    20207527.996
                        39.700
 123169592.956 5  95976348.08344  23438397.031                    23438405.078
        35.600          27.100
 115895764.316 7  90308335.43746  22054232.398                    22054238.125
        47.200          37.500
 113122497.747 8  88147345.41046  21526478.133                    21526481.035
        49.900          37.200
                  85719886.981 6  20675354.648                    20675357.516
                        38.200
                  96444352.973 6  23213036.797                    23213038.281
                        36.800
                  89501228.959 6  21504138.695                    21504143.195
                        40.800
                  86658559.454 6  20872370.203                    20872371.469
                        40.900
 117089688.750 7  91238733.26244  22281430.500                    22281431.613
        42.900          28.000
 129240783.248 7 100707109.23044  24593703.539                    24593705.555
        42.400          28.400
                  82102325.324 7  19768023.125                    19768023.660
                        43.700
 117673160.988 7  91693543.36646  22392493.758                    22392499.645
        45.400          37.700
 115412620.307 7  89931911.25846  21962289.844                    21962292.578
        47.400          37.700
 124810834.965 7  97255223.58544  23750714.367                    23750717.484
        46.600          27.100
 110415501.704 8  86038065.58245  21011371.742                    21011375.480
        48.800          34.800
 18  3 16 10 25 51.0000000  0 15R01G27G30G15R10R16R17R18G20G21R09G08
                                G28G07G13
                  84015086.914 6  20207299.563                    20207302.691
                        39.500
 123172513.742 5  95978624.00044  23438952.234                    23438960.098
        35.200          27.000
 115898432.752 7  90310414.75446  22054739.773                    22054746.102
        47.100          37.100
 113121578.327 8  88146628.96746  21526302.883                    21526306.227
        50.200          37.300
                  85717615.694 6  20674807.836                    20674810.465
                        38.600
                  96447966.596 6  23213906.648                    23213908.363
                        36.700
                  89503409.392 6  21504663.461                    21504667.535
                        40.900
                  86657556.047 6  20872128.680                    20872129.621
                        40.900
 117091825.947 6  91240398.61544  22281834.078                    22281838.684
        41.000          29.200
 129243386.245 7 100709137.53344  24594199.648                    24594200.785
        43.200          28.500
                  82103471.190 7  19768298.531                    19768299.113
                        43.800
 117673519.023 7  91693822.33146  22392563.031                    22392567.902
        46.000          37.100
 115411224.853 7  89930823.91646  21962024.063                    21962027.563
        47.300          37.800
 124814473.253 7  97258058.62644  23751406.070                    23751409.867
        46.500          28.100
 110416343.781 8  86038721.75345  21011531.984                    21011535.277
        48.200          34.000
 18  3 16 10 25 52.0000000  0 15R01G27G30G15R10R16R17R18G20G21R09G08
                                G28G07G13
                  84014149.416 6  20207074.039                    20207077.480
                        39.600
 123175434.994 5  95980900.27044  23439508.414                    23439516.352
        35.500          28.100
 115901101.693 7  90312494.46246  22055247.727                    22055253.922
        47.300          37.900
 113120659.606 8  88145913.08846  21526128.117                    21526131.395
        50.200          37.000
                  85715344.869 6  20674257.578                    20674263.160
                        38.200
                  96451580.387 6  23214776.117                    23214778.016
                        36.900
                  89505590.438 6  21505188.938                    21505190.797
                        40.600
                  86656553.362 6  20871887.633                    20871888.270
                        40.900
 117093963.759 6  91242064.42644  22282242.047                    22282244.813
        41.500          28.300
 129245989.638 7 100711166.14444  24594695.172                    24594696.152
        43.300          28.800
                  82104617.738 7  19768575.570                    19768575.344
                        43.700
 117673877.767 7  91694101.85146  22392631.945                    22392636.395
        46.200          37.500
 115409829.953 7  89929737.01646  21961759.141                    21961761.996
        47.900          37.900
 124818111.824 7  97260893.89144  23752098.523                    23752102.531
        46.800          28.900
 110417186.604 8  86039378.50545  21011692.469                    21011695.473
        48.700          34.500
 18  3 16 10 25 53.0000000  0 15R01G27G30G15R10R16R17R18G20G21R09G08
                                G28G07G13
                  84013212.626 6  20206848.813                    20206851.414
                        39.700
 123178356.734 5  95983176.92844  23440065.930                    23440072.012
        35.800          28.100
 115903771.137 7  90314574.55846  22055755.734                    22055761.898
        47.000          37.800
 113119741.527 8  88145197.71146  21525953.508                    21525956.824
        50.000          36.900
                  85713074.543 6  20673711.695                    20673714.957
                        38.300
                  96455194.349 5  23215644.773                    23215647.488
                        35.900
                  89507772.033 6  21505713.719                    21505714.770
                        40.500
                  86655551.355 6  20871646.820                    20871646.875
                        41.100
 117096102.128 7  91243730.66744  22282650.719                    22282651.813
        43.500          29.000
 129248593.358 7 100713195.02144  24595190.047                    24595192.133
        43.500          28.300
                  82105764.930 7  19768851.398                    19768851.719
                        43.700
 117674237.204 7  91694381.91446  22392700.320                    22392704.426
        46.200          37.600
 115408435.548 8  89928650.49346  21961493.984                    21961496.438
        48.100          37.400
 124821750.634 7  97263729.33144  23752790.898                    23752795.188
        46.800          26.800
 110418030.104 8  86040035.79345  21011853.031                    21011856.242
        48.800          34.800
 18  3 16 10 25 54.0000000  0 15R01G27G30G15R10R16R17R18G20G21R09G08
                                G28G07G13
                  84012276.560 6  20206623.563                    20206626.684
                        39.600
 123181279.014 6  95985454.01044  23440622.266                    23440628.527
        37.100          27.400
 115906441.108 7  90316655.06346  22056263.563                    22056269.988
        46.500          37.700
 113118824.127 8  88144482.86246  21525779.070                    21525782.664
        49.900          37.000
                  85710804.738 6  20673164.648                    20673168.395
                        38.300
                  96458808.486 5  23216515.570                    23216517.793
                        35.600
                  89509954.261 6  21506238.609                    21506238.762
                        40.300
                  86654550.102 6  20871404.828                    20871405.430
                        41.100
 117098241.085 7  91245397.37144  22283057.117                    22283059.367
        43.100          28.800
 129251197.511 7 100715224.23644  24595685.742                    24595687.773
        43.900          29.400
                  82106912.798 7  19769127.336                    19769128.199
                        43.600
 117674597.427 7  91694662.59546  22392769.391                    22392773.270
        46.300          36.300
 115407041.740 7  89927564.41846  21961228.789                    21961231.402
        47.800          37.700
 124825389.749 7  97266564.99844  23753483.289                    23753487.801
        47.000          27.500
 110418874.326 8  86040693.64645  21012013.602                    21012016.820
        49.000          34.800
 18  3 16 10 25 55.0000000  0 15R01G27G30G15R10R16R17R18G20G21R09G08
                                G28G07G13
                  84011341.207 6  20206398.813                    20206401.945
                        39.600
 123184201.809 6  95987731.50645  23441177.938                    23441184.605
        37.900          30.700
 115909111.557 7  90318735.93246  22056772.352                    22056777.828
        47.400          37.300
 113117907.418 8  88143768.53546  21525604.367                    21525607.531
        50.100          37.000
                  85708535.374 6  20672614.602                    20672620.773
                        37.900
                  96462422.822 5  23217384.984                    23217387.539
                        34.600
                  89512137.139 6  21506762.602                    21506763.199
                        39.900
                  86653549.577 6  20871163.641                    20871164.703
                        41.000
 117100380.724 6  91247064.61444  22283462.078                    22283466.078
        41.700          28.900
 129253802.031 7 100717253.74844  24596180.922                    24596183.355
        43.500          29.100
                  82108061.373 7  19769404.375                    19769404.238
                        43.900
 117674958.371 7  91694943.84146  22392838.094                    22392841.656
        46.700          36.600
 115405648.484 7  89926478.76146  21960962.664                    21960966.016
        47.100          37.500
 124829029.191 7  97269400.91844  23754175.805                    23754180.078
        46.400          25.400
 110419719.278 8  86041352.05245  21012174.063                    21012177.594
        48.600          35.400
 18  3 16 10 25 56.0000000  0 15R01G27G30G15R10R16R17R18G20G21R09G08
                                G28G07G13
                  84010406.562 6  20206173.836                    20206176.660
                        39.700
 123187125.161 6  95990009.43545  23441734.930                    23441740.863
        39.400          31.400
 115911782.557 7  90320817.23346  22057280.055                    22057286.238
        47.200          37.500
 113116991.463 8  88143054.79646  21525430.414                    21525433.277
        50.300          37.100
                  85706266.567 6  20672069.727                    20672073.238
                        38.100
                  96466037.353 5  23218254.047                    23218256.859
                        35.000
                  89514320.662 6  21507287.281                    21507287.742
                        40.400
                  86652549.813 6  20870923.172                    20870924.199
                        41.200
 117102521.024 7  91248732.35544  22283870.523                    22283873.496
        42.400          29.100
 129256406.961 7 100719283.56744  24596675.648                    24596679.008
        43.300          28.200
                  82109210.621 7  19769681.141                    19769681.168
                        43.700
 117675320.049 7  91695225.67046  22392906.984                    22392910.875
        47.500          37.100
 115404255.813 7  89925393.56746  21960697.797                    21960700.996
        46.800          37.300
 124832668.899 7  97272237.05944  23754868.648                    23754872.391
        46.200          26.900
 110420564.946 8  86042011.01745  21012335.344                    21012338.590
        48.500          34.800
 18  3 16 10 25 57.0000000  0 15R01G27G30G15R10R16R17R18G20G21R09G08
                                G28G07G13
                  84009472.611 6  20205949.031                    20205952.051
                        39.400
 123190049.122 6  95992287.84445  23442291.609                    23442297.320
        39.700          31.800
 115914454.121 7  90322898.98046  22057788.414                    22057794.168
        47.600          37.100
 113116076.244 8  88142341.63146  21525256.016                    21525258.855
        50.700          37.500
                  85703998.253 6  20671522.383                    20671526.805
                        38.500
                  96469652.106 5  23219124.563                    23219126.887
                        35.700
                  89516504.873 6  21507811.695                    21507812.656
                        40.900
                  86651550.816 6  20870682.570                    20870683.813
                        41.000
 117104662.005 7  91250400.64244  22284278.742                    22284281.230
        43.000          28.500
 129259012.354 7 100721313.75044  24597171.352                    24597174.461
        42.600          27.900
                  82110360.591 7  19769957.836                    19769958.164
                        43.900
 117675682.539 8  91695508.13846  22392975.625                    22392980.012
        48.400          37.100
 115402863.778 7  89924308.87946  21960433.641                    21960436.195
        47.500          37.600
 124836308.979 7  97275073.50844  23755561.711                    23755565.098
        46.500          26.500
 110421411.397 8  86042670.59245  21012496.313                    21012499.805
        48.300          34.700
 18  3 16 10 25 58.0000000  0 15R01G27G30G15R10R16R17R18G20G21R09G08
                                G28G07G13
                  84008539.382 6  20205724.641                    20205727.906
                        39.600
 123192973.585 6  95994566.64645  23442847.672                    23442853.781
        40.300          33.100
 115917126.229 8  90324981.14646  22058297.211                    22058302.879
        48.300          37.500
 113115161.786 8  88141629.06946  21525082.172                    21525084.840
        50.800          37.900
                  85701730.468 6  20670975.789                    20670978.777
                        38.500
                  96473267.096 6  23219995.875                    23219997.508
                        36.100
                  89518689.732 6  21508336.695                    21508337.742
                        40.900
                  86650552.603 6  20870440.961                    20870442.953
                        40.600
 117106803.658 7  91252069.46044  22284686.133                    22284688.688
        43.300          28.100
 129261618.174 7 100723344.24844  24597667.547                    24597670.223
        42.700          28.300
                  82111511.224 7  19770234.633                    19770234.852
                        43.700
 117676045.817 8  91695791.23246  22393043.883                    22393048.836
        48.900          37.100
 115401472.342 8  89923224.65846  21960169.078                    21960171.711
        48.400          37.900
 124839949.391 7  97277910.22244  23756254.984                    23756257.918
        46.900          25.500
 110422258.652 8  86043330.78645  21012657.766                    21012660.484
        48.600          34.900
 18  3 16 10 25 59.0000000  0 15R01G27G30G15R10R16R17R18G20G21R09G08
                                G28G07G13
                  84007606.883 6  20205500.586                    20205503.617
                        39.900
 123195898.630 6  95996845.90145  23443404.211                    23443410.324
        40.400          32.500
 115919798.870 8  90327063.71646  22058805.484                    22058811.582
        48.200          37.100
 113114248.058 8  88140917.08946  21524908.320                    21524911.441
        50.500          37.400
                  85699463.227 6  20670428.758                    20670432.824
                        38.100
                  96476882.285 5  23220865.703                    23220867.320
                        35.900
                  89520875.237 6  21508861.273                    21508863.008
                        40.700
                  86649555.118 6  20870201.328                    20870202.703
                        41.200
 117108945.958 7  91253738.79144  22285092.609                    22285096.168
        43.300          27.500
 129264224.440 7 100725375.09744  24598164.031                    24598166.547
        42.200          27.400
                  82112662.518 7  19770512.484                    19770512.809
                        43.600
 117676409.875 8  91696074.93046  22393113.516                    22393118.500
        49.200          37.000
 115400081.500 8  89922140.89446  21959904.305                    21959906.918
        48.700          37.800
 124843590.085 7  97280747.15944  23756947.469                    23756950.871
        46.600          26.500
 110423106.593 8  86043991.50945  21012819.336                    21012822.035
        48.500          34.800
 18  3 16 10 26  0.0000000  0 15R01G27G30G15R10R16R17R18G20G21R09G08
                                G28G07G13
                  84006675.033 6  20205275.953                    20205279.129
                        39.900
 123198824.181 6  95999125.53945  23443961.711                    23443967.250
        41.000          32.500
 115922472.008 8  90329146.66446  22059314.445                    22059320.242
        48.300          37.300
 113113334.955 8  88140205.59246  21524734.539                    21524738.055
        50.900          37.700
                  85697196.432 6  20669880.602                    20669884.844
                        38.500
                  96480497.573 5  23221736.094                    23221737.262
                        35.700
                  89523061.363 6  21509386.039                    21509387.879
                        41.900
                  86648558.356 6  20869961.578                    20869962.777
                        41.000
 117111088.890 7  91255408.60944  22285500.641                    22285503.824
        42.900          27.900
 129266831.010 6 100727406.17343  24598660.320                    24598662.766
        39.000          22.600
                  82113814.478 7  19770789.313                    19770789.871
                        43.700
 117676774.629 8  91696359.17346  22393182.438                    22393187.641
        49.400          37.200
 115398691.194 8  89921057.53746  21959639.641                    21959642.219
        48.300          37.700
 124847231.048 7  97283584.30244  23757640.414                    23757643.430
        47.100          26.000
 110423955.278 8  86044652.81345  21012980.578                    21012983.875
        48.400          35.000
 18  3 16 10 26  1.0000000  0 15R01G27G30G15R10R16R17R18G20G21R09G08
                                G28G07G13
                  84005743.936 6  20205052.305                    20205055.344
                        40.100
 123201750.298 7  96001405.61345  23444518.555                    23444523.828
        42.500          33.300
 115925145.709 8  90331230.05046  22059822.945                    22059829.121
        48.200          37.400
 113112422.636 8  88139494.69945  21524560.844                    21524564.273
        49.300          35.800
                  85694930.204 6  20669335.086                    20669338.922
                        38.200
                  96484113.096 6  23222606.938                    23222607.957
                        36.700
                  89525248.131 6  21509911.305                    21509913.934
                        41.300
                  86647562.354 6  20869722.250                    20869723.207
                        41.000
 117113232.513 7  91257078.96744  22285909.852                    22285911.551
        43.100          26.400
 129269438.051 7 100729437.61244  24599157.016                    24599158.301
        42.800          25.600
                  82114967.130 7  19771067.586                    19771067.406
                        43.500
 117677140.178 8  91696644.03546  22393251.578                    22393257.066
        50.200          38.100
 115397301.503 7  89919974.66146  21959374.289                    21959377.621
        47.600          37.000
 124850872.350 7  97286421.68644  23758333.078                    23758335.949
        47.400          26.200
 110424804.738 8  86045314.72845  21013142.070                    21013145.742
        48.900          35.600
 18  3 16 10 26  2.0000000  0 15R01G27G30G15R10R16R17R18G20G21R09G08
                                G28G07G13
                  84004813.538 6  20204828.344                    20204830.926
                        39.400
 123204676.982 7  96003686.13945  23445075.180                    23445081.172
        42.600          33.700
 115927819.978 8  90333313.88346  22060331.500                    22060337.961
        48.100          36.400
 113111511.053 8  88138784.37946  21524387.578                    21524390.590
        51.000          37.500
                  85692664.468 6  20668787.867                    20668792.500
                        37.800
                  96487728.819 6  23223476.359                    23223477.699
                        36.400
                  89527435.529 6  21510436.461                    21510439.871
                        41.100
                  86646567.106 6  20869482.938                    20869483.609
                        41.000
 117115376.782 7  91258749.81344  22286318.039                    22286319.473
        43.100          28.200
 129272045.494 7 100731469.36644  24599652.742                    24599654.254
        44.100          28.900
                  82116120.497 7  19771344.320                    19771345.445
                        43.600
 117677506.479 8  91696929.46946  22393321.008                    22393326.859
        50.100          37.500
 115395912.373 7  89918892.22946  21959110.133                    21959113.461
        47.500          38.100
 124854513.964 7  97289259.30944  23759026.336                    23759028.703
        47.000          27.600
 110425654.937 8  86045977.20945  21013303.727                    21013307.219
        49.000          35.400
 18  3 16 10 26  3.0000000  0 15R01G27G30G15R10R16R17R18G20G21R09G08
                                G28G07G13
                  84003883.840 6  20204605.188                    20204607.582
                        39.700
 123207604.206 7  96005967.09145  23445632.344                    23445637.965
        43.200          34.000
 115930494.742 7  90335398.10046  22060840.836                    22060846.973
        47.500          36.600
 113110600.140 8  88138074.56646  21524213.844                    21524217.203
        50.700          36.900
                  85690399.253 6  20668242.609                    20668246.422
                        37.900
                  96491344.746 6  23224347.078                    23224348.137
                        36.500
                  89529623.540 6  21510963.336                    21510965.195
                        41.300
                  86645572.580 6  20869243.281                    20869243.992
                        40.800
 117117521.687 7  91260421.18244  22286724.688                    22286728.301
        42.300          27.800
 129274653.334 7 100733501.44644  24600149.570                    24600150.805
        44.900          28.700
                  82117274.555 7  19771622.633                    19771622.813
                        43.900
 117677873.534 8  91697215.48346  22393390.602                    22393396.832
        49.800          36.900
 115394523.813 8  89917810.23746  21958846.680                    21958849.129
        48.400          37.300
 124858155.851 7  97292097.15144  23759718.727                    23759721.953
        46.100          27.200
 110426505.865 8  86046640.27145  21013465.992                    21013468.828
        49.200          35.500
 18  3 16 10 26  4.0000000  0 15R01G27G30G15R10R16R17R18G20G21R09G08
                                G28G07G13
                  84002954.813 6  20204381.703                    20204384.695
                        39.600
 123210531.910 7  96008248.42545  23446189.969                    23446195.348
        43.900          34.000
 115933170.024 7  90337482.71546  22061350.211                    22061356.031
        47.300          37.300
 113109689.923 8  88137365.30046  21524040.516                    21524043.922
        50.400          37.200
                  85688134.500 6  20667696.359                    20667700.059
                        38.500
                  96494960.840 6  23225217.938                    23225219.082
                        36.500
                  89531812.175 6  21511489.773                    21511491.344
                        41.500
                  86644578.754 6  20869003.031                    20869004.699
                        41.000
 117119667.195 7  91262093.00744  22287132.617                    22287135.484
        42.900          29.400
 129277261.530 7 100735533.81644  24600645.750                    24600647.629
        45.200          29.300
                  82118429.226 7  19771900.617                    19771900.824
                        43.700
 117678241.281 8  91697502.02846  22393460.672                    22393466.680
        49.300          36.900
 115393135.794 8  89916728.65546  21958582.891                    21958584.949
        48.600          37.700
 124861798.002 7  97294935.20244  23760411.617                    23760415.352
        46.000          27.700
 110427357.472 8  86047303.86245  21013627.969                    21013631.141
        49.100          35.100
 18  3 16 10 26  5.0000000  0 15R01G27G30G15R10R16R17R18G20G21R09G08
                                G28G07G13
                  84002026.472 6  20204157.891                    20204161.055
                        40.000
 123213460.150 7  96010530.17145  23446746.875                    23446752.355
        44.700          33.700
 115935845.828 7  90339567.75746  22061859.484                    22061865.465
        47.400          37.500
 113108780.396 8  88136656.58246  21523867.844                    21523870.828
        50.500          37.100
                  85685870.261 6  20667149.750                    20667153.555
                        38.000
                  96498577.152 6  23226087.961                    23226089.277
                        36.400
                  89534001.423 6  21512016.234                    21512017.242
                        40.800
                  86643585.650 6  20868763.805                    20868765.340
                        40.600
 117121813.278 7  91263765.25844  22287542.289                    22287544.547
        43.900          26.800
 129279870.118 7 100737566.49844  24601142.195                    24601143.887
        45.200          29.400
                  82119584.560 7  19772179.148                    19772179.488
                        43.900
 117678609.788 8  91697789.17846  22393530.344                    22393537.023
        49.700          36.700
 115391748.351 8  89915647.50646  21958318.711                    21958320.621
        48.800          37.900
 124865440.459 7  97297773.48444  23761104.695                    23761108.547
        45.900          27.300
 110428209.822 8  86047968.03545  21013790.070                    21013793.387
        48.400          34.900
 18  3 16 10 26  6.0000000  0 15R01G27G30G15R10R16R17R18G20G21R09G08
                                G28G07G13
                  84001098.810 6  20203934.430                    20203938.023
                        39.400
 123216388.917 7  96012812.32445  23447304.094                    23447309.848
        44.600          33.700
 115938522.164 7  90341653.22546  22062368.289                    22062374.988
        47.100          37.100
 113107871.602 8  88135948.43346  21523694.883                    21523698.438
        50.200          36.800
                  85683606.514 6  20666601.922                    20666606.570
                        38.400
                  96502193.608 6  23226957.711                    23226959.902
                        36.900
                  89536191.304 6  21512543.133                    21512543.090
                        40.700
                  86642593.329 6  20868525.352                    20868526.566
                        41.100
 117123960.023 7  91265438.04844  22287950.109                    22287953.242
        43.100          27.900
 129282479.118 7 100739599.49444  24601638.258                    24601640.699
        45.000          28.100
                  82120740.586 7  19772457.211                    19772457.348
                        43.900
 117678979.019 8  91698076.89246  22393600.383                    22393607.055
        49.500          36.700
 115390361.517 7  89914566.84046  21958054.508                    21958057.457
        47.900          37.900
 124869083.209 7  97300611.98644  23761797.539                    23761801.852
        46.000          28.300
 110429062.941 8  86048632.81245  21013952.641                    21013955.863
        48.900          34.900
 18  3 16 10 26  7.0000000  0 15R01G27G30G15R10R16R17R18G20G21R09G08
                                G28G07G13
                  84000171.876 6  20203711.797                    20203715.016
                        39.000
 123219318.212 7  96015094.89045  23447861.641                    23447867.012
        44.100          33.100
 115941199.063 7  90343739.12946  22062877.711                    22062883.941
        47.600          37.600
 113106963.512 8  88135240.84046  21523521.789                    21523525.301
        50.500          36.200
                  85681343.355 6  20666058.789                    20666061.211
                        37.900
                  96505810.254 6  23227828.156                    23227830.496
                        37.000
                  89538381.854 6  21513069.672                    21513069.801
                        40.800
                  86641601.746 6  20868285.492                    20868287.625
                        40.900
 117126107.424 7  91267111.34044  22288358.258                    22288362.070
        43.100          28.500
 129285088.512 7 100741632.80144  24602135.055                    24602136.973
        45.200          29.200
                  82121897.291 7  19772736.422                    19772736.305
                        43.700
 117679349.053 8  91698365.22646  22393670.578                    22393677.367
        49.400          37.400
 115388975.272 7  89913486.64446  21957790.250                    21957793.254
        47.900          37.600
 124872726.255 7  97303450.71244  23762490.703                    23762495.059
        45.800          28.500
 110429916.752 8  86049298.13045  21014115.203                    21014118.301
        48.700          34.700
 18  3 16 10 26  8.0000000  0 15R01G27G30G15R10R16R17R18G20G21R09G08
                                G28G07G13
                  83999245.614 6  20203489.422                    20203492.535
                        39.100
 123222248.062 7  96017377.87745  23448419.664                    23448424.445
        44.600          33.000
 115943876.438 8  90345825.39246  22063387.977                    22063393.855
        48.200          36.900
 113106056.124 8  88134533.79846  21523349.008                    21523352.676
        50.400          36.100
                  85679080.629 6  20665511.609                    20665516.082
                        37.900
                  96509427.054 6  23228699.102                    23228701.488
                        36.000
                  89540573.001 6  21513595.797                    21513596.027
                        41.100
                  86640610.886 6  20868046.211                    20868048.605
                        41.000
 117128255.470 7  91268785.11944  22288767.383                    22288770.344
        43.400          28.700
 129287698.309 7 100743666.42044  24602631.352                    24602633.770
        44.900          29.500
                  82123054.644 7  19773014.023                    19773014.766
                        43.900
 117679719.808 8  91698654.12946  22393741.023                    22393747.953
        48.700          37.000
 115387589.601 8  89912406.90846  21957526.602                    21957529.902
        48.100          37.700
 124876369.612 7  97306289.68044  23763184.586                    23763188.309
        46.300          27.700
 110430771.316 8  86049964.02445  21014277.492                    21014280.656
        48.300          34.300
 18  3 16 10 26  9.0000000  0 15R01G27G30G15R10R16R17R18G20G21R09G08
                                G28G07G13
                  83998320.089 6  20203266.945                    20203269.461
                        39.100
 123225178.455 7  96019661.28145  23448977.180                    23448981.977
        44.600          33.300
 115946554.353 8  90347912.06646  22063897.195                    22063902.930
        48.700          37.400
 113105149.438 8  88133827.29546  21523176.383                    21523179.754
        50.500          36.800
                  85676818.432 6  20664965.531                    20664969.871
                        38.100
                  96513044.040 6  23229570.586                    23229571.816
                        36.900
                  89542764.788 6  21514122.000                    21514122.531
                        41.000
                  86639620.726 6  20867807.406                    20867810.434
                        41.200
 117130404.061 7  91270459.32444  22289177.727                    22289179.344
        43.800          28.700
 129290308.501 7 100745700.33344  24603127.477                    24603130.348
        43.800          28.200
                  82124212.653 7  19773292.898                    19773293.535
                        43.600
 117680091.319 8  91698943.61746  22393812.164                    22393818.914
        48.100          36.300
 115386204.482 8  89911327.61446  21957263.375                    21957266.379
        48.400          37.300
 124880013.284 7  97309128.90444  23763878.164                    23763882.129
        46.200          26.600
 110431626.611 8  86050630.48445  21014440.063                    21014443.176
        48.100          34.700
 18  3 16 10 26 10.0000000  0 15R01G27G30G15R10R16R17R18G20G21R09G08
                                G28G07G13
                  83997395.228 6  20203043.977                    20203047.195
                        38.800
 123228109.356 7  96021945.10045  23449534.961                    23449540.168
        44.400          32.600
 115949232.773 8  90349999.14346  22064406.813                    22064412.770
        48.300          37.800
 113104243.398 8  88133121.29646  21523004.211                    21523007.512
        50.100          36.400
                  85674556.740 6  20664422.383                    20664424.781
                        37.900
                  96516661.154 6  23230439.188                    23230441.945
                        36.900
                  89544957.166 6  21514647.875                    21514648.664
                        40.500
                  86638631.288 6  20867568.898                    20867572.219
                        41.100
 117132553.311 7  91272134.03444  22289586.227                    22289588.871
        43.700          28.600
 129292919.059 7 100747734.53444  24603624.789                    24603627.043
        44.000          28.700
                  82125371.322 7  19773571.672                    19773571.988
                        43.700
 117680463.564 8  91699233.67846  22393883.133                    22393889.406
        48.000          36.500
 115384819.915 8  89910248.73146  21957000.219                    21957002.797
        48.500          37.500
 124883657.204 7  97311968.31944  23764571.797                    23764574.637
        46.500          26.300
 110432482.650 8  86051297.52545  21014603.297                    21014606.066
        48.100          35.200
 18  3 16 10 26 11.0000000  0 15R01G27G30G15R10R16R17R18G20G21R09G08
                                G28G07G13
                  83996471.117 6  20202821.930                    20202825.332
                        38.900
 123231040.789 7  96024229.33745  23450092.211                    23450097.734
        44.100          30.600
 115951911.689 7  90352086.59746  22064916.844                    22064922.566
        47.700          37.400
 113103338.099 8  88132415.85846  21522831.977                    21522835.398
        50.300          36.900
                  85672295.534 6  20663874.469                    20663879.598
                        38.200
                  96520278.527 6  23231310.000                    23231312.750
                        36.400
                  89547150.204 6  21515174.969                    21515175.504
                        40.400
                  86637642.625 6  20867331.023                    20867334.516
                        41.000
 117134703.199 7  91273809.24144  22289994.211                    22289997.613
        42.900          28.100
 129295530.012 7 100749769.04344  24604121.703                    24604123.711
        43.900          28.300
                  82126530.621 7  19773851.141                    19773851.164
                        43.700
 117680836.550 7  91699524.31246  22393954.133                    22393960.527
        47.600          36.600
 115383435.929 8  89909170.28746  21956736.555                    21956739.152
        48.100          37.900
 124887301.438 7  97314807.98744  23765265.281                    23765268.410
        46.800          26.300
 110433339.375 7  86051965.10945  21014766.516                    21014769.367
        47.700          35.000
 18  3 16 10 26 12.0000000  0 15R01G27G30G15R10R16R17R18G20G21R09G08
                                G28G07G13
                  83995547.672 6  20202599.867                    20202602.688
                        38.900
 123233972.740 7  96026513.97944  23450650.531                    23450655.691
        44.600          29.700
 115954591.161 7  90354174.49146  22065426.320                    22065432.473
        47.300          37.000
 113102433.496 8  88131710.96246  21522659.828                    21522662.828
        50.700          36.300
                  85670034.790 6  20663329.883                    20663333.832
                        37.900
                  96523896.038 6  23232179.820                    23232182.613
                        36.000
                  89549343.854 6  21515700.914                    21515701.910
                        40.500
                  86636654.715 6  20867092.266                    20867096.512
                        40.900
 117136853.672 7  91275484.88144  22290404.758                    22290406.609
        43.700          28.600
 129298141.366 7 100751803.87244  24604617.969                    24604620.879
        43.900          28.600
                  82127690.598 7  19774130.469                    19774130.379
                        43.700
 117681210.250 7  91699815.49946  22394025.617                    22394031.602
        47.700          36.700
 115382052.439 7  89908092.21346  21956472.984                    21956476.125
        47.500          37.100
 124890945.939 7  97317647.85644  23765958.867                    23765962.324
        47.400          27.800
 110434196.838 7  86052633.26145  21014929.320                    21014932.727
        47.900          35.100
 18  3 16 10 26 13.0000000  0 15R01G27G30G15R10R16R17R18G20G21R09G08
                                G28G07G13
                  83994624.918 6  20202377.984                    20202381.211
                        38.900
 123236905.247 7  96028799.04545  23451208.430                    23451214.023
        44.700          31.200
 115957271.131 7  90356262.77446  22065936.219                    22065942.445
        47.500          36.800
 113101529.588 8  88131006.61146  21522487.750                    21522491.020
        50.200          36.400
                  85667774.566 6  20662785.352                    20662788.711
                        37.900
                  96527513.809 6  23233051.984                    23233053.902
                        36.400
                  89551538.102 6  21516227.555                    21516229.445
                        40.900
                  86635667.521 6  20866855.758                    20866858.434
                        41.000
 117139004.753 7  91277160.98844  22290814.070                    22290816.621
        43.400          27.100
 129300753.104 7 100753838.98644  24605114.469                    24605117.949
        43.700          28.100
                  82128851.250 7  19774410.266                    19774410.137
                        43.600
 117681584.697 7  91700107.27446  22394097.070                    22394102.695
        47.800          36.700
 115380669.511 7  89907014.57246  21956209.750                    21956212.492
        47.200          36.500
 124894590.743 7  97320487.98244  23766653.219                    23766655.809
        47.800          26.500
 110435055.016 8  86053301.97145  21015092.664                    21015095.520
        48.100          34.200
 18  3 16 10 26 14.0000000  0 15R01G27G30G15R10R16R17R18G20G21R09G08
                                G28G07G13
                  83993702.857 6  20202156.469                    20202159.414
                        39.300
 123239838.271 7  96031084.52144  23451766.445                    23451771.680
        44.500          29.300
 115959951.631 7  90358351.46146  22066446.500                    22066452.508
        47.600          36.800
 113100626.411 8  88130302.83546  21522316.359                    21522319.488
        50.300          36.800
                  85665514.813 6  20662239.813                    20662243.887
                        37.700
                  96531131.698 6  23233922.398                    23233923.887
                        36.300
                  89553732.988 6  21516754.570                    21516756.313
                        40.700
                  86634681.056 6  20866618.695                    20866620.293
                        41.100
 117141156.594 7  91278837.70644  22291222.016                    22291225.805
        42.900          27.800
 129303365.230 7 100755874.40144  24605611.828                    24605614.840
        43.900          28.300
                  82130012.567 7  19774689.477                    19774689.727
                        43.700
 117681959.925 7  91700399.65446  22394168.508                    22394174.520
        47.300          36.800
 115379287.217 8  89905937.41746  21955947.258                    21955949.422
        48.000          37.400
 124898235.841 7  97323328.34444  23767346.008                    23767348.730
        47.800          27.000
 110435913.923 7  86053971.24745  21015256.344                    21015259.422
        47.800          35.100
 18  3 16 10 26 15.0000000  0 15R01G27G30G15R10R16R17R18G20G21R09G08
                                G28G07G13
                  83992781.483 6  20201934.664                    20201937.906
                        39.400
 123242771.827 7  96033370.41344  23452324.609                    23452330.074
        44.300          27.300
 115962632.700 7  90360440.59846  22066957.055                    22066962.625
        47.900          37.400
 113099723.910 8  88129599.59446  21522144.422                    21522147.473
        50.300          37.100
                  85663255.551 6  20661695.695                    20661698.688
                        37.900
                  96534749.805 6  23234793.867                    23234795.367
                        36.200
                  89555928.523 6  21517281.508                    21517283.727
                        40.600
                  86633695.313 6  20866381.773                    20866382.742
                        40.800
 117143309.063 7  91280514.93544  22291632.578                    22291635.633
        43.700          27.800
 129305977.755 7 100757910.12544  24606109.313                    24606111.605
        43.700          28.900
                  82131174.531 7  19774968.969                    19774969.113
                        43.700
 117682335.873 7  91700692.60446  22394239.914                    22394245.730
        47.000          36.500
 115377905.479 8  89904860.70646  21955684.797                    21955686.906
        48.500          37.000
 124901881.223 8  97326168.93944  23768039.586                    23768042.320
        48.000          26.400
 110436773.576 7  86054641.10445  21015420.125                    21015423.066
        47.800          34.800
 18  3 16 10 26 16.0000000  0 15R01G27G30G15R10R16R17R18G20G21R09G08
                                G28G07G13
                  83991860.778 6  20201713.031                    20201716.176
                        38.900
 123245705.905 7  96035656.70844  23452882.945                    23452888.203
        44.500          25.500
 115965314.276 7  90362530.15046  22067467.023                    22067473.180
        47.900          37.300
 113098822.110 8  88128896.89646  21521972.945                    21521975.844
        50.300          36.800
                  85660996.796 6  20661150.828                    20661154.078
                        37.600
                  96538368.095 5  23235664.648                    23235666.199
                        35.800
                  89558124.655 6  21517809.008                    21517811.785
                        40.400
                  86632710.302 6  20866144.531                    20866146.313
                        40.900
 117145462.116 7  91282192.65644  22292041.555                    22292045.617
        42.500          28.500
 129308590.645 7 100759946.13944  24606606.695                    24606609.273
        43.500          29.100
                  82132337.160 7  19775249.070                    19775249.281
                        43.600
 117682712.556 7  91700986.12546  22394311.758                    22394317.664
        47.100          37.100
 115376524.265 8  89903784.40046  21955421.758                    21955424.145
        48.600          37.700
 124905526.842 7  97329009.70644  23768733.141                    23768736.148
        47.900          27.700
 110437633.967 8  86055311.53545  21015583.313                    21015586.098
        48.300          34.600
 18  3 16 10 26 17.0000000  0 15R01G27G30G15R10R16R17R18G20G21R09G08
                                G28G07G13
                  83990940.760 6  20201492.469                    20201495.207
                        39.200
 123248640.476 7  96037943.39843  23453441.195                    23453446.563
        44.500          23.900
 115967996.411 7  90364620.16746  22067977.281                    22067983.809
        47.200          37.300
 113097920.982 8  88128194.71446  21521801.477                    21521804.426
        50.500          37.000
                  85658738.577 6  20660606.414                    20660609.547
                        37.900
                  96541986.495 6  23236535.883                    23236537.449
                        36.300
                  89560321.353 6  21518337.734                    21518339.723
                        40.500
                  86631725.968 6  20865908.461                    20865909.012
                        40.600
 117147615.793 7  91283870.85244  22292451.922                    22292454.887
        43.100          28.000
 129311203.939 7 100761982.46644  24607103.945                    24607106.465
        43.200          29.600
                  82133500.412 7  19775529.188                    19775529.539
                        43.600
 117683089.959 7  91701280.20846  22394383.328                    22394389.293
        47.300          36.600
 115375143.594 7  89902708.50546  21955158.289                    21955161.707
        47.900          38.100
 124909172.773 7  97331850.70444  23769426.789                    23769430.051
        46.900          26.900
 110438495.021 8  86055982.48845  21015747.242                    21015750.242
        48.100          34.800
 18  3 16 10 26 18.0000000  0 15R01G27G30G15R10R16R17R18G20G21R09G08
                                G28G07G13
                  83990021.471 6  20201270.742                    20201273.883
                        39.300
 123251575.626 7  96040230.56544  23453999.945                    23454005.238
        44.100          24.500
 115970679.071 7  90366710.60446  22068487.406                    22068494.086
        47.500          37.100
 113097020.581 8  88127493.10446  21521630.141                    21521632.980
        50.700          36.800
                  85656480.865 6  20660060.469                    20660065.430
                        37.600
                  96545605.115 5  23237406.305                    23237407.617
                        35.700
                  89562518.722 6  21518866.211                    21518868.035
                        40.800
                  86630742.387 6  20865671.203                    20865671.695
                        40.800
 117149770.112 7  91285549.52844  22292863.430                    22292865.055
        44.200          28.500
 129313817.626 7 100764019.09044  24607601.539                    24607603.832
        43.400          28.200
                  82134664.345 7  19775809.156                    19775809.430
                        43.400
 117683468.114 7  91701574.87346  22394455.703                    22394461.254
        47.200          36.700
 115373763.541 7  89901633.09946  21954895.680                    21954898.805
        47.300          37.600
 124912818.993 7  97334691.90344  23770120.148                    23770123.691
        46.600          27.700
 110439356.841 7  86056654.03645  21015911.172                    21015914.199
        47.800          34.600
 18  3 16 10 26 19.0000000  0 15R01G27G30G15R10R16R17R18G20G21R09G08
                                G28G07G13
                  83989102.911 6  20201049.859                    20201053.180
                        39.100
 123254511.262 7  96042518.10843  23454558.469                    23454563.195
        43.800          22.600
 115973362.245 7  90368801.44146  22068998.688                    22069004.707
        47.600          37.400
 113096120.884 8  88126792.03846  21521458.727                    21521461.953
        50.600          36.700
                  85654223.637 6  20659516.328                    20659520.227
                        37.500
                  96549223.942 6  23238278.430                    23238279.621
                        36.400
                  89564716.723 6  21519394.352                    21519397.164
                        40.800
                  86629759.550 6  20865435.469                    20865434.977
                        40.900
 117151925.087 7  91287228.73944  22293270.977                    22293275.074
        42.600          27.900
 129316431.713 7 100766056.03344  24608100.031                    24608101.578
        44.100          27.900
                  82135828.976 7  19776089.938                    19776090.094
                        43.700
 117683847.035 7  91701870.12746  22394528.531                    22394533.270
        47.300          37.000
 115372384.105 8  89900558.18646  21954633.586                    21954636.172
        48.100          37.400
 124916465.510 7  97337533.33444  23770813.953                    23770818.203
        45.900          27.000
 110440219.385 7  86057326.14445  21016075.164                    21016078.430
        47.700          34.400
 18  3 16 10 26 20.0000000  0 15R01G27G30G15R10R16R17R18G20G21R09G08
                                G28G07G13
                  83988185.076 6  20200829.813                    20200832.594
                        39.300
 123257447.468 7  96044806.09243  23455117.391                    23455121.852
        43.400          22.300
 115976045.954 7  90370892.68946  22069509.273                    22069515.141
        47.600          37.600
 113095221.878 8  88126091.51046  21521287.797                    21521290.770
        50.000          36.700
                  85651966.924 6  20658973.070                    20658976.848
                        37.800
                  96552842.907 6  23239148.266                    23239150.754
                        36.600
                  89566915.342 6  21519922.805                    21519925.430
                        40.600
                  86628777.480 6  20865199.094                    20865198.398
                        40.800
 117154080.750 7  91288908.48444  22293682.070                    22293684.742
        42.900          27.000
 129319046.165 7 100768093.27344  24608597.469                    24608599.000
        44.400          28.400
                  82136994.259 7  19776370.320                    19776370.707
                        43.700
 117684226.690 7  91702165.95646  22394600.195                    22394605.328
        47.900          36.800
 115371005.290 8  89899483.79246  21954371.828                    21954374.219
        48.000          37.800
 124920112.333 7  97340374.99144  23771508.273                    23771512.148
        45.600          26.200
 110441082.658 8  86057998.81745  21016239.383                    21016242.711
        48.000          34.300
 18  3 16 10 26 21.0000000  0 15R01G27G30G15R10R16R17R18G20G21R09G08
                                G28G07G13
                  83987267.963 6  20200608.461                    20200611.699
                        39.400
 123260384.194 7  96047094.48743  23455675.938                    23455680.250
        43.000          21.700
 115978730.156 7  90372984.31746  22070019.953                    22070025.887
        47.600          37.700
 113094323.595 8  88125391.54746  21521116.781                    21521120.063
        50.000          36.500
                  85649710.693 6  20658427.469                    20658432.023
                        37.400
                  96556462.099 6  23240019.555                    23240021.367
                        37.200
                  89569114.574 6  21520451.375                    21520453.852
                        40.800
                  86627796.143 6  20864962.445                    20864962.344
                        41.100
 117156236.957 7  91290588.65144  22294093.133                    22294095.629
        43.800          28.200
 129321661.046 7 100770130.84744  24609095.203                    24609096.359
        44.800          28.700
                  82138160.246 7  19776652.273                    19776651.441
                        43.500
 117684607.097 8  91702462.37146  22394672.914                    22394677.504
        48.200          37.100
 115369627.120 8  89898409.91346  21954109.391                    21954111.855
        48.100          38.200
 124923759.461 7  97343216.88744  23772202.492                    23772206.098
        45.400          26.300
 110441946.662 7  86058672.06445  21016404.328                    21016407.469
        47.800          34.700
 18  3 16 10 26 22.0000000  0 15R01G27G30G15R10R16R17R18G20G21R09G08
                                G28G07G13
                  83986351.528 6  20200388.617                    20200391.848
                        39.400
 123263321.446 7  96049383.30143  23456235.227                    23456239.164
        43.000          21.100
 115981414.895 7  90375076.36346  22070530.711                    22070537.023
        47.800          37.900
 113093426.012 8  88124692.12746  21520946.172                    21520949.391
        50.300          36.600
                  85647454.979 6  20657884.352                    20657887.777
                        37.500
                  96560081.446 6  23240890.047                    23240892.664
                        37.300
                  89571314.438 6  21520980.203                    21520982.258
                        40.600
                  86626815.504 6  20864725.875                    20864726.059
                        41.000
 117158393.790 7  91292269.29044  22294502.500                    22294505.738
        42.100          25.900
 129324276.295 7 100772168.70844  24609592.570                    24609593.941
        45.300          28.700
                  82139326.926 7  19776932.531                    19776932.711
                        43.800
 117684988.232 8  91702759.37046  22394745.648                    22394750.316
        48.600          37.200
 115368249.526 8  89897336.49946  21953847.070                    21953849.902
        48.100          37.800
 124927406.857 7  97346059.00244  23772896.273                    23772900.582
        45.600          27.300
 110442811.411 8  86059345.89345  21016568.875                    21016571.969
        48.100          34.000
 18  3 16 10 26 23.0000000  0 15R01G27G30G15R10R16R17R18G20G21R09G08
                                G28G07G13
                  83985435.808 6  20200167.320                    20200170.734
                        39.700
 123266259.231 7  96051672.52843  23456793.813                    23456797.789
        43.100          21.300
 115984100.139 7  90377168.78746  22071041.547                    22071047.836
        47.800          37.800
 113092529.094 8  88123993.23046  21520775.305                    21520778.480
        50.600          36.900
                  85645199.777 6  20657339.953                    20657344.348
                        38.100
                  96563700.943 6  23241762.477                    23241763.879
                        37.100
                  89573514.920 6  21521508.031                    21521510.941
                        40.400
                  86625835.581 6  20864489.984                    20864490.230
                        41.200
 117160551.302 7  91293950.43444  22294914.133                    22294916.465
        42.800          28.000
 129326891.916 7 100774206.86544  24610090.852                    24610091.848
        45.800          29.200
                  82140494.255 7  19777213.180                    19777213.723
                        43.700
 117685370.105 8  91703056.94046  22394817.711                    22394823.238
        48.800          37.100
 115366872.499 7  89896263.53746  21953584.188                    21953587.414
        47.400          37.100
 124931054.533 7  97348901.34244  23773590.992                    23773594.457
        46.300          27.400
 110443676.868 7  86060020.27245  21016733.391                    21016736.426
        47.600          34.200
 18  3 16 10 26 24.0000000  0 15R01G27G30G15R10R16R17R18G20G21R09G08
                                G28G07G13
                  83984520.759 6  20199948.172                    20199950.773
                        39.800
 123269197.512 7  96053962.14243  23457353.547                    23457357.020
        42.500          22.500
 115986785.920 7  90379261.62346  22071552.398                    22071558.934
        47.700          37.300
 113091632.910 8  88123294.89946  21520604.648                    21520607.918
        50.500          36.400
                  85642945.038 6  20656796.273                    20656800.293
                        38.000
                  96567320.603 6  23242633.648                    23242635.520
                        37.400
                  89575716.029 6  21522036.602                    21522040.012
                        40.700
                  86624856.365 6  20864253.516                    20864253.895
                        41.000
 117162709.418 7  91295632.05744  22295324.625                    22295327.086
        42.800          27.700
 129329507.955 7 100776245.34344  24610588.109                    24610589.504
        45.900          29.400
                  82141662.255 7  19777493.883                    19777494.520
                        43.600
 117685752.699 8  91703355.07046  22394890.766                    22394896.156
        49.500          37.200
 115365496.060 7  89895191.06146  21953321.891                    21953325.480
        47.800          37.800
 124934702.484 7  97351743.88644  23774285.531                    23774288.770
        46.700          27.200
 110444543.093 8  86060695.25645  21016898.180                    21016901.355
        48.100          34.400
 18  3 16 10 26 25.0000000  0 15R01G27G30G15R10R16R17R18G20G21R09G08
                                G28G07G13
                  83983606.433 6  20199727.969                    20199730.762
                        39.500
 123272136.381 6  96056252.20743  23457912.422                    23457915.883
        41.800          22.000
 115989472.252 8  90381354.90446  22072063.656                    22072069.684
        48.300          37.200
 113090737.438 8  88122597.12746  21520434.031                    21520437.652
        50.500          36.300
                  85640690.872 6  20656252.922                    20656256.570
                        38.000
                  96570940.481 6  23243504.383                    23243506.723
                        37.400
                  89577917.800 6  21522566.383                    21522568.551
                        40.500
                  86623877.962 6  20864015.680                    20864018.488
                        41.200
 117164868.266 7  91297314.27844  22295734.180                    22295737.723
        42.100          27.000
 129332124.366 7 100778284.10444  24611085.383                    24611087.527
        45.800          29.000
                  82142830.917 7  19777775.461                    19777775.664
                        43.600
 117686136.065 8  91703653.79746  22394963.391                    22394968.926
        49.500          37.100
 115364120.149 8  89894119.00146  21953060.766                    21953063.555
        48.200          37.300
 124938350.749 7  97354586.68344  23774979.625                    23774983.000
        46.800          26.500
 110445410.002 8  86061370.78245  21017063.195                    21017066.547
        48.000          34.500
 18  3 16 10 26 26.0000000  0 15R01G27G30G15R10R16R17R18G20G21R09G08
                                G28G07G13
                  83982692.753 6  20199508.055                    20199510.965
                        39.600
 123275075.782 6  96058542.66443  23458471.359                    23458474.961
        41.200          22.200
 115992159.076 8  90383448.57346  22072575.945                    22072581.008
        48.600          37.300
 113089842.678 8  88121899.90746  21520263.852                    21520267.352
        50.300          36.400
                  85638437.213 6  20655709.633                    20655712.910
                        38.100
                  96574560.517 6  23244375.469                    23244377.563
                        37.700
                  89580120.168 6  21523094.992                    21523097.426
                        40.800
                  86622900.304 6  20863780.461                    20863783.133
                        41.300
 117167027.733 7  91298997.00544  22296146.477                    22296149.117
        43.400          28.400
 129334741.188 7 100780323.18544  24611583.531                    24611585.359
        45.400          29.300
                  82144000.207 7  19778057.766                    19778057.789
                        43.600
 117686520.159 8  91703953.09146  22395036.289                    22395041.875
        48.700          37.300
 115362744.835 8  89893047.38746  21952799.836                    21952801.879
        49.300          37.800
 124941999.285 7  97357429.69244  23775674.188                    23775677.344
        47.300          26.500
 110446277.679 8  86062046.89845  21017228.445                    21017231.543
        48.100          34.500
 18  3 16 10 26 27.0000000  0 15R01G27G30G15R10R16R17R18G20G21R09G08
                                G28G07G13
                  83981779.798 6  20199288.273                    20199291.461
                        39.700
 123278015.698 6  96060833.49643  23459030.813                    23459034.387
        39.400          22.800
 115994846.408 7  90385542.64046  22073086.242                    22073092.500
        47.900          37.300
 113088948.627 8  88121203.24446  21520093.273                    21520096.980
        50.100          36.500
                  85636184.061 6  20655165.938                    20655169.691
                        37.800
                  96578180.817 6  23245245.914                    23245249.105
                        37.100
                  89582323.191 6  21523624.133                    21523626.961
                        40.900
                  86621923.398 6  20863543.734                    20863547.879
                        41.200
 117169187.844 7  91300680.25244  22296556.664                    22296560.445
        42.600          28.100
 129337358.428 7 100782362.59644  24612081.578                    24612083.480
        45.500          28.700
                  82145170.173 7  19778338.828                    19778339.473
                        43.600
 117686905.035 8  91704253.00146  22395109.148                    22395114.785
        48.900          37.200
 115361370.100 8  89891976.18946  21952537.844                    21952540.086
        48.900          37.900
 124945648.138 7  97360272.96644  23776368.500                    23776371.617
        47.800          26.400
 110447146.072 8  86062723.58045  21017393.563                    21017396.816
        48.300          34.600
 18  3 16 10 26 28.0000000  0 15R01G27G30G15R10R16R17R18G20G21R09G08
                                G28G07G13
                  83980867.505 6  20199068.906                    20199071.797
                        39.300
 123280956.181 6  96063124.77944  23459590.609                    23459594.129
        39.300          24.900
 115997534.281 7  90387637.12746  22073597.047                    22073604.176
        46.900          37.600
 113088055.290 8  88120507.13346  21519923.805                    21519927.227
        50.100          36.700
                  85633931.423 6  20654622.266                    20654626.309
                        38.000
                  96581801.245 6  23246117.773                    23246120.465
                        37.400
                  89584526.824 6  21524153.711                    21524155.730
                        40.500
                  86620947.208 6  20863308.516                    20863312.902
                        40.800
 117171348.525 7  91302363.92544  22296967.898                    22296971.109
        42.900          28.400
 129339976.021 7 100784402.28244  24612579.461                    24612581.742
        45.600          27.500
                  82146340.773 7  19778621.055                    19778622.105
                        43.600
 117687290.632 8  91704553.47046  22395182.695                    22395188.508
        48.900          37.100
 115359995.883 8  89890905.37646  21952276.070                    21952278.844
        48.200          38.300
 124949297.277 7  97363116.46444  23777062.742                    23777065.496
        47.900          26.800
 110448015.225 8  86063400.85145  21017558.617                    21017561.664
        48.500          34.400
 18  3 16 10 26 29.0000000  0 15R01G27G30G15R10R16R17R18G20G21R09G08
                                G28G07G13
                  83979955.958 6  20198849.852                    20198852.875
                        39.200
 123283897.180 6  96065416.46944  23460149.609                    23460154.148
        38.000          24.200
 116000222.662 7  90389731.98846  22074110.117                    22074115.645
        47.200          37.500
 113087162.641 8  88119811.55946  21519753.766                    21519757.352
        49.900          37.000
                  85631679.298 6  20654079.828                    20654082.832
                        38.000
                  96585421.807 6  23246989.234                    23246991.711
                        36.700
                  89586731.091 6  21524683.844                    21524685.680
                        40.500
                  86619971.777 6  20863073.078                    20863077.930
                        40.700
 117173509.850 7  91304048.09244  22297379.523                    22297382.520
        43.500          28.800
 129342594.052 7 100786442.31344  24613077.445                    24613080.063
        45.800          29.300
                  82147512.066 7  19778902.844                    19778903.047
                        43.600
 117687676.985 8  91704854.52146  22395256.281                    22395261.953
        48.900          37.200
 115358622.261 7  89889835.01546  21952014.102                    21952017.168
        47.500          38.100
 124952946.704 7  97365960.17844  23777756.602                    23777760.039
        47.300          25.100
 110448885.100 8  86064078.68145  21017724.422                    21017727.379
        48.600          34.800
 18  3 16 10 26 30.0000000  0 15R01G27G30G15R10R16R17R18G20G21R09G08
                                G28G07G13
                  83979045.132 6  20198630.156                    20198634.328
                        39.300
 123286838.731 6  96067708.57543  23460709.422                    23460714.254
        37.100          23.000
 116002911.560 7  90391827.23946  22074621.039                    22074627.375
        47.100          37.100
 113086270.698 8  88119116.52946  21519584.078                    21519587.602
        50.300          36.900
                  85629427.688 6  20653536.781                    20653540.391
                        38.300
                  96589042.656 5  23247861.648                    23247863.355
                        35.900
                  89588935.993 6  21525213.898                    21525215.020
                        40.600
                  86618997.063 6  20862838.906                    20862843.113
                        40.500
 117175671.860 7  91305732.78344  22297790.164                    22297793.766
        42.900          27.700
 129345212.468 7 100788482.63844  24613575.727                    24613578.102
        45.100          27.800
                  82148684.060 7  19779185.219                    19779185.934
                        43.600
 117688064.111 8  91705156.17546  22395329.703                    22395335.582
        49.000          37.200
 115357249.188 7  89888765.07946  21951752.484                    21951755.773
        47.600          38.200
 124956596.474 7  97368804.16744  23778450.961                    23778454.156
        47.100          26.300
 110449755.741 8  86064757.11345  21017889.813                    21017893.035
        48.200          34.400
 18  3 16 10 26 31.0000000  0 15R01G27G30G15R10R16R17R18G20G21R09G08
                                G28G07G13
                  83978134.985 6  20198412.000                    20198415.043
                        39.500
 123289780.759 6  96070001.06544  23461269.727                    23461273.699
        37.000          24.100
 116005600.961 7  90393922.88246  22075133.469                    22075138.734
        47.800          37.100
 113085379.464 8  88118422.05146  21519414.727                    21519418.098
        50.000          37.100
                  85627176.532 6  20652992.781                    20652996.934
                        38.000
                  96592663.660 6  23248733.594                    23248734.473
                        36.700
                  89591141.497 6  21525744.172                    21525744.391
                        40.500
                  86618023.077 6  20862605.383                    20862608.094
                        40.600
 117177834.435 7  91307417.90744  22298203.117                    22298205.441
        43.800          28.400
 129347831.233 7 100790523.23044  24614073.930                    24614076.418
        44.000          28.400
                  82149856.694 7  19779467.656                    19779467.996
                        43.600
 117688451.938 8  91705458.37446  22395403.828                    22395409.215
        49.100          37.300
 115355876.639 7  89887695.55846  21951492.094                    21951494.789
        47.800          38.100
 124960246.496 7  97371648.34344  23779145.633                    23779149.035
        46.200          25.000
 110450627.032 8  86065436.05345  21018056.031                    21018059.027
        48.200          34.300
 18  3 16 10 26 32.0000000  0 15R01G27G30G15R10R16R17R18G20G21R09G08
                                G28G07G13
                  83977225.584 6  20198193.023                    20198196.207
                        39.300
 123292723.375 5  96072293.99943  23461828.461                    23461834.176
        35.400          22.300
 116008290.898 8  90396018.94246  22075645.383                    22075650.730
        48.200          37.000
 113084488.914 8  88117728.10646  21519245.211                    21519248.637
        50.300          37.500
                  85624925.973 6  20652451.547                    20652454.809
                        38.400
                  96596284.875 6  23249605.094                    23249606.621
                        37.200
                  89593347.635 6  21526274.695                    21526274.578
                        40.600
                  86617049.867 6  20862371.875                    20862373.648
                        40.900
 117179997.658 7  91309103.54444  22298613.172                    22298616.832
        42.500          26.800
 129350450.424 7 100792564.15944  24614571.758                    24614575.188
        43.600          27.900
                  82151030.027 7  19779750.281                    19779750.758
                        43.700
 117688840.537 8  91705761.16846  22395478.148                    22395483.434
        49.500          37.200
 115354504.729 8  89886626.53846  21951231.508                    21951233.625
        48.500          38.100
 124963896.851 7  97374492.77144  23779840.023                    23779843.504
        46.300          27.200
 110451499.127 8  86066115.61045  21018221.820                    21018225.027
        48.500          34.800
 18  3 16 10 26 33.0000000  0 15R01G27G30G15R10R16R17R18G20G21R09G08
                                G28G07G13
                  83976316.830 6  20197974.320                    20197977.969
                        39.700
 123295666.507 5  96074587.34043  23462387.984                    23462394.270
        34.700          22.300
 116010981.360 7  90398115.42346  22076156.461                    22076162.641
        47.400          36.700
 113083599.059 8  88117034.69446  21519076.094                    21519079.215
        50.300          36.700
                  85622675.875 6  20651906.773                    20651911.445
                        38.100
                  96599906.255 6  23250476.617                    23250478.816
                        36.800
                  89595554.412 6  21526804.797                    21526805.652
                        40.800
                  86616077.401 6  20862138.344                    20862139.359
                        41.200
 117182161.465 7  91310789.60644  22299026.078                    22299028.539
        43.100          27.000
 129353070.009 7 100794605.38644  24615070.219                    24615073.340
        43.000          28.500
                  82152204.018 7  19780032.227                    19780033.301
                        43.600
 117689229.868 8  91706064.53446  22395552.664                    22395557.750
        49.800          37.500
 115353133.414 8  89885557.99446  21950970.484                    21950972.941
        49.100          38.000
 124967547.465 7  97377337.39744  23780534.750                    23780538.172
        46.700          26.900
 110452371.908 8  86066795.69745  21018387.727                    21018391.109
        48.500          34.200
 18  3 16 10 26 34.0000000  0 15R01G27G30G15R10R16R17R18G20G21R09G08
                                G28G07G13
                  83975408.785 6  20197755.742                    20197758.684
                        39.400
 123298610.223 5  96076881.11143  23462948.422                    23462954.344
        34.700          22.900
 116013672.371 7  90400212.33246  22076668.734                    22076674.770
        46.900          37.000
 113082709.938 8  88116341.85346  21518906.891                    21518909.766
        50.300          36.300
                  85620426.321 6  20651365.188                    20651368.395
                        38.400
                  96603527.815 6  23251349.336                    23251349.867
                        36.400
                  89597761.833 6  21527335.641                    21527335.742
                        40.600
                  86615105.667 6  20861905.023                    20861905.137
                        41.200
 117184325.981 7  91312476.21344  22299438.289                    22299440.500
        43.200          27.500
 129355690.033 7 100796646.96144  24615569.031                    24615571.883
        42.600          28.600
                  82153378.694 7  19780315.078                    19780316.297
                        43.600
 117689619.962 8  91706368.51046  22395626.555                    22395631.598
        50.000          36.900
 115351762.668 8  89884489.88546  21950709.195                    21950712.379
        48.600          37.800
 124971198.408 7  97380182.27744  23781229.914                    23781232.770
        46.400          27.200
 110453245.457 8  86067476.38845  21018554.117                    21018557.164
        48.500          34.600
 18  3 16 10 26 35.0000000  0 15R01G27G30G15R10R16R17R18G20G21R09G08
                                G28G07G13
                  83974501.408 6  20197537.500                    20197540.992
                        39.700
 123301554.451 5  96079175.28544  23463508.148                    23463514.641
        34.100          24.500
 116016363.904 7  90402309.64546  22077181.289                    22077186.719
        47.600          37.700
 113081821.535 8  88115649.57346  21518737.828                    21518740.934
        50.300          36.300
                  85618177.274 6  20650823.648                    20650826.375
                        38.300
                  96607149.542 6  23252219.797                    23252221.766
                        36.100
                  89599969.854 6  21527865.844                    21527866.379
                        40.800
                  86614134.640 6  20861670.867                    20861671.668
                        41.300
 117186491.114 7  91314163.32544  22299849.180                    22299852.949
        42.600          28.200
 129358310.426 7 100798688.81544  24616067.664                    24616070.438
        42.200          28.600
                  82154554.033 7  19780598.016                    19780598.848
                        43.800
 117690010.791 8  91706673.05946  22395701.133                    22395706.207
        50.200          37.100
 115350392.443 8  89883422.17646  21950448.094                    21950451.242
        48.200          37.900
 124974849.623 7  97383027.35444  23781925.242                    23781927.816
        46.700          28.300
 110454119.728 8  86068157.63745  21018720.281                    21018723.355
        48.400          35.200
 18  3 16 10 26 36.0000000  0 15R01G27G30G15R10R16R17R18G20G21R09G08
                                G28G07G13
                  83973594.719 6  20197319.398                    20197322.309
                        39.400
 123304499.185 5  96081469.86244  23464068.766                    23464075.391
        34.800          24.000
 116019055.921 8  90404407.34546  22077692.797                    22077698.898
        48.000          37.400
 113080933.825 8  88114957.85046  21518568.461                    21518572.020
        49.900          36.200
                  85615928.689 6  20650279.227                    20650283.973
                        38.500
                  96610771.386 6  23253091.477                    23253093.184
                        36.400
                  89602178.480 6  21528396.078                    21528397.242
                        40.900
                  86613164.335 6  20861436.914                    20861438.191
                        41.000
 117188656.865 7  91315850.92344  22300261.602                    22300264.164
        43.200          28.300
 129360931.223 7 100800730.97644  24616566.641                    24616568.949
        42.300          28.600
                  82155729.997 7  19780881.273                    19780881.820
                        43.600
 117690402.320 8  91706978.14946  22395775.445                    22395780.684
        50.200          37.000
 115349022.775 7  89882354.89846  21950187.531                    21950190.715
        47.900          37.600
 124978501.087 7  97385872.62944  23782620.477                    23782623.313
        47.500          28.100
 110454994.698 8  86068839.43845  21018887.352                    21018890.023
        48.500          34.700
 18  3 16 10 26 37.0000000  0 15R01G27G30G15R10R16R17R18G20G21R09G08
                                G28G07G13
                  83972688.692 6  20197101.742                    20197104.785
                        39.400
 123307444.360 5  96083764.77344  23464629.711                    23464636.074
        34.700          24.000
 116021748.437 8  90406505.43146  22078206.219                    22078211.750
        48.200          36.900
 113080046.814 8  88114266.67946  21518400.055                    21518403.293
        49.900          36.700
                  85613680.633 6  20649738.563                    20649741.676
                        38.500
                  96614393.437 6  23253963.203                    23253965.422
                        36.200
                  89604387.731 6  21528926.508                    21528928.422
                        41.100
                  86612194.724 6  20861203.695                    20861204.512
                        41.000
 117190823.180 7  91317538.95444  22300674.477                    22300677.004
        43.600          27.400
 129363552.315 7 100802773.36244  24617066.398                    24617067.879
        42.300          28.200
                  82156906.580 7  19781165.391                    19781165.074
                        43.600
 117690794.580 8  91707283.81146  22395849.625                    22395855.527
        49.800          37.400
 115347653.667 7  89881288.05446  21949926.898                    21949929.516
        47.800          38.300
 124982152.835 7  97388718.12744  23783315.102                    23783318.012
        47.900          27.900
 110455870.378 8  86069521.78945  21019053.836                    21019056.652
        48.300          34.500
 18  3 16 10 26 38.0000000  0 15R01G27G30G15R10R16R17R18G20G21R09G08
                                G28G07G13
                  83971783.373 6  20196884.453                    20196887.199
                        39.800
 123310390.132 5  96086060.15444  23465190.391                    23465196.531
        35.600          26.200
 116024441.491 7  90408603.93846  22078717.875                    22078724.176
        47.300          37.000
 113079160.534 8  88113576.08246  21518231.375                    21518234.711
        50.200          36.700
                  85611433.062 6  20649195.961                    20649200.270
                        38.200
                  96618015.689 6  23254834.695                    23254836.539
                        36.400
                  89606597.602 6  21529456.969                    21529459.625
                        41.300
                  86611225.865 6  20860969.977                    20860971.648
                        41.200
 117192990.136 7  91319227.48144  22301085.727                    22301089.266
        43.600          29.300
 129366173.865 7 100804816.11144  24617565.891                    24617566.914
        43.600          28.500
                  82158083.854 7  19781448.891                    19781448.469
                        43.800
 117691187.593 8  91707590.05646  22395923.781                    22395929.801
        49.800          37.100
 115346285.113 7  89880221.64246  21949667.055                    21949669.539
        47.800          38.200
 124985804.892 8  97391563.87144  23784010.445                    23784013.367
        48.200          28.100
 110456746.787 8  86070204.71445  21019220.313                    21019223.688
        48.100          35.200
 18  3 16 10 26 39.0000000  0 15R01G27G30G15R10R16R17R18G20G21R09G08
                                G28G07G13
                  83970878.710 6  20196667.164                    20196669.793
                        39.700
 123313336.313 6  96088355.85944  23465751.555                    23465757.371
        36.500          27.800
 116027134.990 7  90410702.78546  22079230.625                    22079236.723
        47.100          37.000
 113078274.820 8  88112885.92546  21518062.625                    21518065.785
        50.400          37.100
                  85609185.944 6  20648653.602                    20648657.906
                        38.100
                  96621638.018 6  23255706.508                    23255708.242
                        36.000
                  89608808.009 6  21529988.094                    21529990.801
                        41.400
                  86610257.698 6  20860736.891                    20860738.371
                        41.100
 117195157.676 7  91320916.46344  22301498.891                    22301501.824
        43.600          28.500
 129368795.708 7 100806859.10044  24618064.758                    24618065.539
        44.400          28.600
                  82159261.712 7  19781732.031                    19781732.984
                        43.500
 117691581.290 8  91707896.84346  22395998.898                    22396005.180
        49.900          37.100
 115344917.098 7  89879155.63246  21949406.945                    21949409.164
        47.500          37.300
 124989457.146 7  97394409.77944  23784704.906                    23784708.563
        47.900          27.900
 110457623.845 8  86070888.14745  21019387.563                    21019390.234
        48.200          35.200
 18  3 16 10 26 40.0000000  0 15R01G27G30G15R10R16R17R18G20G21R09G08
                                G28G07G13
                  83969974.740 6  20196448.805                    20196452.645
                        39.300
 123316283.032 6  96090651.98644  23466312.031                    23466317.938
        38.100          28.800
 116029828.990 7  90412802.02146  22079744.008                    22079749.180
        46.800          36.800
 113077389.852 8  88112196.34746  21517894.195                    21517897.582
        50.100          37.100
                  85606939.311 6  20648112.070                    20648115.594
                        37.800
                  96625260.515 6  23256577.438                    23256580.547
                        36.800
                  89611019.064 6  21530518.906                    21530522.059
                        40.900
                  86609290.308 6  20860503.773                    20860505.008
                        41.300
 117197325.800 7  91322605.89644  22301911.945                    22301914.152
        43.200          26.900
 129371417.931 7 100808902.38244  24618564.273                    24618564.641
        45.100          28.500
                  82160440.270 7  19782016.039                    19782016.598
                        43.600
 117691975.734 8  91708204.20546  22396073.531                    22396080.297
        48.900          36.600
 115343549.639 7  89878090.06246  21949146.516                    21949149.172
        47.600          37.900
 124993109.675 7  97397255.91144  23785399.875                    23785403.383
        47.200          26.900
 110458501.654 8  86071572.16045  21019554.094                    21019557.418
        48.400          34.900
 18  3 16 10 26 41.0000000  0 15R01G27G30G15R10R16R17R18G20G21R09G08
                                G28G07G13
                  83969071.492 6  20196231.641                    20196235.359
                        39.300
 123319230.278 6  96092948.52145  23466873.445                    23466879.188
        39.200          30.200
 116032523.539 7  90414901.69346  22080255.750                    22080262.211
        46.400          37.500
 113076505.576 8  88111507.29346  21517725.914                    21517729.207
        50.200          37.300
                  85604693.191 6  20647570.352                    20647574.453
                        38.200
                  96628883.234 6  23257449.359                    23257452.355
                        37.300
                  89613230.745 6  21531051.266                    21531053.734
                        40.900
                  86608323.653 6  20860270.641                    20860272.816
                        41.000
 117199494.611 7  91324295.85844  22302324.055                    22302327.191
        43.000          28.400
 129374040.538 7 100810945.98044  24619062.766                    24619063.688
        45.700          28.600
                  82161619.527 7  19782299.383                    19782300.297
                        43.700
 117692370.928 8  91708512.14746  22396148.852                    22396155.789
        48.500          36.300
 115342182.741 7  89877024.92446  21948886.250                    21948888.484
        47.600          38.000
 124996762.525 7  97400102.28844  23786094.992                    23786098.488
        46.700          26.000
 110459380.172 8  86072256.73245  21019721.438                    21019724.703
        48.300          34.600
 18  3 16 10 26 42.0000000  0 15R01G27G30G15R10R16R17R18G20G21R09G08
                                G28G07G13
                  83968168.922 6  20196014.891                    20196018.180
                        39.400
 123322178.066 6  96095245.49445  23467434.555                    23467440.313
        40.100          30.500
 116035218.598 7  90417001.75646  22080768.484                    22080775.094
        46.400          37.600
 113075621.992 8  88110818.78046  21517557.898                    21517560.910
        50.500          37.100
                  85602447.595 6  20647027.930                    20647032.430
                        37.900
                  96632506.102 6  23258320.477                    23258324.305
                        37.400
                  89615443.052 6  21531581.844                    21531585.445
                        40.900
                  86607357.708 6  20860037.727                    20860040.023
                        41.300
 117201663.995 7  91325986.28244  22302737.555                    22302739.711
        44.000          28.500
 129376663.525 7 100812989.87744  24619561.594                    24619563.113
        46.200          28.100
                  82162799.455 7  19782584.367                    19782584.941
                        43.500
 117692766.862 8  91708820.66446  22396224.211                    22396230.590
        48.100          37.000
 115340816.407 7  89875960.22646  21948626.063                    21948629.211
        47.500          37.700
 125000415.688 7  97402948.90744  23786789.711                    23786793.785
        46.700          25.300
 110460259.435 8  86072941.87845  21019888.844                    21019892.113
        48.300          34.900
 18  3 16 10 26 43.0000000  0 15R01G27G30G15R10R16R17R18G20G21R09G08
                                G28G07G13
                  83967267.030 6  20195797.539                    20195800.617
                        39.100
 123325126.353 6  96097542.84945  23467996.305                    23468001.148
        40.600          31.400
 116037914.146 7  90419102.19946  22081281.547                    22081287.805
        46.300          37.100
 113074739.104 8  88110130.79846  21517389.773                    21517392.938
        50.800          37.000
                  85600202.496 6  20646487.500                    20646491.180
                        38.400
                  96636129.163 6  23259192.094                    23259196.617
                        37.500
                  89617655.954 6  21532113.883                    21532117.129
                        40.700
                  86606392.470 6  20859804.391                    20859807.230
                        41.100
 117203834.044 7  91327677.21644  22303149.227                    22303152.848
        43.500          27.900
 129379286.911 7 100815034.08444  24620060.344                    24620062.656
        45.900          27.900
                  82163980.045 7  19782868.484                    19782867.816
                        43.900
 117693163.530 8  91709129.75446  22396300.203                    22396306.434
        48.800          37.400
 115339450.649 7  89874895.97846  21948366.367                    21948369.211
        47.900          37.800
 125004069.094 7  97405795.72144  23787484.695                    23787488.758
        46.100          25.700
 110461139.391 8  86073627.55445  21020056.125                    21020059.320
        48.400          34.400
 18  3 16 10 26 44.0000000  0 15R01G27G30G15R10R16R17R18G20G21R09G08
                                G28G07G13
                  83966365.892 6  20195581.398                    20195584.059
                        39.400
 123328075.212 7  96099840.67045  23468556.867                    23468562.449
        42.000          32.500
 116040610.248 7  90421203.07146  22081794.750                    22081801.059
        46.200          37.600
 113073856.973 8  88109443.40646  21517222.148                    21517224.820
        50.200          36.800
                  85597957.919 6  20645945.406                    20645949.418
                        38.600
                  96639752.382 6  23260065.938                    23260068.180
                        37.500
                  89619869.490 6  21532646.086                    21532648.395
                        40.400
                  86605427.970 6  20859571.625                    20859575.141
                        40.900
 117206004.747 7  91329368.64844  22303562.516                    22303565.762
        42.500          27.200
 129381910.716 7 100817078.61444  24620559.398                    24620562.234
        45.600          28.200
                  82165161.308 7  19783152.602                    19783152.934
                        43.600
 117693560.983 8  91709439.44846  22396375.750                    22396381.473
        49.000          37.100
 115338085.499 7  89873832.19746  21948106.602                    21948109.320
        47.300          37.300
 125007722.853 7  97408642.81644  23788180.266                    23788183.863
        46.300          25.300
 110462020.106 8  86074313.81645  21020223.734                    21020226.984
        48.600          35.000
 18  3 16 10 26 45.0000000  0 15R01G27G30G15R10R16R17R18G20G21R09G08
                                G28G07G13
                  83965465.505 6  20195364.625                    20195367.973
                        39.900
 123331024.620 6  96102138.90845  23469118.586                    23469124.137
        41.800          34.000
 116043306.831 7  90423304.30446  22082307.969                    22082313.797
        46.500          38.100
 113072975.528 8  88108756.55646  21517054.586                    21517057.289
        50.100          37.100
                  85595713.871 6  20645404.805                    20645408.172
                        38.100
                  96643375.852 6  23260938.820                    23260941.000
                        37.400
                  89622083.652 6  21533178.906                    21533181.133
                        40.200
                  86604464.206 6  20859339.102                    20859342.543
                        41.400
 117208176.094 7  91331060.58244  22303976.555                    22303979.105
        43.300          28.400
 129384534.939 7 100819123.47944  24621057.867                    24621061.734
        44.700          27.200
                  82166343.240 7  19783436.453                    19783437.664
                        43.500
 117693959.158 8  91709749.70246  22396451.766                    22396457.551
        48.900          36.900
 115336720.957 7  89872768.89946  21947847.023                    21947849.910
        47.600          37.300
 125011376.913 7  97411490.13344  23788875.391                    23788878.855
        46.300          26.000
 110462901.544 8  86075000.63945  21020391.859                    21020394.617
        48.400          34.900
 18  3 16 10 26 46.0000000  0 15R01G27G30G15R10R16R17R18G20G21R09G08
                                G28G07G13
                  83964565.796 6  20195148.125                    20195151.309
                        39.600
 123333974.516 7  96104437.52245  23469679.703                    23469684.945
        42.200          33.900
 116046003.936 7  90425405.93146  22082821.305                    22082826.625
        46.800          37.100
 113072094.792 8  88108070.25846  21516886.633                    21516890.012
        50.200          37.100
                  85593470.301 6  20644863.352                    20644867.684
                        37.900
                  96646999.471 6  23261812.461                    23261813.258
                        37.300
                  89624298.439 6  21533711.023                    21533712.270
                        39.900
                  86603501.204 6  20859107.586                    20859111.293
                        41.300
 117210348.011 7  91332752.96344  22304389.883                    22304392.461
        43.200          28.900
 129387159.531 7 100821168.61744  24621557.641                    24621560.629
        44.400          29.000
                  82167525.835 7  19783722.336                    19783721.703
                        44.000
 117694358.086 8  91710060.54246  22396528.047                    22396533.293
        48.300          37.200
 115335357.005 7  89871706.07746  21947587.383                    21947590.285
        47.500          37.400
 125015031.250 7  97414337.66944  23789570.930                    23789574.375
        46.800          26.000
 110463783.705 8  86075688.02745  21020559.234                    21020562.801
        48.100          34.900
 18  3 16 10 26 47.0000000  0 15R01G27G30G15R10R16R17R18G20G21R09G08
                                G28G07G13
                  83963666.788 6  20194931.570                    20194934.918
                        39.900
 123336924.967 7  96106736.57445  23470241.477                    23470246.660
        43.200          34.600
 116048701.607 7  90427507.99546  22083334.938                    22083340.328
        47.600          37.500
 113071214.739 8  88107384.48846  21516719.297                    21516722.441
        50.000          36.900
                  85591227.266 6  20644322.055                    20644325.793
                        37.900
                  96650623.281 6  23262683.977                    23262685.340
                        37.500
                  89626513.875 6  21534242.594                    21534244.309
                        39.600
                  86602538.968 6  20858876.500                    20858879.305
                        40.800
 117212520.645 7  91334445.91644  22304802.688                    22304805.797
        43.000          27.000
 129389784.556 7 100823214.08644  24622056.430                    24622060.258
        44.500          28.100
                  82168709.108 7  19784006.570                    19784007.535
                        43.500
 117694757.781 8  91710371.97946  22396604.047                    22396609.289
        49.100          37.400
 115333993.694 7  89870643.77146  21947327.938                    21947330.891
        47.700          37.100
 125018685.903 7  97417185.45444  23790266.703                    23790270.199
        47.000          26.700
 110464666.641 8  86076376.01945  21020727.789                    21020730.398
        48.700          35.000
 18  3 16 10 26 48.0000000  0 15R01G27G30G15R10R16R17R18G20G21R09G08
                                G28G07G13
                  83962768.510 6  20194715.883                    20194718.957
                        39.700
 123339875.958 7  96109036.04245  23470802.633                    23470808.320
        43.700          34.300
 116051399.759 7  90429610.44346  22083847.867                    22083853.770
        47.700          37.400
 113070335.427 8  88106699.29346  21516551.914                    21516555.332
        50.100          37.000
                  85588984.775 6  20643781.852                    20643785.199
                        38.000
                  96654247.300 6  23263554.781                    23263558.066
                        37.200
                  89628729.944 6  21534775.602                    21534776.930
                        39.700
                  86601577.478 6  20858645.422                    20858647.594
                        40.700
 117214693.925 7  91336139.37244  22305216.055                    22305219.555
        42.900          28.200
 129392409.960 7 100825259.84044  24622556.453                    24622559.691
        44.000          28.900
                  82169893.044 7  19784292.250                    19784291.789
                        43.600
 117695158.222 8  91710684.00446  22396680.344                    22396685.906
        49.000          37.300
 115332631.015 8  89869581.99146  21947068.750                    21947071.766
        48.400          37.300
 125022340.817 7  97420033.43044  23790962.891                    23790965.273
        46.400          28.100
 110465550.263 8  86077064.54845  21020895.766                    21020898.750
        48.600          35.200
 18  3 16 10 26 49.0000000  0 15R01G27G30G15R10R16R17R18G20G21R09G08
                                G28G07G13
                  83961870.903 6  20194499.813                    20194502.898
                        39.700
 123342827.451 7  96111335.90045  23471364.484                    23471370.461
        43.700          35.100
 116054098.428 7  90431713.29946  22084361.523                    22084367.648
        47.000          36.800
 113069456.819 8  88106014.64846  21516384.719                    21516388.121
        50.500          36.900
                  85586742.725 6  20643240.453                    20643244.746
                        37.400
                  96657871.482 6  23264428.031                    23264430.297
                        37.400
                  89630946.639 6  21535308.406                    21535309.105
                        40.100
                  86600616.718 6  20858414.438                    20858415.520
                        40.800
 117216867.868 7  91337833.35144  22305630.172                    22305633.199
        42.800          29.000
 129395035.754 7 100827305.89744  24623056.625                    24623058.828
        44.100          28.900
                  82171077.674 7  19784577.406                    19784577.289
                        43.700
 117695559.400 8  91710996.61046  22396756.750                    22396761.863
        49.200          37.100
 115331268.880 8  89868520.65246  21946809.164                    21946812.797
        48.200          37.900
 125025996.029 7  97422881.63644  23791658.328                    23791661.230
        47.200          27.900
 110466434.614 8  86077753.64245  21021064.203                    21021067.074
        48.600          34.400
 18  3 16 10 26 50.0000000  0 15R01G27G30G15R10R16R17R18G20G21R09G08
                                G28G07G13
                  83960974.025 6  20194284.234                    20194287.336
                        39.800
 123345779.513 7  96113636.19545  23471926.109                    23471932.242
        44.200          34.700
 116056797.666 7  90433816.58746  22084875.195                    22084881.238
        47.300          36.900
 113068578.937 8  88105330.56946  21516217.617                    21516220.750
        49.700          37.000
                  85584501.255 6  20642699.711                    20642703.953
                        38.100
                  96661495.861 6  23265300.086                    23265302.500
                        37.100
                  89633163.998 6  21535840.336                    21535841.664
                        40.400
                  86599656.702 6  20858183.477                    20858184.492
                        40.800
 117219042.421 7  91339527.81144  22306044.648                    22306047.031
        43.300          29.300
 129397661.950 7 100829352.27244  24623556.633                    24623558.781
        44.000          29.600
                  82172263.005 7  19784862.492                    19784862.828
                        43.400
 117695961.323 8  91711309.80546  22396833.156                    22396838.504
        49.000          36.800
 115329907.328 8  89867459.76246  21946550.281                    21946553.266
        48.300          37.600
 125029651.565 7  97425730.10044  23792353.766                    23792356.895
        47.800          29.400
 110467319.733 8  86078443.33345  21021232.422                    21021235.668
        48.500          34.900
 18  3 16 10 26 51.0000000  0 15R01G27G30G15R10R16R17R18G20G21R09G08
                                G28G07G13
                  83960077.826 6  20194068.180                    20194071.359
                        39.700
 123348732.086 7  96115936.89645  23472487.719                    23472493.586
        44.400          35.400
 116059497.408 7  90435920.27646  22085388.852                    22085394.973
        46.900          36.800
 113067701.739 8  88104647.02846  21516050.500                    21516054.090
        49.800          37.200
                  85582260.284 6  20642159.164                    20642163.738
                        37.900
                  96665120.427 6  23266171.969                    23266174.453
                        37.100
                  89635381.965 6  21536372.898                    21536374.750
                        40.900
                  86598697.425 6  20857953.227                    20857953.379
                        41.200
 117221217.636 7  91341222.81344  22306457.328                    22306461.289
        42.400          28.400
 129400288.541 7 100831398.96344  24624056.531                    24624058.824
        43.600          28.500
                  82173449.012 7  19785147.906                    19785148.066
                        43.700
 117696363.974 8  91711623.55846  22396909.750                    22396914.949
        49.100          36.600
 115328546.333 8  89866399.30946  21946291.133                    21946294.313
        48.400          37.400
 125033307.358 8  97428578.76444  23793049.383                    23793052.574
        48.100          29.900
 110468205.560 8  86079133.57445  21021400.891                    21021404.684
        48.500          35.100
 18  3 16 10 26 52.0000000  0 15R01G27G30G15R10R16R17R18G20G21R09G08
                                G28G07G13
                  83959182.237 6  20193853.281                    20193856.262
                        39.300
 123351685.187 7  96118238.01545  23473049.742                    23473055.566
        44.600          35.200
 116062197.666 7  90438024.36146  22085902.414                    22085908.664
        47.400          36.900
 113066825.240 8  88103964.03046  21515884.102                    21515887.301
        49.600          36.800
                  85580019.827 6  20641619.023                    20641622.938
                        37.500
                  96668745.174 6  23267045.797                    23267046.891
                        36.900
                  89637600.539 6  21536906.375                    21536907.230
                        40.900
                  86597738.885 6  20857722.820                    20857722.207
                        40.900
 117223393.418 7  91342918.24244  22306872.703                    22306874.820
        43.800          29.400
 129402915.511 7 100833445.94144  24624556.570                    24624558.926
        43.400          27.900
                  82174635.632 7  19785434.039                    19785433.988
                        43.400
 117696767.396 8  91711937.91646  22396986.336                    22396992.109
        48.000          36.600
 115327185.943 8  89865339.30646  21946032.570                    21946034.930
        48.800          37.800
 125036963.412 8  97431427.63044  23793745.266                    23793748.391
        48.300          29.400
 110469092.116 8  86079824.37545  21021569.594                    21021573.137
        48.000          34.300
 18  3 16 10 26 53.0000000  0 15R01G27G30G15R10R16R17R18G20G21R09G08
                                G28G07G13
                  83958287.379 6  20193637.773                    20193640.566
                        39.400
 123354638.844 7  96120539.56445  23473612.094                    23473617.977
        45.000          35.400
 116064898.469 7  90440128.87946  22086417.203                    22086422.754
        47.100          37.100
 113065949.452 8  88103281.57746  21515717.336                    21515720.980
        50.300          37.400
                  85577779.862 6  20641078.133                    20641083.039
                        37.600
                  96672370.094 6  23267916.438                    23267919.340
                        36.400
                  89639819.731 6  21537439.203                    21537441.191
                        41.500
                  86596781.082 6  20857492.023                    20857492.305
                        40.900
 117225569.829 7  91344614.14644  22307286.898                    22307289.406
        42.500          26.100
 129405542.961 6 100835493.29744  24625056.445                    24625058.941
        41.800          26.000
                  82175822.957 7  19785719.867                    19785719.891
                        43.600
 117697171.551 7  91712252.85246  22397062.609                    22397069.238
        47.300          36.500
 115325826.127 8  89864279.74846  21945773.625                    21945776.258
        48.800          38.100
 125040619.843 7  97434276.79744  23794440.844                    23794444.508
        47.500          29.200
 110469979.411 8  86080515.75845  21021738.203                    21021741.969
        48.200          34.700
 18  3 16 10 26 54.0000000  0 15R01G27G30G15R10R16R17R18G20G21R09G08
                                G28G07G13
                  83957393.311 6  20193422.961                    20193426.238
                        39.600
 123357593.039 7  96122841.53246  23474174.570                    23474179.828
        44.600          36.500
 116067599.796 7  90442233.81346  22086930.891                    22086937.168
        47.200          37.300
 113065074.450 8  88102599.74046  21515550.688                    21515554.211
        50.200          36.900
                  85575540.449 6  20640539.133                    20640542.203
                        38.100
                  96675995.167 6  23268789.117                    23268791.453
                        36.800
                  89642039.539 6  21537972.758                    21537974.660
                        39.100
                  86595824.018 6  20857261.477                    20857261.789
                        41.000
 117227746.973 7  91346310.60944  22307700.602                    22307703.617
        42.500          28.600
 129408170.682 7 100837540.87944  24625556.836                    24625558.805
        43.700          28.500
                  82177010.939 7  19786005.891                    19786005.914
                        43.700
 117697576.471 7  91712568.36746  22397139.781                    22397145.996
        47.200          37.300
 115324466.877 8  89863220.61646  21945514.484                    21945517.770
        48.300          37.900
 125044276.541 7  97437126.16644  23795136.586                    23795140.305
        47.700          28.600
 110470867.473 7  86081207.74245  21021907.406                    21021910.320
        47.600          34.400
 18  3 16 10 26 55.0000000  0 15R01G27G30G15R10R16R17R18G20G21R09G08
                                G28G07G13
                  83956499.972 6  20193208.195                    20193211.180
                        39.800
 123360547.777 7  96125143.92845  23474736.453                    23474742.227
        42.200          32.500
 116070301.642 7  90444339.14446  22087445.070                    22087451.023
        47.500          37.300
 113064200.145 8  88101918.44246  21515384.742                    21515387.699
        49.800          36.900
                  85573301.535 6  20639998.773                    20640002.719
                        38.100
                  96679620.507 6  23269661.836                    23269664.262
                        37.200
                  89644260.027 6  21538506.242                    21538507.891
                        41.200
                  86594867.721 6  20857031.516                    20857030.887
                        40.700
 117229924.667 7  91348007.49044  22308114.844                    22308117.813
        42.900          29.400
 129410798.888 7 100839588.82644  24626057.141                    24626058.926
        44.400          28.300
                  82178199.615 7  19786292.141                    19786292.391
                        43.900
 117697982.188 7  91712884.49746  22397217.031                    22397223.211
        47.000          37.100
 115323108.175 8  89862161.91146  21945256.117                    21945258.984
        48.200          37.300
 125047933.504 7  97439975.73944  23795832.133                    23795836.156
        47.200          28.000
 110471756.258 7  86081900.28745  21022076.813                    21022080.270
        47.700          34.400
 18  3 16 10 26 56.0000000  0 15R01G27G30G15R10R16R17R18G20G21R09G08
                                G28G07G13
                  83955607.297 6  20192993.516                    20192996.992
                        39.300
 123363503.053 7  96127446.74145  23475299.102                    23475304.504
        43.100          33.600
 116073003.991 7  90446444.86646  22087959.461                    22087965.109
        47.600          37.700
 113063326.523 8  88101237.69546  21515218.297                    21515221.637
        49.900          37.400
                  85571063.038 6  20639457.680                    20639462.328
                        38.100
                  96683245.969 6  23270534.953                    23270536.926
                        36.700
                  89646481.124 6  21539039.555                    21539042.273
                        40.500
                  86593912.139 6  20856800.281                    20856800.609
                        41.100
 117232102.938 7  91349704.82344  22308528.859                    22308532.285
        42.400          28.700
 129413427.428 7 100841637.03944  24626557.344                    24626559.051
        44.100          28.200
                  82179388.894 7  19786577.844                    19786578.309
                        43.700
 117698388.606 7  91713201.16846  22397294.773                    22397300.117
        47.300          37.600
 115321750.056 8  89861103.64446  21944998.008                    21945000.461
        48.400          37.800
 125051590.753 7  97442825.52944  23796527.820                    23796531.750
        46.100          27.500
 110472645.758 7  86082593.39145  21022245.797                    21022248.906
        47.800          34.200
 18  3 16 10 26 57.0000000  0 15R01G27G30G15R10R16R17R18G20G21R09G08
                                G28G07G13
                  83954715.337 6  20192778.820                    20192781.773
                        39.600
 123366458.764 7  96129749.89645  23475861.445                    23475866.945
        45.800          35.900
 116075706.852 7  90448550.98746  22088473.438                    22088479.633
        46.700          37.800
 113062453.564 8  88100557.46146  21515052.117                    21515055.473
        49.300          36.300
                  85568825.077 6  20638919.703                    20638922.301
                        38.000
                  96686871.688 6  23271406.859                    23271409.492
                        36.000
                  89648702.806 6  21539573.852                    21539575.477
                        41.100
                  86592957.279 6  20856569.219                    20856571.668
                        41.500
 117234281.846 7  91351402.64244  22308944.188                    22308946.723
        42.400          27.900
 129416056.366 7 100843685.56944  24627057.633                    24627059.426
        44.500          28.500
                  82180578.827 7  19786864.383                    19786864.727
                        43.500
 117698795.744 7  91713518.40046  22397372.859                    22397377.938
        47.900          37.700
 115320392.498 8  89860045.81446  21944739.539                    21944741.906
        48.500          37.000
 125055248.309 7  97445675.56444  23797223.508                    23797227.758
        44.900          28.100
 110473535.979 7  86083287.06045  21022415.492                    21022418.738
        47.700          34.600
 18  3 16 10 26 58.0000000  0 15R01G27G30G15R10R16R17R18G20G21R09G08
                                G28G07G13
                  83953824.063 6  20192563.641                    20192567.508
                        39.600
 123369415.019 7  96132053.46645  23476423.773                    23476430.098
        44.900          35.200
 116078410.229 7  90450657.51546  22088987.867                    22088993.574
        46.000          37.300
 113061581.263 8  88099877.74246  21514886.445                    21514889.574
        49.400          37.200
                  85566587.608 6  20638380.461                    20638383.359
                        37.900
                  96690497.409 6  23272278.664                    23272281.844
                        36.900
                  89650925.087 6  21540107.375                    21540109.910
                        41.000
                  86592003.143 6  20856339.109                    20856340.977
                        41.200
 117236461.251 7  91353100.82144  22309360.078                    22309361.773
        43.500          28.200
 129418685.649 7 100845734.37144  24627557.859                    24627560.203
        44.500          28.700
                  82181769.424 7  19787150.828                    19787152.152
                        43.500
 117699203.573 7  91713836.18546  22397450.727                    22397455.324
        47.500          37.000
 115319035.525 8  89858988.44646  21944481.484                    21944484.027
        48.000          37.300
 125058906.099 7  97448525.76044  23797920.211                    23797924.137
        44.500          26.300
 110474426.896 7  86083981.28045  21022585.172                    21022588.457
        47.900          34.500
 18  3 16 10 26 59.0000000  0 15R01G27G30G15R10R16R17R18G20G21R09G08
                                G28G07G13
                  83952933.488 6  20192350.688                    20192353.109
                        39.400
 123372371.766 7  96134357.42345  23476987.047                    23476992.355
        44.900          35.500
 116081114.096 7  90452764.41346  22089502.641                    22089508.559
        46.400          37.600
 113060709.675 8  88099198.56046  21514720.359                    21514723.609
        49.800          37.500
                  85564350.549 6  20637837.805                    20637843.387
                        37.900
                  96694123.439 6  23273153.695                    23273155.254
                        36.200
                  89653147.982 6  21540641.719                    21540644.176
                        41.000
                  86591049.714 6  20856109.484                    20856110.922
                        41.100
 117238641.257 7  91354799.45044  22309772.977                    22309776.605
        42.300          28.900
 129421315.288 7 100847783.45344  24628057.375                    24628060.332
        44.300          28.100
                  82182960.678 7  19787437.836                    19787438.289
                        43.600
 117699612.172 8  91714154.57146  22397529.008                    22397533.000
        49.100          36.800
 115317679.084 8  89857931.51146  21944223.016                    21944225.547
        48.000          37.500
 125062564.168 7  97451376.17244  23798616.500                    23798619.730
        44.600          27.000
 110475318.556 8  86084676.07445  21022754.633                    21022757.957
        48.200          34.200
 18  3 16 10 27  0.0000000  0 15R01G27G30G15R10R16R17R18G20G21R09G08
                                G28G07G13
                  83952043.637 6  20192136.406                    20192139.191
                        39.200
 123375329.059 7  96136661.80045  23477549.008                    23477554.805
        44.600          35.700
 116083818.456 7  90454871.69846  22090016.922                    22090022.945
        47.000          37.300
 113059838.758 8  88098519.89046  21514554.898                    21514557.633
        49.700          37.100
                  85562114.079 6  20637301.219                    20637304.031
                        38.300
                  96697749.544 6  23274025.797                    23274028.086
                        37.000
                  89655371.495 6  21541175.867                    21541178.512
                        40.700
                  86590097.022 6  20855880.250                    20855881.758
                        40.900
 117240821.900 7  91356498.54044  22310189.219                    22310191.266
        42.800          28.400
 129423945.356 7 100849832.86044  24628558.313                    24628561.008
        43.600          28.900
                  82184152.624 7  19787725.313                    19787725.750
                        43.600
 117700021.501 8  91714473.52546  22397606.602                    22397610.793
        49.300          37.000
 115316323.223 7  89856875.03646  21943964.906                    21943967.977
        47.700          37.400
 125066222.527 7  97454226.82944  23799312.898                    23799315.777
        44.900          27.000
 110476210.932 8  86085371.43645  21022924.453                    21022927.582
        48.200          35.000
 18  3 16 10 27  1.0000000  0 15R01G27G30G15R10R16R17R18G20G21R09G08
                                G28G07G13
                  83951154.590 6  20191922.258                    20191925.711
                        39.300
 123378286.901 7  96138966.60445  23478112.523                    23478118.469
        43.400          34.700
 116086523.415 7  90456979.44946  22090531.891                    22090537.828
        47.600          37.300
 113058968.638 8  88097841.83946  21514389.766                    21514392.152
        49.200          37.100
                  85559878.137 6  20636761.008                    20636765.289
                        38.400
                  96701375.884 6  23274898.289                    23274900.656
                        36.700
                  89657595.669 6  21541710.430                    21541712.977
                        40.000
                  86589145.091 6  20855650.227                    20855652.504
                        40.700
 117243003.290 7  91358198.21344  22310604.961                    22310606.871
        42.800          28.400
 129426575.859 7 100851882.60444  24629058.508                    24629061.406
        43.100          28.900
                  82185345.277 7  19788012.313                    19788012.195
                        43.500
 117700431.647 8  91714793.12246  22397684.266                    22397689.348
        49.300          36.900
 115314967.966 8  89855819.02046  21943707.047                    21943709.855
        48.100          37.300
 125069881.260 7  97457077.77344  23800009.484                    23800012.250
        45.200          26.800
 110477104.098 7  86086067.41445  21023094.297                    21023097.598
        47.500          34.200
 18  3 16 10 27  2.0000000  0 15R01G27G30G15R10R16R17R18G20G21R09G08
                                G28G07G13
                  83950266.169 6  20191708.734                    20191711.523
                        39.600
 123381245.250 7  96141271.79645  23478675.406                    23478680.758
        43.200          34.200
 116089228.816 7  90459087.54546  22091046.539                    22091052.504
        47.000          36.800
 113058099.174 8  88097164.30246  21514223.961                    21514226.375
        49.900          37.000
                  85557642.650 6  20636221.328                    20636225.906
                        38.400
                  96705002.361 6  23275772.180                    23275773.297
                        36.400
                  89659820.433 6  21542243.773                    21542247.191
                        40.100
                  86588193.890 6  20855421.609                    20855423.047
                        40.900
 117245185.258 7  91359898.37444  22311019.273                    22311022.121
        42.600          28.300
 129429206.720 7 100853932.60244  24629559.289                    24629561.777
        43.000          28.200
                  82186538.527 7  19788299.859                    19788299.949
                        43.400
 117700842.491 8  91715113.27046  22397762.172                    22397767.434
        49.900          37.200
 115313613.246 8  89854763.41146  21943449.680                    21943451.789
        48.100          37.500
 125073540.208 7  97459928.88644  23800705.711                    23800708.602
        45.700          28.000
 110477997.911 7  86086763.87745  21023264.859                    21023267.691
        47.200          34.700
 18  3 16 10 27  3.0000000  0 15R01G27G30G15R10R16R17R18G20G21R09G08
                                G28G07G13
                  83949378.292 6  20191495.094                    20191497.906
                        39.300
 123384204.127 7  96143577.41145  23479238.445                    23479244.266
        43.400          34.000
 116091934.771 7  90461196.06946  22091561.250                    22091567.711
        46.200          36.900
 113057230.357 8  88096487.27346  21514058.688                    21514061.867
        49.900          37.400
                  85555407.692 6  20635682.852                    20635686.586
                        38.300
                  96708629.001 6  23276645.445                    23276646.695
                        36.600
                  89662045.808 6  21542778.820                    21542780.848
                        40.000
                  86587243.441 6  20855192.016                    20855194.148
                        40.700
 117247367.875 7  91361599.04644  22311435.094                    22311437.238
        42.900          27.100
 129431837.918 7 100855982.87144  24630060.188                    24630062.023
        43.500          28.200
                  82187732.447 7  19788587.289                    19788587.520
                        43.600
 117701254.048 8  91715433.97746  22397840.109                    22397845.609
        50.000          36.600
 115312259.048 7  89853708.19746  21943191.977                    21943194.086
        47.600          37.400
 125077199.433 7  97462780.22644  23801401.867                    23801404.707
        46.500          27.800
 110478892.448 7  86087460.90645  21023434.742                    21023437.680
        47.100          35.100
 18  3 16 10 27  4.0000000  0 15R01G27G30G15R10R16R17R18G20G21R09G08
                                G28G07G13
                  83948491.101 6  20191281.766                    20191284.480
                        39.100
 123387163.525 7  96145883.43545  23479801.508                    23479807.063
        43.600          33.900
 116094641.192 7  90463304.95546  22092076.531                    22092082.645
        46.300          37.500
 113056362.242 8  88095810.77946  21513893.328                    21513896.656
        49.800          36.500
                  85553173.211 6  20635143.367                    20635146.723
                        37.900
                  96712255.839 6  23277517.266                    23277519.438
                        36.400
                  89664271.816 6  21543313.258                    21543315.520
                        40.300
                  86586293.686 6  20854963.867                    20854965.043
                        40.500
 117249551.238 7  91363300.34944  22311850.422                    22311853.375
        43.000          28.000
 129434469.521 7 100858033.46844  24630561.445                    24630562.973
        43.800          29.000
                  82188927.030 7  19788874.469                    19788874.863
                        43.400
 117701666.334 8  91715755.25246  22397918.633                    22397924.449
        49.800          37.100
 115310905.413 7  89852653.40846  21942933.719                    21942936.617
        47.700          37.200
 125080858.951 7  97465631.79244  23802098.742                    23802101.254
        46.900          26.500
 110479787.744 7  86088158.51845  21023604.586                    21023608.066
        47.300          35.000
 18  3 16 10 27  5.0000000  0 15R01G27G30G15R10R16R17R18G20G21R09G08
                                G28G07G13
                  83947604.677 6  20191068.367                    20191071.172
                        39.100
 123390123.525 7  96148189.93745  23480364.383                    23480370.945
        43.700          32.600
 116097348.214 7  90465414.30646  22092591.391                    22092597.605
        45.800          36.900
 113055494.908 8  88095134.89646  21513728.133                    21513731.563
        50.200          37.600
                  85550939.333 6  20634604.930                    20634608.734
                        38.100
                  96715882.897 6  23278390.695                    23278392.605
                        36.500
                  89666498.510 6  21543848.250                    21543850.449
                        40.200
                  86585344.727 6  20854735.797                    20854735.918
                        40.900
 117251735.372 7  91365002.31844  22312265.172                    22312268.754
        42.400          26.600
 129437101.573 7 100860084.40844  24631062.531                    24631063.957
        44.800          27.900
                  82190122.313 7  19789162.203                    19789162.566
                        43.600
 117702079.455 8  91716077.17446  22397997.523                    22398002.949
        49.900          37.200
 115309552.434 7  89851599.11646  21942676.500                    21942679.172
        47.500          37.500
 125084518.842 7  97468483.66844  23802794.664                    23802797.582
        47.600          27.400
 110480683.815 7  86088856.74645  21023775.516                    21023779.043
        47.800          34.900
 18  3 16 10 27  6.0000000  0 15R01G27G30G15R10R16R17R18G20G21R09G08
                                G28G07G13
                  83946718.997 6  20190855.711                    20190858.188
                        39.100
 123393084.038 7  96150496.82845  23480928.234                    23480933.938
        43.100          32.200
 116100055.763 7  90467524.06746  22093106.883                    22093112.438
        46.400          37.100
 113054628.289 8  88094459.55846  21513563.352                    21513566.578
        50.000          36.900
                  85548705.962 6  20634066.117                    20634070.047
                        38.300
                  96719510.150 6  23279264.523                    23279265.293
                        36.300
                  89668725.821 6  21544383.773                    21544385.262
                        40.500
                  86584396.514 6  20854507.305                    20854508.078
                        40.500
 117253920.087 7  91366704.75244  22312682.742                    22312684.438
        43.600          28.900
 129439734.008 7 100862135.65844  24631563.680                    24631564.965
        44.300          28.700
                  82191318.255 7  19789450.531                    19789450.906
                        43.400
 117702493.327 8  91716399.67446  22398075.992                    22398081.422
        49.900          37.400
 115308200.032 7  89850545.28246  21942419.188                    21942421.684
        47.500          37.300
 125088179.020 7  97471335.76444  23803490.734                    23803494.234
        47.300          27.500
 110481580.661 7  86089555.58645  21023946.500                    21023949.711
        47.900          35.100
 18  3 16 10 27  7.0000000  0 15R01G27G30G15R10R16R17R18G20G21R09G08
                                G28G07G13
                  83945833.988 6  20190642.563                    20190645.848
                        39.500
 123396045.095 7  96152804.13845  23481491.445                    23481497.496
        42.700          31.800
 116102763.786 7  90469634.19646  22093622.773                    22093628.121
        45.900          37.600
 113053762.388 8  88093784.78746  21513398.656                    21513401.992
        49.800          36.600
                  85546473.120 6  20633527.688                    20633531.309
                        38.100
                  96723137.522 6  23280136.992                    23280138.234
                        36.200
                  89670953.751 6  21544919.320                    21544921.438
                        40.600
                  86583449.045 6  20854279.523                    20854279.609
                        40.800
 117256105.471 7  91368407.72644  22313096.742                    22313100.641
        42.100          26.700
 129442366.843 7 100864187.21944  24632063.859                    24632066.191
        44.200          28.900
                  82192514.855 7  19789738.633                    19789738.527
                        43.500
 117702907.945 8  91716722.75546  22398154.523                    22398160.219
        50.000          37.700
 115306848.178 7  89849491.87646  21942162.133                    21942164.457
        47.900          37.700
 125091839.491 7  97474188.07944  23804187.453                    23804191.035
        46.700          26.300
 110482478.200 7  86090254.97145  21024117.258                    21024120.484
        47.900          34.600
 18  3 16 10 27  8.0000000  0 15R01G27G30G15R10R16R17R18G20G21R09G08
                                G28G07G13
                  83944949.739 6  20190429.742                    20190433.277
                        39.700
 123399006.688 7  96155111.87645  23482055.203                    23482060.820
        42.900          30.900
 116105472.382 7  90471744.76646  22094137.945                    22094143.637
        46.200          37.600
 113052897.252 8  88093110.63346  21513233.797                    21513237.359
        50.000          36.700
                  85544240.785 6  20632989.406                    20632993.379
                        38.000
                  96726765.125 6  23281009.680                    23281011.383
                        36.500
                  89673182.330 6  21545454.711                    21545456.445
                        40.700
                  86582502.352 6  20854051.555                    20854052.027
                        40.800
 117258291.502 7  91370111.20044  22313513.023                    22313516.164
        42.800          28.200
 129445000.053 7 100866239.06344  24632564.930                    24632567.168
        43.700          28.600
                  82193712.114 7  19790026.141                    19790026.848
                        43.600
 117703323.297 8  91717046.41246  22398233.359                    22398239.793
        49.600          37.100
 115305496.931 8  89848438.94346  21941905.000                    21941907.863
        48.100          37.800
 125095500.247 7  97477040.61444  23804883.727                    23804887.520
        46.200          26.400
 110483376.477 8  86090954.93545  21024288.250                    21024290.969
        48.200          34.600
 18  3 16 10 27  9.0000000  0 15R01G27G30G15R10R16R17R18G20G21R09G08
                                G28G07G13
                  83944066.124 6  20190217.758                    20190220.551
                        39.300
 123401968.717 7  96157419.95345  23482618.430                    23482624.465
        42.300          30.500
 116108181.415 7  90473855.68846  22094653.336                    22094659.141
        46.700          37.700
 113052032.803 8  88092437.04546  21513069.227                    21513073.273
        50.300          36.500
                  85542008.859 6  20632450.547                    20632455.070
                        38.500
                  96730392.774 6  23281883.781                    23281884.844
                        37.100
                  89675411.438 6  21545990.609                    21545992.391
                        40.900
                  86581556.291 6  20853823.242                    20853823.934
                        40.900
 117260478.058 7  91371815.06344  22313931.070                    22313932.250
        44.100          28.700
 129447633.578 7 100868291.15744  24633065.805                    24633068.082
        43.700          29.500
                  82194909.984 7  19790314.445                    19790315.258
                        43.600
 117703739.311 8  91717370.59046  22398312.289                    22398318.934
        49.500          37.300
 115304146.195 8  89847386.41146  21941648.297                    21941650.680
        48.500          37.500
 125099161.185 7  97479893.27944  23805580.492                    23805584.313
        45.700          26.000
 110484275.395 8  86091655.39245  21024459.164                    21024462.383
        48.200          34.900
 18  3 16 10 27 10.0000000  0 15R01G27G30G15R10R16R17R18G20G21R09G08
                                G28G07G13
                  83943183.254 6  20190004.977                    20190008.848
                        39.600
 123404931.271 6  96159728.44344  23483182.008                    23483188.137
        41.900          29.200
 116110891.037 7  90475967.08246  22095168.711                    22095175.391
        46.000          36.800
 113051169.083 8  88091764.06146  21512904.898                    21512908.902
        50.500          36.800
                  85539777.478 6  20631913.438                    20631916.766
                        38.500
                  96734020.704 6  23282755.789                    23282757.820
                        36.800
                  89677641.180 6  21546526.984                    21546527.637
                        41.000
                  86580611.013 6  20853596.422                    20853596.293
                        40.900
 117262665.352 7  91373519.52444  22314344.484                    22314348.918
        42.200          27.500
 129450267.537 7 100870343.58444  24633567.102                    24633569.289
        43.400          28.600
                  82196108.530 7  19790603.258                    19790603.816
                        43.300
 117704156.108 8  91717695.37046  22398391.813                    22398398.305
        49.100          37.300
 115302796.080 8  89846334.37946  21941391.195                    21941394.000
        48.300          37.500
 125102822.454 7  97482746.18844  23806276.898                    23806281.449
        45.000          26.600
 110485175.094 8  86092356.46045  21024630.430                    21024633.375
        48.200          35.100
 18  3 16 10 27 11.0000000  0 15R01G27G30G15R10R16R17R18G20G21R09G08
                                G28G07G13
                  83942301.129 6  20189793.688                    20189796.531
                        39.700
 123407894.384 6  96162037.36544  23483746.625                    23483752.047
        41.600          28.100
 116113601.234 7  90478078.94546  22095684.531                    22095690.961
        46.200          37.200
 113050306.041 8  88091091.59846  21512740.766                    21512744.676
        50.000          36.800
                  85537546.595 6  20631375.023                    20631378.348
                        38.300
                  96737648.755 6  23283629.328                    23283630.949
                        37.100
                  89679871.559 6  21547063.445                    21547064.496
                        41.100
                  86579666.450 6  20853368.070                    20853368.547
                        40.400
 117264853.239 7  91375224.44344  22314761.195                    22314764.730
        42.900          28.200
 129452901.888 7 100872396.31944  24634068.328                    24634070.734
        43.900          27.400
                  82197307.771 7  19790892.398                    19790892.660
                        43.700
 117704573.650 7  91718020.73146  22398470.883                    22398477.469
        47.900          37.200
 115301446.521 8  89845282.77746  21941133.695                    21941137.262
        48.100          37.900
 125106483.977 7  97485599.28544  23806973.891                    23806977.965
        45.500          27.400
 110486075.486 7  86093058.06345  21024801.719                    21024804.660
        47.900          34.600
 18  3 16 10 27 12.0000000  0 15R01G27G30G15R10R16R17R18G20G21R09G08
                                G28G07G13
                  83941419.719 6  20189580.891                    20189584.098
                        39.600
 123410858.049 6  96164346.71744  23484310.133                    23484315.906
        41.100          27.100
 116116311.901 7  90480191.18946  22096200.344                    22096206.539
        46.400          37.300
 113049443.722 8  88090419.68746  21512576.734                    21512580.426
        49.800          37.200
                  85535316.219 6  20630836.453                    20630840.363
                        38.200
                  96741277.057 6  23284502.414                    23284504.262
                        36.700
                  89682102.553 6  21547599.531                    21547600.379
                        41.300
                  86578722.618 6  20853141.523                    20853141.254
                        40.500
 117267041.728 7  91376929.81444  22315179.148                    22315181.242
        44.000          27.300
 129455536.649 7 100874449.37844  24634570.219                    24634572.391
        44.000          28.100
                  82198507.659 7  19791181.563                    19791181.273
                        43.400
 117704991.959 7  91718346.68646  22398550.375                    22398557.199
        47.300          37.000
 115300097.500 8  89844231.59346  21940877.289                    21940880.270
        48.000          37.700
 125110145.760 7  97488452.57644  23807670.805                    23807674.711
        45.700          27.200
 110486976.654 8  86093760.27845  21024973.016                    21024976.137
        48.100          35.100
 18  3 16 10 27 13.0000000  0 15R01G27G30G15R10R16R17R18G20G21R09G08
                                G28G07G13
                  83940538.972 6  20189369.133                    20189372.094
                        39.300
 123413822.227 6  96166656.47044  23484873.453                    23484879.746
        40.800          26.100
 116119023.105 7  90482303.83946  22096716.406                    22096722.145
        46.600          36.900
 113048582.073 8  88089748.27546  21512412.422                    21512416.320
        49.600          36.900
                  85533086.380 6  20630299.945                    20630302.988
                        37.900
                  96744905.537 6  23285375.695                    23285377.238
                        37.300
                  89684334.186 6  21548135.875                    21548136.684
                        41.500
                  86577779.545 6  20852913.859                    20852914.172
                        41.000
 117269230.859 7  91378635.68844  22315595.070                    22315598.098
        43.800          28.500
 129458171.783 7 100876502.73944  24635071.492                    24635073.875
        44.100          28.300
                  82199708.224 7  19791470.805                    19791470.672
                        43.400
 117705410.994 7  91718673.20746  22398630.250                    22398636.820
        47.200          37.300
 115298749.075 8  89843180.85846  21940620.867                    21940623.547
        48.000          37.500
 125113807.863 7  97491306.09944  23808368.320                    23808371.586
        46.400          27.300
 110487878.529 8  86094463.03745  21025144.898                    21025148.242
        48.400          35.100
 18  3 16 10 27 14.0000000  0 15R01G27G30G15R10R16R17R18G20G21R09G08
                                G28G07G13
                  83939658.940 6  20189157.445                    20189160.512
                        39.300
 123416786.938 6  96168966.64844  23485438.180                    23485443.574
        39.700          24.800
 116121734.827 7  90484416.88646  22097232.906                    22097238.422
        47.400          37.400
 113047721.148 8  88089077.41546  21512249.391                    21512252.574
        49.800          36.700
                  85530857.047 6  20629761.320                    20629765.988
                        38.100
                  96748534.176 6  23286248.313                    23286251.473
                        38.000
                  89686566.416 6  21548673.102                    21548673.371
                        41.700
                  86576837.203 6  20852687.461                    20852687.227
                        40.500
 117271420.586 7  91380342.02244  22316011.297                    22316014.715
        43.000          27.900
 129460807.330 7 100878556.41144  24635573.023                    24635575.082
        44.300          28.600
                  82200909.447 7  19791759.516                    19791759.910
                        43.400
 117705830.769 7  91719000.29946  22398710.820                    22398716.723
        47.000          37.000
 115297401.216 8  89842130.56246  21940364.438                    21940366.563
        48.000          37.700
 125117470.213 7  97494159.80444  23809065.586                    23809068.277
        47.000          27.100
 110488781.127 8  86095166.36345  21025316.508                    21025319.617
        48.300          35.100
 18  3 16 10 27 15.0000000  0 15R01G27G30G15R10R16R17R18G20G21R09G08
                                G28G07G13
                  83938779.564 6  20188945.680                    20188948.820
                        39.500
 123419752.189 6  96171277.24644  23486002.289                    23486007.883
        39.300          24.200
 116124447.049 7  90486530.33546  22097748.195                    22097754.223
        46.400          37.000
 113046860.967 8  88088407.13446  21512085.305                    21512088.613
        49.600          37.300
                  85528628.168 6  20629223.219                    20629227.750
                        38.200
                  96752162.988 6  23287122.344                    23287124.063
                        37.600
                  89688799.264 6  21549209.031                    21549210.738
                        41.800
                  86575895.576 6  20852460.414                    20852460.797
                        40.400
 117273610.919 7  91382048.79844  22316427.727                    22316431.266
        42.400          27.700
 129463443.237 7 100880610.36544  24636075.047                    24636076.512
        44.300          28.200
                  82202111.354 7  19792048.961                    19792048.895
                        43.400
 117706251.303 7  91719327.97246  22398791.297                    22398796.676
        47.900          37.100
 115296053.924 7  89841080.70346  21940108.500                    21940110.570
        47.600          38.300
 125121132.857 7  97497013.74744  23809762.789                    23809765.434
        47.600          26.900
 110489684.433 8  86095870.23145  21025488.234                    21025491.977
        48.200          34.600
 18  3 16 10 27 16.0000000  0 15R01G27G30G15R10R16R17R18G20G21R09G08
                                G28G07G13
                  83937900.866 6  20188734.969                    20188737.754
                        39.600
 123422717.967 6  96173588.24043  23486566.133                    23486572.559
        38.900          22.200
 116127159.789 7  90488644.18946  22098263.977                    22098270.598
        46.200          37.200
 113046001.450 8  88087737.37746  21511921.914                    21511925.172
        49.800          37.800
                  85526399.879 6  20628686.258                    20628690.230
                        38.100
                  96755791.984 6  23287997.031                    23287998.551
                        37.900
                  89691032.700 6  21549746.086                    21549747.313
                        41.500
                  86574954.738 6  20852234.156                    20852233.426
                        40.400
 117275801.893 7  91383756.05244  22316845.797                    22316848.156
        43.800          28.300
 129466079.581 7 100882664.65844  24636576.938                    24636578.336
        45.100          28.400
                  82203313.939 7  19792338.789                    19792339.270
                        43.600
 117706672.590 8  91719656.23846  22398871.609                    22398876.641
        48.300          36.900
 115294707.227 8  89840031.30146  21939852.328                    21939854.539
        48.200          38.000
 125124795.780 7  97499867.91044  23810459.469                    23810462.527
        47.700          28.100
 110490588.470 8  86096574.66845  21025660.203                    21025663.566
        48.300          34.900
 18  3 16 10 27 17.0000000  0 15R01G27G30G15R10R16R17R18G20G21R09G08
                                G28G07G13
                  83937022.846 6  20188523.453                    20188526.359
                        39.800
 123425684.168 6  96175899.59143  23487130.664                    23487136.715
        38.100          21.500
 116129873.011 7  90490758.40046  22098780.805                    22098786.750
        46.600          36.700
 113045142.573 8  88087068.12546  21511758.477                    21511761.680
        49.400          37.200
                  85524172.028 6  20628149.078                    20628153.074
                        38.500
                  96759421.072 6  23288871.070                    23288871.441
                        37.200
                  89693266.740 6  21550282.211                    21550284.230
                        41.300
                  86574014.587 6  20852007.609                    20852006.945
                        40.400
 117277993.479 7  91385463.80544  22317262.695                    22317265.285
        43.600          28.500
 129468716.229 7 100884719.19644  24637078.031                    24637080.145
        44.900          28.500
                  82204517.180 7  19792628.602                    19792628.918
                        43.400
 117707094.607 8  91719985.07946  22398952.453                    22398957.332
        48.800          37.100
 115293361.043 8  89838982.29946  21939595.328                    21939598.508
        48.100          38.100
 125128458.979 7  97502722.29644  23811156.750                    23811159.438
        47.500          26.700
 110491493.235 8  86097279.66945  21025832.406                    21025835.676
        48.700          34.900
 18  3 16 10 27 18.0000000  0 15R01G27G30G15R10R16R17R18G20G21R09G08
                                G28G07G13
                  83936145.549 6  20188311.648                    20188314.992
                        39.400
 123428651.028 6  96178211.43543  23487695.297                    23487701.371
        37.100          21.300
 116132586.781 7  90492873.02546  22099297.414                    22099303.512
        46.600          36.600
 113044284.516 8  88086399.50846  21511595.125                    21511598.652
        49.500          37.700
                  85521944.752 6  20627610.836                    20627615.504
                        38.300
                  96763050.408 6  23289742.594                    23289745.758
                        36.700
                  89695501.459 6  21550818.367                    21550820.988
                        41.300
                  86573075.232 6  20851781.445                    20851781.047
                        40.500
 117280185.728 7  91387172.09544  22317678.984                    22317682.383
        43.600          27.500
 129471353.305 7 100886774.06344  24637580.227                    24637582.141
        45.300          28.900
                  82205721.099 7  19792917.984                    19792918.445
                        43.400
 117707517.364 8  91720314.49746  22399032.883                    22399037.703
        48.800          37.200
 115292015.479 7  89837933.77746  21939339.117                    21939342.590
        47.600          37.700
 125132122.446 7  97505576.90744  23811853.563                    23811856.594
        47.200          26.000
 110492398.783 8  86097985.28945  21026005.148                    21026008.441
        48.400          34.900
 18  3 16 10 27 19.0000000  0 15R01G27G30G15R10R16R17R18G20G21R09G08
                                G28G07G13
                  83935268.855 6  20188101.680                    20188104.234
                        39.500
 123431618.246 6  96180523.56143  23488259.555                    23488265.375
        36.100          19.600
 116135300.914 7  90494987.92546  22099814.078                    22099819.395
        47.100          36.700
 113043427.018 8  88085731.33646  21511432.172                    21511435.543
        49.800          37.300
                  85519717.893 6  20627074.938                    20627078.844
                        38.200
                  96766679.836 6  23290616.586                    23290618.531
                        36.800
                  89697736.721 6  21551355.813                    21551358.328
                        41.100
                  86572136.496 6  20851554.688                    20851554.797
                        40.400
 117282378.518 7  91388880.79844  22318096.148                    22318099.633
        43.200          28.400
 129473990.649 7 100888829.13844  24638082.289                    24638084.289
        45.000          27.400
                  82206925.584 7  19793207.945                    19793208.031
                        43.400
 117707940.765 8  91720644.42346  22399112.961                    22399118.172
        49.100          37.700
 115290670.349 7  89836885.60446  21939083.148                    21939086.164
        47.400          37.500
 125135786.081 7  97508431.61344  23812551.000                    23812553.793
        46.300          25.300
 110493304.936 8  86098691.38645  21026177.508                    21026180.508
        48.400          35.100
 18  3 16 10 27 20.0000000  0 15R01G27G30G15R10R16R17R18G20G21R09G08
                                G28G07G13
                  83934392.937 6  20187890.516                    20187894.188
                        39.900
 123434586.076 5  96182836.18043  23488824.523                    23488830.645
        35.900          19.300
 116138015.625 7  90497103.28146  22100330.625                    22100336.789
        47.000          36.600
 113042570.278 8  88085063.76846  21511268.867                    21511272.355
        49.800          37.500
                  85517491.577 6  20626537.453                    20626541.828
                        37.900
                  96770309.479 6  23291490.125                    23291491.719
                        36.500
                  89699972.630 6  21551892.469                    21551895.668
                        41.300
                  86571198.557 6  20851328.648                    20851328.832
                        40.600
 117284571.963 7  91390590.01044  22318514.133                    22318517.043
        43.600          28.800
 129476628.430 7 100890884.55044  24638584.563                    24638585.875
        45.200          28.200
                  82208130.739 7  19793498.594                    19793498.688
                        43.300
 117708364.942 8  91720974.95746  22399193.570                    22399199.238
        49.400          37.400
 115289325.850 8  89835837.92346  21938828.008                    21938830.961
        48.000          37.700
 125139450.093 7  97511286.60444  23813247.984                    23813251.133
        45.800          24.800
 110494211.870 8  86099398.10145  21026350.109                    21026353.250
        48.100          34.800
 18  3 16 10 27 21.0000000  0 15R01G27G30G15R10R16R17R18G20G21R09G08
                                G28G07G13
                  83933517.763 6  20187680.320                    20187683.461
                        39.900
 123437554.490 5  96185149.26043  23489388.797                    23489395.176
        34.800          18.300
 116140730.912 7  90499219.08846  22100846.703                    22100852.918
        46.600          36.600
 113041714.255 8  88084396.73746  21511105.836                    21511109.047
        49.600          37.100
                  85515265.776 6  20625999.648                    20626004.824
                        38.300
                  96773939.368 6  23292363.633                    23292366.164
                        36.700
                  89702209.187 6  21552430.305                    21552432.848
                        41.000
                  86570261.370 6  20851102.695                    20851103.477
                        40.800
 117286766.033 7  91392299.70644  22318931.930                    22318934.504
        42.500          28.200
 129479266.668 7 100892940.33344  24639085.594                    24639087.816
        45.000          27.900
                  82209336.618 7  19793788.516                    19793788.660
                        43.300
 117708789.916 8  91721306.10746  22399273.953                    22399279.832
        49.300          37.300
 115287981.983 8  89834790.72546  21938572.438                    21938574.785
        48.400          37.800
 125143114.442 7  97514141.88144  23813944.813                    23813948.305
        45.700          26.400
 110495119.587 8  86100105.42845  21026522.508                    21026525.953
        48.400          35.100
 18  3 16 10 27 22.0000000  0 15R01G27G30G15R10R16R17R18G20G21R09G08
                                G28G07G13
                  83932643.342 6  20187469.914                    20187473.316
                        39.800
 123440523.418 5  96187462.72342  23489953.609                    23489960.121
        34.800          17.400
 116143446.760 7  90501335.32246  22101363.836                    22101369.867
        47.000          37.100
 113040858.990 8  88083730.29346  21510943.234                    21510946.453
        49.300          37.100
                  85513040.556 6  20625464.891                    20625467.563
                        37.600
                  96777569.409 6  23293238.281                    23293239.906
                        36.400
                  89704446.372 6  21552966.656                    21552970.008
                        40.900
                  86569324.943 6  20850877.227                    20850877.617
                        40.400
 117288960.753 7  91394009.91444  22319348.719                    22319352.301
        42.400          28.900
 129481905.319 7 100894996.42844  24639587.336                    24639590.066
        45.100          27.200
                  82210543.153 7  19794079.422                    19794079.117
                        43.300
 117709215.646 8  91721637.85446  22399355.328                    22399360.961
        48.900          37.600
 115286638.737 8  89833744.00446  21938316.727                    21938319.039
        48.900          37.800
 125146779.061 7  97516997.35844  23814642.063                    23814645.703
        45.700          27.000
 110496028.025 8  86100813.31345  21026695.383                    21026698.727
        48.200          35.000
 18  3 16 10 27 23.0000000  0 15R01G27G30G15R10R16R17R18G20G21R09G08
                                G28G07G13
                  83931769.657 6  20187259.922                    20187263.078
                        39.700
 123443492.909 5  96189776.60042  23490517.867                    23490525.121
        34.100          16.900
 116146163.120 7  90503451.96346  22101880.938                    22101886.996
        47.200          37.100
 113040004.465 8  88083064.41046  21510780.406                    21510783.840
        49.400          37.100
                  85510815.835 6  20624926.438                    20624931.461
                        38.000
                  96781199.676 6  23294112.328                    23294113.109
                        36.700
                  89706684.213 6  21553504.266                    21553508.016
                        40.700
                  86568389.277 6  20850652.117                    20850652.051
                        40.900
 117291156.162 6  91395720.62744  22319766.414                    22319769.902
        41.600          27.300
 129484544.397 7 100897052.87144  24640089.914                    24640092.547
        44.500          27.200
                  82211750.379 7  19794370.594                    19794369.938
                        43.600
 117709642.141 8  91721970.18446  22399436.383                    22399442.617
        49.300          37.300
 115285296.115 8  89832697.77546  21938061.000                    21938063.441
        48.400          37.000
 125150444.100 7  97519853.16144  23815339.414                    23815343.441
        46.200          27.000
 110496937.225 8  86101521.78645  21026868.609                    21026871.977
        48.300          34.700
 18  3 16 10 27 24.0000000  0 15R01G27G30G15R10R16R17R18G20G21R09G08
                                G28G07G13
                  83930896.607 6  20187049.281                    20187052.859
                        39.700
 123446462.855 5  96192090.84742  23491083.453                    23491090.207
        34.700          16.300
 116148879.926 7  90505568.94546  22102397.875                    22102403.484
        47.700          36.900
 113039150.692 8  88082399.13846  21510618.320                    21510621.820
        49.900          37.000
                  85508591.576 6  20624390.266                    20624394.691
                        37.600
                  96784830.081 6  23294984.531                    23294987.160
                        36.200
                  89708922.647 6  21554042.008                    21554045.684
                        40.400
                  86567454.333 6  20850427.602                    20850426.852
                        40.800
 117293352.218 7  91397431.83844  22320185.227                    22320187.414
        42.700          27.800
 129487183.789 7 100899109.55344  24640591.641                    24640594.633
        44.100          28.100
                  82212958.225 7  19794660.445                    19794660.730
                        43.200
 117710069.343 8  91722303.06946  22399517.195                    22399523.215
        49.200          37.200
 115283954.002 8  89831651.94246  21937805.344                    21937808.109
        48.200          38.100
 125154109.280 7  97522709.08244  23816037.430                    23816040.965
        46.400          27.300
 110497847.116 8  86102230.78145  21027041.680                    21027044.676
        48.100          34.800
 18  3 16 10 27 25.0000000  0 15R01G27G30G15R10R16R17R18G20G21R09G08
                                G28G07G13
                  83930024.279 6  20186840.156                    20186842.910
                        39.400
 123449433.366 5  96194405.52142  23491649.461                    23491655.273
        35.500          17.400
 116151597.244 7  90507686.30746  22102915.031                    22102920.770
        47.400          36.100
 113038297.599 8  88081734.42446  21510455.742                    21510459.555
        49.900          36.700
                  85506367.846 6  20623855.109                    20623858.723
                        37.600
                  96788460.632 6  23295858.297                    23295860.230
                        36.700
                  89711161.716 6  21554579.188                    21554582.898
                        40.100
                  86566520.134 6  20850203.148                    20850202.363
                        41.000
 117295548.878 7  91399143.54044  22320604.258                    22320605.809
        43.600          28.700
 129489823.638 7 100901166.58544  24641093.766                    24641096.691
        43.300          27.600
                  82214166.748 7  19794952.055                    19794952.141
                        43.400
 117710497.299 8  91722636.53946  22399598.641                    22399605.027
        48.700          37.100
 115282612.527 8  89830606.62146  21937549.961                    21937552.930
        48.300          37.800
 125157774.655 7  97525565.10844  23816735.477                    23816738.648
        46.000          26.500
 110498757.791 8  86102940.39545  21027215.227                    21027218.180
        48.000          34.800
 18  3 16 10 27 26.0000000  0 15R01G27G30G15R10R16R17R18G20G21R09G08
                                G28G07G13
                  83929152.630 6  20186630.828                    20186633.719
                        39.700
 123452404.447 6  96196720.66843  23492215.023                    23492220.754
        36.400          18.300
 116154315.131 7  90509804.10846  22103431.664                    22103438.000
        47.000          36.600
 113037445.202 8  88081070.25446  21510293.656                    21510297.215
        50.000          36.300
                  85504144.593 6  20623317.594                    20623321.871
                        38.100
                  96792091.305 6  23296732.289                    23296734.984
                        36.800
                  89713401.396 6  21555117.250                    21555120.820
                        40.000
                  86565586.695 6  20849977.555                    20849976.867
                        41.000
 117297746.150 6  91400855.75844  22321020.414                    22321023.988
        41.600          28.900
 129492463.841 7 100903223.89344  24641596.344                    24641599.281
        43.300          28.400
                  82215375.957 7  19795242.953                    19795242.746
                        43.400
 117710926.028 8  91722970.61246  22399680.250                    22399686.469
        48.800          37.400
 115281271.634 8  89829561.76246  21937295.000                    21937297.926
        48.500          37.700
 125161440.384 7  97528421.38044  23817433.266                    23817436.207
        46.500          26.800
 110499669.137 8  86103650.53745  21027388.508                    21027391.555
        48.100          34.800
 18  3 16 10 27 27.0000000  0 15R01G27G30G15R10R16R17R18G20G21R09G08
                                G28G07G13
                  83928281.658 6  20186421.063                    20186424.324
                        39.600
 123455375.976 6  96199036.16943  23492780.461                    23492786.094
        37.500          19.000
 116157033.564 7  90511922.33546  22103948.898                    22103955.191
        47.200          36.700
 113036593.530 8  88080406.63446  21510131.297                    21510135.117
        49.800          36.700
                  85501921.929 6  20622783.484                    20622786.211
                        38.000
                  96795722.264 6  23297605.477                    23297608.496
                        36.900
                  89715641.703 6  21555655.898                    21555658.965
                        40.000
                  86564653.993 6  20849752.898                    20849752.398
                        40.800
 117299944.077 6  91402568.47444  22321438.172                    22321441.633
        41.100          29.000
 129495104.432 7 100905281.49044  24642098.250                    24642101.676
        42.900          27.100
                  82216585.830 7  19795534.594                    19795534.379
                        43.200
 117711355.481 8  91723305.25446  22399761.781                    22399768.094
        48.800          37.900
 115279931.346 8  89828517.39046  21937040.336                    21937043.172
        48.700          37.900
 125165106.388 7  97531277.87944  23818131.430                    23818133.906
        46.800          27.500
 110500581.227 8  86104361.25445  21027561.891                    21027565.383
        48.000          35.000
 18  3 16 10 27 28.0000000  0 15R01G27G30G15R10R16R17R18G20G21R09G08
                                G28G07G13
                  83927411.402 6  20186211.984                    20186214.605
                        39.600
 123458348.078 6  96201352.09543  23493346.805                    23493351.398
        38.000          20.400
 116159752.465 7  90514040.94146  22104466.914                    22104472.816
        47.100          36.400
 113035742.543 8  88079743.55346  21509969.484                    21509972.762
        49.500          36.600
                  85499699.741 6  20622245.391                    20622251.102
                        38.200
                  96799353.405 6  23298479.625                    23298482.230
                        36.600
                  89717882.618 6  21556194.641                    21556196.590
                        40.200
                  86563722.008 6  20849528.492                    20849527.832
                        40.700
 117302142.577 7  91404281.60044  22321858.602                    22321860.566
        42.700          27.900
 129497745.438 7 100907339.42244  24642601.148                    24642604.398
        42.400          27.800
                  82217796.357 7  19795825.898                    19795825.316
                        43.400
 117711785.664 7  91723640.46246  22399843.563                    22399850.074
        47.900          37.400
 115278591.631 8  89827473.47946  21936785.344                    21936788.406
        48.300          37.700
 125168772.578 7  97534134.51244  23818828.813                    23818831.758
        46.600          27.900
 110501494.091 8  86105072.58045  21027735.539                    21027738.785
        48.300          34.600
 18  3 16 10 27 29.0000000  0 15R01G27G30G15R10R16R17R18G20G21R09G08
                                G28G07G13
                  83926541.883 6  20186002.469                    20186005.680
                        39.500
 123461320.687 6  96203668.42843  23493912.820                    23493916.977
        39.200          22.900
 116162471.917 7  90516159.98146  22104984.219                    22104990.082
        47.200          37.100
 113034892.295 8  88079081.03746  21509807.703                    21509810.996
        49.100          37.400
                  85497478.112 6  20621710.313                    20621714.539
                        38.000
                  96802984.727 6  23299353.875                    23299356.848
                        36.500
                  89720124.178 6  21556733.320                    21556735.148
                        39.900
                  86562790.752 6  20849305.641                    20849303.762
                        40.500
 117304341.696 7  91405995.21044  22322276.250                    22322279.129
        42.600          27.200
 129500386.833 7 100909397.64644  24643104.297                    24643106.559
        42.500          27.300
                  82219007.563 7  19796117.352                    19796117.730
                        43.300
 117712216.643 7  91723976.28946  22399925.406                    22399931.758
        47.700          37.300
 115277252.548 8  89826430.06046  21936530.586                    21936533.473
        48.300          37.300
 125172439.167 7  97536991.44644  23819526.453                    23819529.574
        46.900          27.900
 110502407.656 8  86105784.46645  21027909.258                    21027912.523
        48.100          34.600
 18  3 16 10 27 30.0000000  0 15R01G27G30G15R10R16R17R18G20G21R09G08
                                G28G07G13
                  83925673.079 6  20185793.523                    20185797.020
                        39.500
 123464293.840 6  96205985.18144  23494478.289                    23494483.195
        39.000          26.200
 116165191.873 7  90518279.41446  22105501.961                    22105508.406
        47.300          36.600
 113034042.709 8  88078419.02646  21509645.898                    21509649.449
        49.400          36.900
                  85495257.005 6  20621174.742                    20621178.688
                        38.100
                  96806616.232 6  23300228.641                    23300230.457
                        36.300
                  89722366.367 6  21557272.352                    21557273.469
                        40.000
                  86561860.233 6  20849081.023                    20849079.867
                        40.400
 117306541.475 6  91407709.32244  22322693.727                    22322697.617
        41.700          27.900
 129503028.613 7 100911456.15544  24643607.422                    24643609.402
        42.700          27.300
                  82220219.432 7  19796409.164                    19796408.820
                        43.400
 117712648.355 7  91724312.67946  22400007.297                    22400013.879
        47.300          37.500
 115275913.986 8  89825387.04846  21936275.242                    21936278.309
        48.500          37.300
 125176105.979 7  97539848.55744  23820224.414                    23820227.594
        46.800          26.400
 110503321.966 8  86106496.91845  21028083.219                    21028086.750
        48.200          34.600
 18  3 16 10 27 31.0000000  0 15R01G27G30G15R10R16R17R18G20G21R09G08
                                G28G07G13
                  83924804.982 6  20185584.508                    20185588.184
                        39.600
 123467267.458 6  96208302.29144  23495043.688                    23495048.875
        40.500          26.800
 116167912.343 7  90520399.24246  22106019.516                    22106025.785
        47.600          36.900
 113033193.845 8  88077757.56846  21509484.305                    21509487.617
        49.500          36.700
                  85493036.374 6  20620638.125                    20620642.875
                        37.700
                  96810247.876 6  23301103.430                    23301104.977
                        36.400
                  89724609.170 6  21557810.828                    21557811.863
                        40.000
                  86560930.460 6  20848856.836                    20848855.184
                        40.400
 117308741.858 7  91409423.87844  22323113.344                    22323116.055
        43.100          28.200
 129505670.776 7 100913514.96544  24644110.953                    24644112.141
        43.000          27.400
                  82221431.963 7  19796701.117                    19796701.148
                        43.400
 117713080.790 7  91724649.63646  22400090.438                    22400096.234
        47.800          37.700
 115274576.026 8  89824344.50346  21936021.063                    21936023.805
        48.500          37.600
 125179773.131 7  97542705.94944  23820922.023                    23820925.348
        46.700          27.100
 110504236.947 8  86107209.89345  21028257.711                    21028260.844
        48.500          34.400
 18  3 16 10 27 32.0000000  0 15R01G27G30G15R10R16R17R18G20G21R09G08
                                G28G07G13
                  83923937.574 6  20185376.055                    20185379.191
                        39.000
 123470241.624 6  96210619.81944  23495610.500                    23495614.578
        41.400          27.000
 116170633.330 7  90522519.47546  22106537.500                    22106542.938
        47.500          36.700
 113032345.660 8  88077096.64146  21509323.016                    21509326.586
        49.300          36.900
                  85490816.302 6  20620103.789                    20620108.023
                        37.600
                  96813879.709 6  23301978.258                    23301979.141
                        36.700
                  89726852.560 6  21558349.969                    21558351.188
                        40.200
                  86560001.454 6  20848633.000                    20848632.004
                        40.200
 117310942.820 7  91411138.89444  22323533.242                    22323534.785
        44.300          27.100
 129508313.312 7 100915574.06844  24644614.109                    24644615.316
        43.300          27.600
                  82222645.129 7  19796992.836                    19796993.074
                        43.400
 117713513.974 7  91724987.16346  22400173.250                    22400178.895
        47.900          37.700
 115273238.622 8  89823302.39646  21935766.742                    21935769.395
        48.800          37.900
 125183440.536 7  97545563.57344  23821619.961                    23821623.465
        46.800          27.200
 110505152.681 8  86107923.43945  21028431.969                    21028435.160
        49.100          34.700
 18  3 16 10 27 33.0000000  0 15R01G27G30G15R10R16R17R18G20G21R09G08
                                G28G07G13
                  83923070.855 6  20185168.047                    20185170.754
                        38.900
 123473216.297 6  96212937.73844  23496176.406                    23496180.914
        41.700          28.700
 116173354.851 8  90524640.12946  22107055.547                    22107061.023
        48.200          37.400
 113031498.212 8  88076436.30046  21509161.828                    21509165.113
        49.400          36.900
                  85488596.707 6  20619568.984                    20619572.355
                        38.100
                  96817511.712 6  23302852.406                    23302852.566
                        36.900
                  89729096.598 6  21558888.961                    21558890.156
                        40.400
                  86559073.193 6  20848409.156                    20848407.992
                        40.400
 117313144.434 7  91412854.43144  22323950.961                    22323954.055
        44.100          28.800
 129510956.239 7 100917633.48444  24645117.578                    24645118.344
        44.600          27.000
                  82223858.963 7  19797285.211                    19797285.148
                        43.300
 117713947.897 8  91725325.27446  22400255.945                    22400261.289
        48.800          37.500
 115271901.800 8  89822260.73046  21935512.156                    21935515.289
        48.400          38.200
 125187108.303 7  97548421.49944  23822317.805                    23822321.230
        45.900          24.500
 110506069.159 8  86108637.57545  21028606.281                    21028609.316
        48.600          34.700
 18  3 16 10 27 34.0000000  0 15R01G27G30G15R10R16R17R18G20G21R09G08
                                G28G07G13
                  83922204.824 6  20184960.242                    20184963.109
                        39.100
 123476191.502 7  96215256.07845  23496743.219                    23496747.684
        42.100          30.200
 116176076.939 8  90526761.24646  22107573.063                    22107579.512
        48.000          37.300
 113030651.495 8  88075776.52446  21509000.484                    21509003.898
        49.800          37.100
                  85486377.642 6  20619032.406                    20619037.043
                        37.900
                  96821143.873 6  23303726.461                    23303727.441
                        37.700
                  89731341.270 6  21559428.984                    21559429.742
                        40.700
                  86558145.641 6  20848185.797                    20848184.953
                        40.400
 117315346.702 7  91414570.49044  22324368.711                    22324373.016
        42.300          27.700
 129513599.542 7 100919693.20544  24645620.313                    24645621.387
        45.700          28.100
                  82225073.491 7  19797578.094                    19797577.945
                        43.400
 117714382.582 8  91725663.98746  22400338.758                    22400343.832
        48.800          37.200
 115270565.563 7  89821219.51546  21935257.672                    21935260.367
        47.800          37.800
 125190776.363 7  97551279.64543  23823016.078                    23823019.406
        45.200          23.500
 110506986.346 8  86109352.26345  21028780.945                    21028783.918
        48.500          34.700
 18  3 16 10 27 35.0000000  0 15R01G27G30G15R10R16R17R18G20G21R09G08
                                G28G07G13
                  83921339.471 6  20184751.492                    20184754.922
                        39.200
 123479167.203 7  96217574.79945  23497309.156                    23497313.793
        42.800          30.700
 116178799.487 7  90528882.72746  22108091.750                    22108097.773
        47.800          37.000
 113029805.447 8  88075117.29546  21508839.633                    21508843.313
        49.300          37.600
                  85484159.037 6  20618497.992                    20618501.785
                        38.200
                  96824776.185 6  23304600.227                    23304601.805
                        37.400
                  89733586.501 6  21559967.266                    21559969.359
                        40.300
                  86557218.795 6  20847962.758                    20847961.582
                        40.800
 117317549.516 7  91416286.93944  22324789.203                    22324792.105
        42.200          28.700
 129516243.188 7 100921753.20044  24646123.844                    24646124.309
        46.300          27.500
                  82226288.623 7  19797871.008                    19797870.645
                        43.400
 117714817.949 8  91726003.23646  22400421.836                    22400426.875
        49.300          37.000
 115269229.835 7  89820178.68946  21935003.602                    21935006.422
        47.500          38.200
 125194444.862 7  97554138.15443  23823714.430                    23823717.703
        45.200          22.300
 110507904.194 8  86110067.45745  21028955.484                    21028958.543
        48.400          34.900
 18  3 16 10 27 36.0000000  0 15R01G27G30G15R10R16R17R18G20G21R09G08
                                G28G07G13
                  83920474.823 6  20184543.805                    20184546.348
                        39.100
 123482143.429 7  96219893.93245  23497875.359                    23497880.227
        43.000          30.500
 116181522.563 7  90531004.62546  22108609.359                    22108615.914
        47.300          36.500
 113028960.086 8  88074458.60146  21508678.672                    21508682.277
        49.000          37.100
                  85481940.962 6  20617964.094                    20617967.293
                        38.300
                  96828408.648 6  23305474.969                    23305475.707
                        37.100
                  89735832.365 6  21560507.125                    21560508.770
                        40.400
                  86556292.710 6  20847739.992                    20847738.273
                        40.700
 117319752.991 7  91418003.90744  22325209.703                    22325211.426
        43.700          29.100
 129518887.228 7 100923813.50344  24646626.477                    24646627.590
        46.700          28.900
                  82227504.440 7  19798163.000                    19798163.063
                        43.300
 117715254.077 8  91726343.07546  22400504.445                    22400510.176
        49.200          37.500
 115267894.724 8  89819138.35346  21934749.867                    21934752.211
        48.100          38.300
 125198113.571 7  97556996.87444  23824412.109                    23824415.832
        45.300          24.000
 110508822.797 8  86110783.22645  21029130.125                    21029133.164
        48.300          34.200
 18  3 16 10 27 37.0000000  0 15R01G27G30G15R10R16R17R18G20G21R09G08
                                G28G07G13
                  83919610.900 6  20184335.672                    20184338.410
                        39.300
 123485120.206 7  96222213.48245  23498441.836                    23498446.758
        42.800          32.000
 116184246.203 7  90533126.96646  22109126.945                    22109133.871
        46.600          37.100
 113028115.470 8  88073800.46646  21508518.023                    21508521.500
        49.200          37.600
                  85479723.394 6  20617427.820                    20617431.809
                        38.300
                  96832041.350 6  23306348.961                    23306350.438
                        37.400
                  89738078.854 6  21561047.531                    21561049.246
                        40.600
                  86555367.422 6  20847517.227                    20847515.582
                        40.700
 117321957.074 7  91419721.38044  22325628.078                    22325631.094
        42.900          28.300
 129521531.644 7 100925874.10444  24647129.203                    24647130.586
        47.200          29.300
                  82228720.916 7  19798455.781                    19798456.234
                        43.300
 117715690.974 8  91726683.52446  22400587.305                    22400593.188
        48.900          37.800
 115266560.208 8  89818098.48546  21934495.773                    21934498.094
        48.400          38.000
 125201782.652 7  97559855.88343  23825110.453                    23825113.785
        45.400          22.900
 110509742.157 8  86111499.59645  21029305.211                    21029308.293
        48.100          34.300
 18  3 16 10 27 38.0000000  0 15R01G27G30G15R10R16R17R18G20G21R09G08
                                G28G07G13
                  83918747.767 6  20184127.906                    20184131.059
                        39.100
 123488097.521 7  96224533.46645  23499008.820                    23499013.582
        43.100          32.100
 116186970.378 7  90535249.70946  22109646.938                    22109652.285
        47.300          37.500
 113027271.523 8  88073142.85346  21508357.469                    21508360.637
        49.300          37.500
                  85477506.348 6  20616893.078                    20616897.488
                        38.300
                  96835674.239 6  23307222.750                    23307225.309
                        36.900
                  89740325.978 6  21561587.680                    21561589.000
                        40.700
                  86554442.901 6  20847294.719                    20847292.398
                        40.400
 117324161.891 6  91421439.43644  22326046.070                    22326050.516
        41.000          27.200
 129524176.516 7 100927935.05244  24647632.344                    24647634.211
        46.600          27.800
                  82229938.087 7  19798748.898                    19798749.555
                        43.500
 117716128.645 8  91727024.57146  22400670.531                    22400676.320
        48.900          37.100
 115265226.297 8  89817059.08346  21934241.914                    21934244.453
        48.300          37.900
 125205452.181 7  97562715.28843  23825808.672                    23825812.258
        44.100          21.700
 110510662.250 8  86112216.52645  21029480.242                    21029483.648
        48.300          34.700
 18  3 16 10 27 39.0000000  0 15R01G27G30G15R10R16R17R18G20G21R09G08
                                G28G07G13
                  83917885.318 6  20183920.734                    20183923.883
                        38.600
 123491075.359 7  96226853.85845  23499574.805                    23499580.273
        43.700          33.900
 116189695.027 7  90537372.82146  22110165.000                    22110170.723
        47.800          37.100
 113026428.227 8  88072485.73046  21508196.641                    21508200.246
        49.300          37.200
                  85475289.845 6  20616359.281                    20616362.668
                        37.800
                  96839307.279 6  23308095.906                    23308099.676
                        36.700
                  89742573.727 6  21562128.039                    21562129.617
                        40.600
                  86553519.118 6  20847071.898                    20847070.016
                        40.500
 117326367.304 7  91423157.91644  22326467.336                    22326469.863
        42.900          28.000
 129526821.736 7 100929996.28044  24648135.289                    24648137.441
        46.500          27.400
                  82231155.925 7  19799041.930                    19799042.828
                        43.600
 117716567.055 8  91727366.19846  22400753.930                    22400759.703
        48.800          37.300
 115263892.908 7  89816020.08246  21933987.859                    21933990.578
        47.800          37.700
 125209122.015 7  97565574.97943  23826507.242                    23826510.992
        44.500          22.600
 110511583.087 8  86112934.05245  21029655.469                    21029658.797
        48.500          34.400
 18  3 16 10 27 40.0000000  0 15R01G27G30G15R10R16R17R18G20G21R09G08
                                G28G07G13
                  83917023.556 6  20183713.961                    20183716.520
                        38.900
 123494053.721 7  96229174.66145  23500142.141                    23500147.406
        44.100          34.100
 116192420.193 7  90539496.33846  22110682.820                    22110689.230
        47.500          37.500
 113025585.621 8  88071829.10046  21508036.453                    21508039.613
        49.500          37.100
                  85473073.804 6  20615822.484                    20615828.988
                        37.700
                  96842940.545 6  23308970.844                    23308973.648
                        36.700
                  89744822.101 6  21562668.453                    21562669.883
                        40.400
                  86552596.036 6  20846848.961                    20846848.500
                        40.500
 117328573.273 7  91424876.83644  22326888.109                    22326889.793
        44.500          27.500
 129529467.371 7 100932057.82744  24648638.141                    24648641.152
        45.400          28.500
                  82232374.410 7  19799335.188                    19799335.852
                        43.300
 117717006.206 8  91727708.39646  22400837.445                    22400843.434
        49.100          37.200
 115262560.113 7  89814981.53346  21933734.227                    21933736.844
        47.900          38.100
 125212792.184 7  97568434.95443  23827205.484                    23827209.359
        45.100          22.500
 110512504.684 8  86113652.17445  21029830.938                    21029833.859
        48.200          34.500
 18  3 16 10 27 41.0000000  0 15R01G27G30G15R10R16R17R18G20G21R09G08
                                G28G07G13
                  83916162.492 6  20183506.688                    20183509.625
                        39.100
 123497032.606 7  96231495.86945  23500709.008                    23500714.328
        44.300          34.800
 116195145.908 7  90541620.27746  22111202.172                    22111207.891
        47.500          36.900
 113024743.747 8  88071173.02846  21507876.195                    21507879.309
        49.800          36.500
                  85470858.321 6  20615290.188                    20615293.871
                        38.200
                  96846574.033 6  23309844.992                    23309848.141
                        36.700
                  89747071.109 6  21563210.172                    21563209.957
                        40.600
                  86551673.713 6  20846626.578                    20846625.629
                        40.600
 117330779.928 7  91426596.30544  22327307.117                    22327309.734
        43.800          26.800
 129532113.415 7 100934119.68544  24649140.906                    24649144.188
        44.100          28.300
                  82233593.596 7  19799629.047                    19799629.488
                        43.400
 117717446.103 8  91728051.17746  22400921.273                    22400926.961
        48.900          37.100
 115261227.924 7  89813943.45046  21933480.563                    21933483.543
        47.800          37.600
 125216462.617 7  97571295.14843  23827903.797                    23827907.793
        45.400          23.800
 110513427.033 8  86114370.89245  21030006.539                    21030009.797
        48.100          34.600
 18  3 16 10 27 42.0000000  0 15R01G27G30G15R10R16R17R18G20G21R09G08
                                G28G07G13
                  83915302.094 6  20183299.258                    20183301.922
                        39.300
 123500012.051 7  96233817.51045  23501275.625                    23501280.777
        44.100          34.100
 116197872.160 7  90543744.62946  22111720.281                    22111726.930
        46.400          36.900
 113023902.654 8  88070517.56846  21507716.242                    21507719.145
        49.200          36.700
                  85468643.331 6  20614755.047                    20614759.922
                        38.100
                  96850207.626 6  23310720.313                    23310723.031
                        36.600
                  89749320.729 6  21563750.625                    21563750.852
                        40.400
                  86550752.128 6  20846405.102                    20846404.020
                        40.500
 117332987.203 7  91428316.25344  22327724.930                    22327730.043
        42.000          27.200
 129534759.830 7 100936181.81744  24649643.836                    24649647.855
        42.600          27.900
                  82234813.414 7  19799923.555                    19799923.449
                        43.400
 117717886.741 8  91728394.52746  22401004.719                    22401010.762
        48.700          37.100
 115259896.329 7  89812905.84046  21933227.680                    21933230.148
        47.900          37.500
 125220133.393 7  97574155.60044  23828602.875                    23828606.500
        45.800          25.600
 110514350.098 8  86115090.16945  21030182.273                    21030185.207
        48.000          34.400
 18  3 16 10 27 43.0000000  0 15R01G27G30G15R10R16R17R18G20G21R09G08
                                G28G07G13
                  83914442.402 6  20183093.227                    20183095.648
                        39.100
 123502991.991 7  96236139.53845  23501842.672                    23501848.266
        44.600          34.300
 116200598.942 7  90545869.39646  22112239.703                    22112245.559
        46.900          36.500
 113023062.181 8  88069862.61446  21507556.359                    21507559.852
        49.000          36.500
                  85466428.840 6  20614220.898                    20614225.219
                        38.200
                  96853841.376 6  23311593.805                    23311597.160
                        36.400
                  89751570.966 6  21564291.047                    21564291.148
                        40.500
                  86549831.296 6  20846182.992                    20846182.215
                        40.500
 117335195.140 7  91430036.67844  22328147.328                    22328149.695
        43.300          28.400
 129537406.664 6 100938244.27644  24650147.414                    24650151.469
        40.800          28.000
                  82236033.902 7  19800216.484                    19800217.133
                        43.500
 117718328.115 8  91728738.45646  22401088.766                    22401094.664
        48.700          37.400
 115258565.271 7  89811868.64746  21932974.523                    21932977.223
        47.900          37.500
 125223804.468 7  97577016.29344  23829301.125                    23829304.578
        46.000          25.300
 110515273.886 7  86115810.01345  21030357.930                    21030361.418
        47.900          34.700
 18  3 16 10 27 44.0000000  0 15R01G27G30G15R10R16R17R18G20G21R09G08
                                G28G07G13
                  83913583.382 6  20182885.992                    20182888.996
                        38.900
 123505972.404 7  96238461.93245  23502410.031                    23502415.488
        44.400          35.000
 116203326.091 7  90547994.45746  22112759.234                    22112764.957
        47.900          36.600
 113022222.415 8  88069208.22046  21507396.406                    21507399.918
        49.600          37.300
                  85464214.877 6  20613688.375                    20613691.703
                        38.100
                  96857475.285 5  23312469.586                    23312472.305
                        35.600
                  89753821.748 6  21564831.969                    21564831.457
                        40.700
                  86548911.171 6  20845962.422                    20845960.902
                        40.400
 117337403.540 7  91431757.47644  22328569.734                    22328570.832
        44.600          26.800
 129540053.859 6 100940307.00044  24650652.281                    24650654.879
        40.200          27.900
                  82237255.010 7  19800510.891                    19800510.754
                        43.400
 117718770.184 8  91729082.92246  22401173.172                    22401178.941
        48.600          37.600
 115257234.779 8  89810831.90446  21932721.273                    21932724.230
        48.100          37.800
 125227475.784 7  97579877.17344  23829999.688                    23830003.496
        46.300          26.200
 110516198.344 7  86116530.38445  21030533.727                    21030536.844
        47.600          34.600
 18  3 16 10 27 45.0000000  0 15R01G27G30G15R10R16R17R18G20G21R09G08
                                G28G07G13
                  83912725.039 6  20182679.422                    20182682.477
                        39.300
 123508953.298 7  96240784.70445  23502977.156                    23502982.609
        44.000          35.000
 116206053.780 7  90550119.93946  22113277.414                    22113284.094
        47.600          36.800
 113021383.311 8  88068554.34546  21507236.750                    21507240.859
        49.700          37.100
                  85462001.377 6  20613153.141                    20613157.973
                        37.900
                  96861109.297 5  23313344.570                    23313347.195
                        35.500
                  89756073.133 6  21565372.273                    21565372.625
                        40.600
                  86547991.754 6  20845740.695                    20845739.371
                        40.500
 117339612.624 7  91433478.83244  22328987.266                    22328990.809
        42.600          27.900
 129542701.446 6 100942370.01544  24651157.133                    24651158.625
        41.600          27.100
                  82238476.766 7  19800805.070                    19800805.121
                        43.400
 117719212.956 8  91729427.93646  22401257.555                    22401262.918
        48.900          37.500
 115255904.823 7  89809795.56946  21932467.984                    21932470.945
        47.900          37.600
 125231147.364 7  97582738.25444  23830697.875                    23830702.148
        47.200          26.900
 110517123.532 7  86117251.31545  21030709.945                    21030713.484
        47.900          34.900
 18  3 16 10 27 46.0000000  0 15R01G27G30G15R10R16R17R18G20G21R09G08
                                G28G07G13
                  83911867.455 6  20182473.375                    20182476.305
                        39.600
 123511934.792 7  96243107.94745  23503544.375                    23503549.930
        44.000          34.200
 116208782.051 7  90552245.87146  22113796.859                    22113802.820
        47.900          37.200
 113020545.004 8  88067901.09846  21507077.867                    21507081.066
        49.500          36.700
                  85459788.465 6  20612619.797                    20612624.125
                        38.100
                  96864743.578 5  23314219.430                    23314221.301
                        35.600
                  89758325.201 6  21565913.688                    21565913.523
                        40.400
                  86547073.104 6  20845519.547                    20845517.984
                        40.700
 117341822.408 7  91435200.74544  22329406.922                    22329411.195
        42.000          28.000
 129545349.383 7 100944433.30344  24651662.172                    24651662.781
        43.000          27.600
                  82239699.206 7  19801099.852                    19801099.645
                        43.500
 117719656.535 8  91729773.57446  22401342.055                    22401347.242
        49.400          37.400
 115254575.510 8  89808759.74446  21932214.227                    21932217.457
        48.100          37.600
 125234819.321 8  97585599.64444  23831396.992                    23831400.934
        48.200          26.700
 110518049.487 8  86117972.85045  21030886.133                    21030889.082
        48.200          34.800
 18  3 16 10 27 47.0000000  0 15R01G27G30G15R10R16R17R18G20G21R09G08
                                G28G07G13
                  83911010.595 6  20182267.578                    20182270.418
                        39.300
 123514916.833 7  96245431.60645  23504112.133                    23504117.719
        43.800          35.200
 116211510.854 7  90554372.22146  22114315.930                    22114322.336
        47.200          36.900
 113019707.467 8  88067248.46246  21506918.219                    21506921.930
        49.800          37.300
                  85457576.098 6  20612085.773                    20612090.438
                        37.900
                  96868378.067 5  23315095.063                    23315096.352
                        35.500
                  89760577.929 6  21566454.305                    21566455.277
                        40.500
                  86546155.207 6  20845297.781                    20845296.770
                        40.800
 117344032.835 7  91436923.12944  22329829.188                    22329831.531
        43.100          29.000
 129547997.742 7 100946496.94344  24652166.633                    24652166.297
        44.800          28.500
                  82240922.349 7  19801394.336                    19801394.445
                        43.400
 117720100.906 8  91730119.84246  22401426.508                    22401432.047
        49.100          37.000
 115253246.805 7  89807724.40546  21931961.766                    21931965.047
        47.900          37.600
 125238491.606 8  97588461.33244  23832095.219                    23832099.766
        48.700          28.500
 110518976.210 7  86118694.98045  21031062.258                    21031065.719
        47.500          34.800
 18  3 16 10 27 48.0000000  0 15R01G27G30G15R10R16R17R18G20G21R09G08
                                G28G07G13
                  83910154.450 6  20182060.945                    20182064.129
                        39.500
 123517899.385 7  96247755.66945  23504679.586                    23504685.211
        44.200          35.300
 116214240.211 7  90556499.00346  22114834.789                    22114841.605
        46.800          37.000
 113018870.533 8  88066596.30346  21506758.859                    21506762.336
        49.600          36.600
                  85455364.259 6  20611553.250                    20611557.449
                        37.800
                  96872012.689 5  23315969.711                    23315970.992
                        35.300
                  89762831.220 6  21566995.313                    21566996.535
                        41.000
                  86545238.040 6  20845076.828                    20845076.285
                        40.400
 117346243.869 7  91438645.98844  22330250.727                    22330252.309
        44.100          27.600
 129550646.486 7 100948560.90444  24652670.781                    24652670.859
        45.600          27.500
                  82242146.139 7  19801688.609                    19801689.168
                        43.300
 117720545.966 8  91730466.64646  22401511.094                    22401517.059
        48.700          36.700
 115251918.676 8  89806689.52346  21931709.328                    21931712.207
        48.200          37.500
 125242164.078 8  97591323.18544  23832793.875                    23832798.848
        48.000          29.100
 110519903.626 7  86119417.65445  21031238.914                    21031242.289
        47.500          34.600
 18  3 16 10 27 49.0000000  0 15R01G27G30G15R10R16R17R18G20G21R09G08
                                G28G07G13
                  83909299.027 6  20181855.586                    20181858.980
                        39.600
 123520882.450 7  96250080.13345  23505247.078                    23505252.859
        44.500          35.700
 116216970.048 8  90558626.14946  22115355.805                    22115361.008
        48.100          37.200
 113018034.328 8  88065944.68846  21506599.984                    21506603.395
        49.600          36.900
                  85453152.941 6  20611019.266                    20611023.313
                        37.600
                  96875647.508 5  23316845.422                    23316846.121
                        35.800
                  89765085.138 6  21567536.180                    21567538.418
                        41.100
                  86544321.648 6  20844855.688                    20844855.719
                        40.200
 117348455.548 7  91440369.37144  22330670.633                    22330673.781
        43.600          27.900
 129553295.601 7 100950625.17844  24653174.414                    24653174.980
        45.600          27.400
                  82243370.591 7  19801983.125                    19801983.520
                        43.100
 117720991.819 8  91730814.06446  22401595.344                    22401602.070
        48.100          36.300
 115250591.148 8  89805655.11946  21931457.781                    21931459.629
        49.100          37.200
 125245836.813 7  97594185.22744  23833492.859                    23833497.449
        47.600          29.300
 110520831.772 7  86120140.89645  21031416.039                    21031418.551
        47.800          34.400
 18  3 16 10 27 50.0000000  0 15R01G27G30G15R10R16R17R18G20G21R09G08
                                G28G07G13
                  83908444.306 6  20181650.250                    20181653.066
                        39.200
 123523866.049 7  96252405.01945  23505815.195                    23505820.680
        44.200          35.300
 116219700.429 7  90560753.74946  22115874.711                    22115880.461
        47.900          37.300
 113017198.854 8  88065293.63046  21506440.883                    21506443.922
        49.100          36.600
                  85450942.115 6  20610485.781                    20610490.043
                        37.600
                  96879282.508 6  23317719.336                    23317721.219
                        36.100
                  89767339.676 6  21568077.695                    21568080.457
                        40.500
                  86543405.979 6  20844635.164                    20844635.523
                        40.400
 117350667.869 7  91442093.25644  22331090.172                    22331094.504
        42.600          28.500
 129555945.115 7 100952689.75544  24653678.070                    24653679.102
        45.700          27.000
                  82244595.736 7  19802278.039                    19802278.691
                        43.300
 117721438.401 7  91731162.05346  22401680.305                    22401686.793
        47.700          36.900
 115249264.146 8  89804621.11746  21931204.797                    21931206.871
        49.500          37.300
 125249509.810 7  97597047.42544  23834191.891                    23834196.250
        47.400          29.100
 110521760.626 7  86120864.68045  21031592.383                    21031595.398
        47.800          34.900
 18  3 16 10 27 51.0000000  0 15R01G27G30G15R10R16R17R18G20G21R09G08
                                G28G07G13
                  83907590.247 6  20181444.289                    20181447.648
                        39.200
 123526850.132 7  96254730.28045  23506383.000                    23506388.309
        44.300          35.200
 116222431.287 7  90562881.72946  22116394.047                    22116400.129
        47.700          37.200
 113016364.101 8  88064643.14646  21506281.953                    21506285.402
        48.800          37.100
                  85448731.819 6  20609953.438                    20609956.906
                        37.600
                  96882917.632 5  23318595.047                    23318595.336
                        35.600
                  89769594.829 6  21568619.805                    21568622.207
                        40.700
                  86542491.018 6  20844414.102                    20844414.711
                        40.500
 117352880.782 7  91443817.59844  22331512.688                    22331515.398
        43.000          28.200
 129558594.949 7 100954754.58244  24654182.188                    24654183.344
        45.400          28.600
                  82245821.522 7  19802573.383                    19802573.957
                        43.200
 117721885.688 7  91731510.58546  22401765.813                    22401771.746
        47.300          36.800
 115247937.677 8  89803587.50346  21930951.875                    21930954.387
        48.800          37.300
 125253183.045 7  97599909.76944  23834890.406                    23834894.797
        47.200          27.700
 110522690.187 7  86121589.01545  21031769.125                    21031772.355
        47.800          34.700
 18  3 16 10 27 52.0000000  0 15R01G27G30G15R10R16R17R18G20G21R09G08
                                G28G07G13
                  83906736.918 6  20181239.164                    20181242.250
                        39.200
 123529834.799 7  96257055.99645  23506950.836                    23506956.285
        43.700          35.800
 116225162.672 8  90565010.11646  22116914.570                    22116920.098
        48.500          37.300
 113015530.124 8  88063993.29646  21506123.063                    21506127.164
        49.000          37.300
                  85446522.029 6  20609419.633                    20609423.941
                        37.800
                  96886552.922 6  23319468.469                    23319470.520
                        36.200
                  89771850.609 6  21569161.656                    21569164.379
                        40.900
                  86541576.794 6  20844194.344                    20844194.645
                        40.800
 117355094.361 7  91445542.46344  22331935.086                    22331936.910
        43.600          27.000
 129561245.246 7 100956819.76344  24654685.492                    24654687.852
        45.100          28.100
                  82247047.987 7  19802869.023                    19802869.156
                        43.200
 117722333.771 7  91731859.72446  22401850.867                    22401856.996
        47.300          36.900
 115246611.820 8  89802554.34446  21930698.273                    21930701.992
        48.200          37.100
 125256856.589 7  97602772.34044  23835589.820                    23835593.523
        47.400          28.100
 110523620.465 7  86122313.90345  21031946.500                    21031949.445
        47.900          34.900
 18  3 16 10 27 53.0000000  0 15R01G27G30G15R10R16R17R18G20G21R09G08
                                G28G07G13
                  83905884.268 6  20181033.914                    20181037.070
                        38.900
 123532819.914 7  96259382.06345  23507518.945                    23507524.438
        43.100          35.700
 116227894.529 7  90567138.85246  22117432.883                    22117439.801
        47.500          37.300
 113014696.833 8  88063344.00446  21505964.305                    21505968.219
        49.300          36.900
                  85444312.761 6  20608886.414                    20608891.379
                        38.000
                  96890188.441 6  23320344.898                    23320345.438
                        36.300
                  89774106.942 6  21569703.859                    21569707.016
                        41.200
                  86540663.300 6  20843973.859                    20843974.504
                        41.100
 117357308.500 7  91447267.77344  22332355.281                    22332358.367
        43.000          28.200
 129563895.888 7 100958885.20644  24655190.273                    24655192.602
        44.900          26.700
                  82248275.105 7  19803163.758                    19803164.348
                        43.400
 117722782.558 7  91732209.41146  22401937.195                    22401942.352
        47.800          36.900
 115245286.573 8  89801521.68046  21930446.992                    21930450.016
        48.000          37.300
 125260530.397 7  97605635.11944  23836288.414                    23836292.492
        47.300          27.900
 110524551.456 8  86123039.33445  21032123.250                    21032126.434
        48.100          34.600
 18  3 16 10 27 54.0000000  0 15R01G27G30G15R10R16R17R18G20G21R09G08
                                G28G07G13
                  83905032.354 6  20180829.516                    20180832.582
                        38.900
 123535805.665 7  96261708.62445  23508087.227                    23508092.957
        43.200          35.000
 116230626.985 8  90569268.03646  22117953.875                    22117959.129
        48.300          37.100
 113013864.248 8  88062695.25646  21505806.375                    21505809.938
        49.700          36.400
                  85442104.036 6  20608354.953                    20608357.816
                        38.600
                  96893824.120 6  23321219.406                    23321221.266
                        36.700
                  89776363.951 6  21570245.563                    21570248.879
                        41.300
                  86539750.581 6  20843754.578                    20843754.863
                        41.300
 117359523.413 6  91448993.69044  22332775.297                    22332779.488
        41.100          27.600
 129566546.983 7 100960951.00044  24655693.719                    24655696.621
        44.900          27.600
                  82249502.905 7  19803459.797                    19803460.309
                        43.300
 117723232.132 8  91732559.70746  22402022.789                    22402027.957
        48.600          37.400
 115243961.921 8  89800489.50246  21930194.906                    21930198.012
        48.400          37.100
 125264204.497 7  97608498.12644  23836987.656                    23836991.824
        47.000          27.900
 110525483.082 8  86123765.23445  21032300.438                    21032303.684
        48.000          35.000
 18  3 16 10 27 55.0000000  0 15R01G27G30G15R10R16R17R18G20G21R09G08
                                G28G07G13
                  83904181.149 6  20180624.508                    20180627.832
                        38.800
 123538791.842 7  96264035.51845  23508654.906                    23508661.348
        43.000          34.800
 116233359.848 8  90571397.52746  22118474.461                    22118479.512
        48.500          36.400
 113013032.357 8  88062047.04646  21505647.977                    21505651.434
        49.800          37.200
                  85439895.722 6  20607820.953                    20607825.445
                        37.900
                  96897459.963 6  23322092.445                    23322095.996
                        36.900
                  89778621.572 6  21570787.953                    21570791.469
                        41.400
                  86538838.622 6  20843534.672                    20843535.590
                        41.100
 117361738.807 7  91450719.94644  22333199.359                    22333201.133
        43.600          28.900
 129569198.430 7 100963017.06644  24656198.133                    24656201.137
        44.900          28.200
                  82250731.352 7  19803755.344                    19803755.855
                        43.100
 117723682.417 8  91732910.56546  22402109.031                    22402113.512
        48.700          37.100
 115242637.830 8  89799457.77246  21929943.430                    21929945.887
        48.800          37.700
 125267878.853 7  97611361.32344  23837686.727                    23837691.035
        47.000          27.500
 110526415.311 8  86124491.55245  21032478.398                    21032480.777
        48.300          35.100
 18  3 16 10 27 56.0000000  0 15R01G27G30G15R10R16R17R18G20G21R09G08
                                G28G07G13
                  83903330.652 6  20180420.055                    20180423.109
                        38.600
 123541778.604 7  96266362.86545  23509223.539                    23509229.348
        43.200          34.700
 116236093.289 7  90573527.47946  22118993.578                    22119000.121
        47.400          36.800
 113012201.211 8  88061399.40746  21505489.617                    21505493.121
        49.100          37.200
                  85437687.898 6  20607289.070                    20607293.055
                        38.300
                  96901096.025 6  23322968.102                    23322971.316
                        37.100
                  89780879.827 6  21571331.281                    21571334.730
                        41.000
                  86537927.416 6  20843314.984                    20843315.613
                        41.200
 117363954.817 7  91452446.68744  22333621.297                    22333623.098
        43.800          28.300
 129571850.276 7 100965083.43444  24656703.375                    24656705.965
        44.000          27.700
                  82251960.483 7  19804051.445                    19804051.973
                        43.100
 117724133.491 8  91733262.05946  22402194.828                    22402199.773
        49.200          37.000
 115241314.328 8  89798426.49146  21929691.453                    21929694.297
        48.800          37.700
 125271553.488 7  97614224.73644  23838386.094                    23838389.785
        47.000          28.100
 110527348.322 8  86125218.42145  21032655.766                    21032658.594
        48.000          34.900
 18  3 16 10 27 57.0000000  0 15R01G27G30G15R10R16R17R18G20G21R09G08
                                G28G07G13
                  83902480.885 6  20180215.359                    20180218.820
                        39.000
 123544765.852 7  96268690.58945  23509791.984                    23509797.355
        43.200          33.800
 116238827.248 7  90575657.83246  22119514.398                    22119520.328
        47.400          37.200
 113011370.773 8  88060752.31546  21505331.844                    21505335.121
        48.600          36.800
                  85435480.619 6  20606756.711                    20606760.473
                        38.600
                  96904732.198 6  23323843.484                    23323846.258
                        36.700
                  89783138.686 6  21571874.539                    21571877.234
                        40.800
                  86537016.962 6  20843096.164                    20843096.906
                        41.200
 117366171.555 7  91454174.01144  22334041.602                    22334045.078
        43.000          29.300
 129574502.527 7 100967150.11944  24657207.828                    24657210.602
        43.100          28.600
                  82253190.291 7  19804347.906                    19804347.801
                        43.500
 117724585.291 8  91733614.12446  22402280.797                    22402285.641
        49.500          37.000
 115239991.430 8  89797395.67146  21929439.953                    21929442.762
        48.200          37.500
 125275228.407 7  97617088.36944  23839085.156                    23839089.090
        46.900          27.300
 110528282.249 8  86125946.02045  21032833.547                    21032836.734
        48.100          35.000
 18  3 16 10 27 58.0000000  0 15R01G27G30G15R10R16R17R18G20G21R09G08
                                G28G07G13
                  83901631.831 6  20180011.594                    20180014.789
                        39.300
 123547753.675 7  96271018.76445  23510360.305                    23510366.043
        43.200          33.200
 116241561.732 7  90577788.60446  22120034.656                    22120040.578
        47.200          36.700
 113010541.052 8  88060105.78146  21505173.922                    21505177.320
        48.900          37.000
                  85433273.885 6  20606223.680                    20606227.727
                        38.300
                  96908368.598 6  23324718.523                    23324721.465
                        36.900
                  89785398.160 6  21572417.055                    21572419.676
                        41.100
                  86536107.253 6  20842877.320                    20842877.816
                        40.900
 117368388.944 7  91455901.83944  22334462.227                    22334466.645
        42.000          27.200
 129577155.173 7 100969217.11244  24657712.680                    24657715.473
        43.000          28.000
                  82254420.779 7  19804644.352                    19804644.418
                        43.500
 117725037.831 8  91733966.76246  22402366.664                    22402371.539
        49.400          36.800
 115238669.110 7  89796365.30346  21929187.563                    21929190.754
        47.600          37.700
 125278903.616 7  97619952.21844  23839784.695                    23839788.730
        46.700          28.000
 110529216.914 8  86126674.26045  21033011.688                    21033014.863
        48.000          34.700
 18  3 16 10 27 59.0000000  0 15R01G27G30G15R10R16R17R18G20G21R09G08
                                G28G07G13
                  83900783.474 6  20179807.406                    20179810.422
                        39.100
 123550742.001 7  96273347.32745  23510928.727                    23510934.629
        43.000          33.200
 116244296.710 7  90579919.76546  22120554.531                    22120560.891
        46.600          36.500
 113009712.045 8  88059459.79946  21505016.516                    21505019.211
        49.500          36.700
                  85431067.648 6  20605691.367                    20605696.199
                        38.700
                  96912005.128 6  23325594.805                    23325597.586
                        36.600
                  89787658.263 6  21572960.820                    21572962.609
                        40.800
                  86535198.244 6  20842660.555                    20842659.008
                        41.200
 117370606.878 7  91457630.08544  22334887.273                    22334888.574
        44.900          28.800
 129579808.201 7 100971284.39844  24658217.250                    24658220.387
        42.900          27.100
                  82255651.879 7  19804940.656                    19804940.832
                        43.400
 117725491.108 8  91734319.96446  22402452.672                    22402458.125
        49.900          36.900
 115237347.365 7  89795335.39146  21928936.000                    21928939.230
        47.800          37.600
 125282579.079 7  97622816.25744  23840484.727                    23840487.738
        46.700          27.700
 110530152.333 7  86127403.14145  21033189.570                    21033192.625
        47.900          35.000
 18  3 16 10 28  0.0000000  0 15R01G27G30G15R10R16R17R18G20G21R09G08
                                G28G07G13
                  83899935.807 6  20179603.711                    20179606.840
                        39.400
 123553730.829 6  96275676.28745  23511497.719                    23511503.652
        41.800          32.500
 116247032.171 7  90582051.28146  22121076.250                    22121081.297
        47.100          37.200
 113008883.745 8  88058814.38946  21504858.563                    21504862.094
        50.200          36.900
                  85428861.956 6  20605160.766                    20605164.387
                        38.600
                  96915641.857 6  23326470.359                    23326472.395
                        36.300
                  89789918.970 6  21573503.398                    21573505.621
                        40.500
                  86534289.974 6  20842440.984                    20842439.723
                        41.100
 117372825.379 7  91459358.77744  22335308.727                    22335311.148
        44.500          28.000
 129582461.569 7 100973351.96344  24658723.063                    24658725.527
        43.000          27.300
                  82256883.618 7  19805236.984                    19805237.129
                        43.400
 117725945.136 8  91734673.75146  22402539.023                    22402544.543
        49.900          36.900
 115236026.188 7  89794305.92746  21928684.898                    21928687.965
        47.900          37.800
 125286254.795 7  97625680.48544  23841183.445                    23841186.867
        46.700          28.100
 110531088.473 8  86128132.62545  21033367.961                    21033371.199
        48.000          35.000
 18  3 16 10 28  1.0000000  0 15R01G27G30G15R10R16R17R18G20G21R09G08
                                G28G07G13
                  83899088.833 6  20179400.188                    20179403.207
                        39.800
 123556720.180 6  96278005.65045  23512066.328                    23512072.332
        41.000          31.800
 116249768.138 7  90584183.19246  22121596.250                    22121602.055
        46.800          37.100
 113008056.129 8  88058169.50046  21504701.133                    21504704.598
        49.900          36.600
                  85426656.778 6  20604627.734                    20604632.324
                        38.700
                  96919278.709 6  23327346.203                    23327347.695
                        36.400
                  89792180.307 6  21574046.125                    21574049.082
                        40.600
                  86533382.433 6  20842222.797                    20842221.555
                        41.100
 117375044.562 7  91461088.02044  22335728.594                    22335733.410
        42.700          27.200
 129585115.363 7 100975419.85844  24659228.313                    24659230.539
        43.000          27.600
                  82258116.036 7  19805534.000                    19805534.484
                        43.500
 117726399.935 8  91735028.14246  22402625.273                    22402631.203
        49.900          37.600
 115234705.584 7  89793276.90946  21928433.672                    21928436.578
        47.600          37.900
 125289930.798 7  97628544.92744  23841883.094                    23841886.336
        47.100          28.200
 110532025.358 8  86128862.70545  21033545.836                    21033549.090
        48.200          34.700
 18  3 16 10 28  2.0000000  0 15R01G27G30G15R10R16R17R18G20G21R09G08
                                G28G07G13
                  83898242.604 6  20179196.117                    20179199.859
                        39.500
 123559710.052 6  96280335.42045  23512635.461                    23512641.633
        40.700          31.000
 116252504.667 7  90586315.53246  22122116.500                    22122122.742
        46.100          36.500
 113007229.275 8  88057525.21546  21504543.742                    21504547.309
        49.900          37.300
                  85424452.107 6  20604096.156                    20604100.199
                        38.400
                  96922915.793 6  23328221.055                    23328223.363
                        36.100
                  89794442.242 6  21574590.492                    21574591.820
                        40.500
                  86532475.689 6  20842003.813                    20842003.539
                        41.200
 117377264.414 7  91462817.74544  22336151.641                    22336155.297
        43.100          27.100
 129587769.528 7 100977488.03644  24659733.297                    24659735.480
        43.400          27.800
                  82259349.130 7  19805831.055                    19805830.570
                        43.600
 117726855.457 8  91735383.10446  22402712.203                    22402718.031
        50.200          37.300
 115233385.574 7  89792248.35446  21928182.500                    21928185.270
        47.900          38.300
 125293607.072 7  97631409.57644  23842582.820                    23842585.941
        47.200          28.500
 110532963.012 8  86129593.38245  21033724.758                    21033727.504
        48.300          34.900
 18  3 16 10 28  3.0000000  0 15R01G27G30G15R10R16R17R18G20G21R09G08
                                G28G07G13
                  83897397.063 6  20178992.984                    20178995.688
                        39.300
 123562700.482 6  96282665.61745  23513204.398                    23513210.105
        40.900          30.700
 116255241.714 7  90588448.26746  22122638.656                    22122643.695
        47.600          36.900
 113006403.106 8  88056881.46746  21504386.539                    21504390.012
        48.700          37.100
                  85422247.965 6  20603566.039                    20603569.090
                        38.600
                  96926553.065 5  23329095.719                    23329098.785
                        35.800
                  89796704.826 6  21575133.523                    21575136.168
                        40.700
                  86531569.706 6  20841785.297                    20841785.488
                        41.100
 117379484.832 7  91464547.89844  22336576.719                    22336577.629
        43.100          27.000
 129590424.097 7 100979556.53144  24660238.461                    24660240.230
        43.800          27.300
                  82260582.881 7  19806127.789                    19806127.781
                        43.200
 117727311.740 8  91735738.65546  22402799.172                    22402804.676
        50.400          37.000
 115232066.161 7  89791220.26646  21927931.547                    21927934.176
        47.900          37.900
 125297283.634 7  97634274.43844  23843282.305                    23843285.926
        46.900          28.900
 110533901.424 8  86130324.64645  21033902.688                    21033906.078
        48.000          34.200
 18  3 16 10 28  4.0000000  0 15R01G27G30G15R10R16R17R18G20G21R09G08
                                G28G07G13
                  83896552.205 6  20178789.367                    20178793.160
                        39.300
 123565691.404 6  96284996.20644  23513773.625                    23513780.211
        40.300          29.900
 116257979.313 7  90590581.46846  22123158.531                    22123165.285
        47.000          36.800
 113005577.669 8  88056238.27146  21504229.242                    21504233.090
        48.800          36.800
                  85420044.314 6  20603032.563                    20603037.535
                        38.200
                  96930190.478 5  23329971.602                    23329973.992
                        35.800
                  89798968.013 6  21575676.508                    21575679.324
                        40.200
                  86530664.430 6  20841567.094                    20841567.047
                        41.200
 117381705.813 7  91466278.49944  22336998.531                    22337000.941
        43.500          27.900
 129593079.018 7 100981625.30144  24660743.680                    24660745.609
        44.300          27.800
                  82261817.268 7  19806425.141                    19806425.484
                        43.100
 117727768.760 8  91736094.78946  22402886.000                    22402891.559
        50.700          37.500
 115230747.335 7  89790192.62346  21927680.055                    21927683.242
        47.900          37.600
 125300960.490 7  97637139.52444  23843981.672                    23843985.719
        46.600          27.600
 110534840.604 8  86131056.52145  21034081.656                    21034084.609
        48.300          34.600
