     2.11           OBSERVATION DATA    M (MIXED)           RINEX VERSION / TYPE
teqc  2018Mar15                         20180319 14:17:33UTCPGM / RUN BY / DATE
Linux 2.6.32-573.12.1.x86_64|x86_64|gcc -static|Linux 64|=+ COMMENT
END OF STATIC MODE OBSERVATION                              COMMENT
BIT 2 OF LLI FLAGS DATA COLLECTED UNDER A/S CONDITION       COMMENT
-Unknown-                                                   MARKER NAME
4625                                                        MARKER NUMBER
-Unknown-           -Unknown-                               OBSERVER / AGENCY
5127468778          TRIMBLE             4.63                REC # / TYPE / VERS
47477114                            NONE                    ANT # / TYPE
  5713490.3621        0.0000 -2825395.3742                  APPROX POSITION XYZ
        0.0000        0.0000        0.0000                  ANTENNA: DELTA H/E/N
     1     1                                                WAVELENGTH FACT L1/2
     7    L1    L2    C1    P1    P2    S1    S2            # / TYPES OF OBSERV
    18                                                      LEAP SECONDS
 SNR is mapped to RINEX snr flag value [0-9]                COMMENT
  L1 & L2: min(max(int(snr_dBHz/6), 0), 9)                  COMMENT
  2018     3    13    15    17    3.0000000     GPS         TIME OF FIRST OBS
                                                            END OF HEADER
 18  3 13 15 17  3.0000000  0 21R01G19G22G25R08R10R09R16R17R18R19G31
                                R02G12G06G03G32G24G17G02G14
                  86291956.918 5  20754903.070                    20754906.980
                        33.700
 115575979.334 7  90059207.47145  21993377.453                    21993378.746
        45.400          33.200
 122639992.765 6  95563637.49142  23337614.320                    23337616.711
        38.700          13.900
 115692092.959 7  90149623.54845  22015453.633                    22015458.688
        47.800          30.800
                  93276813.839 5  22395584.094                    22395585.441
                        35.400
                  85517279.653 5  20626484.492                    20626488.543
                        35.600
                  81742770.445 6  19681451.258                    19681450.145
                        39.600
                  96140383.630 3  23139874.867                    23139878.063
                        23.000
                  93252843.976 6  22405525.492                    22405528.461
                        36.800
                  82678522.252 6  19913798.383                    19913800.109
                        39.400
                  88955164.083 6  21380436.031                    21380436.512
                        37.900
 123456293.405 5                  23492951.883
        35.000
                  93862873.894 5  22615535.266                    22615536.828
                        34.700
 108070733.166 8  84210856.15446  20565176.953                    20565179.141
        51.200          37.000
 118348718.221 7  92219836.11745  22521019.484                    22521025.504
        46.300          34.400
 119393654.940 6  93033919.22543  22719827.352                    22719834.492
        40.200          19.900
 119043803.807 7  92761411.70644  22653290.023                    22653295.852
        44.100          29.800
 125473324.366 5  97771526.62642  23876800.563                    23876807.121
        33.700          14.800
 123140654.954 8  95953767.41145  23432886.648                    23432889.625
        48.100          33.300
 129524399.290 5                  24647690.445
        32.800
 116883367.682 6  91077984.67743  22242170.961                    22242174.660
        40.900          23.200
 18  3 13 15 17  4.0000000  0 21R01G19G22G25R08R10R09R16R17R18R19G31
                                R02G12G06G03G32G24G17G02G14
                  86292701.060 5  20755081.391                    20755085.344
                        34.300
 115578610.102 7  90061257.42145  21993878.023                    21993879.371
        45.200          33.300
 122641378.854 6  95564717.54142  23337877.688                    23337880.086
        39.200          14.800
 115689830.568 7  90147860.65145  22015022.742                    22015028.551
        47.900          30.400
                  93280083.996 5  22396369.609                    22396370.199
                        35.600
                  85515262.945 5  20625998.500                    20626002.141
                        34.900
                  81744191.727 6  19681792.641                    19681792.617
                        40.200
                  96144191.783 3  23140791.016                    23140794.324
                        21.100
                  93256283.029 6  22406353.125                    22406354.320
                        36.800
                  82679279.725 6  19913980.781                    19913981.953
                        40.200
                  88952655.494 6  21379833.453                    21379833.945
                        37.900
 123453441.514 5                  23492409.344
        34.600
                  93860270.926 5  22614907.547                    22614909.848
                        35.300
 108071240.810 8  84211251.72846  20565273.703                    20565276.453
        51.400          37.700
 118346949.443 7  92218457.82545  22520682.875                    22520689.223
        46.100          34.700
 119393644.803 6  93033911.32243  22719825.469                    22719832.652
        40.400          19.300
 119046215.551 7  92763290.99444  22653749.266                    22653754.598
        44.200          29.600
 125477420.931 5  97774718.78342  23877579.602                    23877586.059
        33.700          13.900
 123143940.197 8  95956327.33945  23433511.773                    23433514.914
        48.500          32.800
 129521566.437 5                  24647151.984
        32.300
 116883744.161 6  91078278.03843  22242242.141                    22242246.152
        41.100          22.500
 18  3 13 15 17  5.0000000  0 21R01G19G22G25R08R10R09R16R17R18R19G31
                                R02G12G06G03G32G24G17G02G14
                  86293445.953 5  20755261.469                    20755265.191
                        34.500
 115581241.517 7  90063307.87145  21994378.609                    21994380.199
        45.300          33.700
 122642765.563 6  95565798.08042  23338142.086                    23338144.164
        39.200          15.600
 115687568.664 7  90146098.13945  22014592.391                    22014598.031
        47.900          30.300
                  93283354.537 5  22397155.242                    22397155.391
                        35.300
                  85513246.707 5  20625512.258                    20625516.461
                        35.400
                  81745613.642 6  19682135.516                    19682135.219
                        39.900
                                  23141705.352

                  93259722.441 6  22407179.695                    22407180.930
                        36.100
                  82680037.919 6  19914163.578                    19914165.012
                        39.800
                  88950147.344 6  21379232.078                    21379231.020
                        37.500
 123450589.941 5                  23491866.633
        34.600
                  93857668.321 5  22614280.570                    22614282.305
                        35.000
 108071749.168 8  84211647.85846  20565370.000                    20565372.969
        51.100          37.200
 118345181.223 7  92217079.97845  22520345.875                    22520352.988
        45.500          34.400
 119393635.349 6  93033903.94743  22719824.117                    22719830.648
        39.900          19.300
 119048627.907 7  92765170.75744  22654207.844                    22654213.516
        43.900          28.700
 125481517.799 5  97777911.11842  23878360.023                    23878365.844
        33.300          13.900
 123147225.822 7  95958887.57345  23434137.023                    23434140.336
        47.600          33.600
 129518733.781 5                  24646612.438
        32.800
 116884121.269 6  91078571.87344  22242314.406                    22242318.273
        41.000          24.800
 18  3 13 15 17  6.0000000  0 21R01G19G22G25R08R10R09R16R17R18R19G31
                                R02G12G06G03G32G24G17G02G14
                  86294191.638 5  20755440.172                    20755443.730
                        34.000
 115583873.562 7  90065358.82345  21994879.633                    21994880.938
        44.900          33.800
 122644152.931 6  95566879.14742  23338406.398                    23338408.184
        39.400          15.600
 115685307.342 8  90144336.07345  22014162.117                    22014167.828
        48.300          30.000
                  93286625.524 5  22397940.297                    22397940.539
                        35.600
                  85511231.005 5  20625026.063                    20625029.777
                        35.600
                  81747036.222 6  19682478.016                    19682477.367
                        40.200
                                  23142623.805

                  93263162.211 6  22408005.766                    22408007.109
                        36.900
                  82680796.890 6  19914346.523                    19914347.844
                        39.400
                  88947639.634 6  21378628.828                    21378628.703
                        37.700
 123447738.788 5                  23491323.930
        34.800
                  93855066.142 5  22613653.961                    22613655.094
                        35.400
 108072258.287 8  84212044.57846  20565466.938                    20565469.641
        50.800          37.100
 118343413.671 7  92215702.65045  22520009.563                    22520016.324
        45.500          34.400
 119393626.640 6  93033897.15643  22719822.367                    22719829.133
        39.700          20.600
 119051040.883 7  92767051.00144  22654667.469                    22654672.766
        44.500          29.400
 125485614.946 5  97781103.74242  23879139.203                    23879145.836
        33.400          12.600
 123150511.862 7  95961448.12845  23434762.102                    23434765.578
        47.800          33.300
 129515901.327 5                  24646073.797
        32.600
 116884499.080 6  91078866.23843  22242385.992                    22242389.508
        40.400          22.300
 18  3 13 15 17  7.0000000  0 21R01G19G22G25R08R10R09R16R17R18R19G31
                                R02G12G06G03G32G24G17G02G14
                  86294938.007 5  20755619.719                    20755623.160
                        34.100
 115586506.182 7  90067410.21745  21995380.430                    21995381.855
        45.600          33.800
 122645540.843 6  95567960.71442  23338670.078                    23338672.172
        39.200          16.300
 115683046.468 8  90142574.35144  22013731.797                    22013737.469
        48.200          29.900
                  93289896.802 5  22398725.844                    22398725.762
                        35.400
                  85509215.712 5  20624539.625                    20624543.277
                        35.400
                  81748459.382 6  19682820.258                    19682820.285
                        40.200
                                  23143539.891

                  93266602.228 6  22408831.148                    22408833.734
                        37.300
                  82681556.522 6  19914529.422                    19914530.828
                        39.200
                  88945132.290 6  21378024.352                    21378025.527
                        37.700
 123444887.994 5                  23490781.773
        35.200
                  93852464.313 5  22613025.922                    22613028.770
                        35.200
 108072768.040 8  84212441.78946  20565564.375                    20565566.355
        51.100          37.400
 118341646.612 7  92214325.70745  22519673.555                    22519680.129
        45.800          34.800
 119393618.602 6  93033890.88643  22719820.063                    22719827.715
        39.600          20.400
 119053454.396 7  92768931.67144  22655126.898                    22655132.352
        44.700          29.300
 125489712.193 5  97784296.39342  23879918.984                    23879925.238
        33.600          14.800
 123153798.204 8  95964008.91445  23435387.961                    23435390.844
        48.300          33.300
 129513069.054 5                  24645534.758
        32.900
 116884877.489 6  91079161.06243  22242457.930                    22242461.887
        40.700          22.800
 18  3 13 15 17  8.0000000  0 20R01G19G22G25R08R10R09R17R18R19G31R02
                                G12G06G03G32G24G17G02G14
                  86295685.113 5  20755799.539                    20755802.957
                        33.400
 115589139.430 7  90069462.09845  21995881.516                    21995883.016
        45.700          32.800
 122646929.436 6  95569042.73742  23338933.805                    23338936.254
        38.700          15.600
 115680786.129 8  90140813.05444  22013301.758                    22013307.203
        48.200          29.100
                  93293168.560 5  22399510.859                    22399511.566
                        34.800
                  85507200.926 5  20624054.234                    20624057.340
                        34.500
                  81749883.226 6  19683163.867                    19683162.910
                        39.400
                  93270042.628 6  22409657.125                    22409660.246
                        36.700
                  82682316.908 6  19914712.352                    19914714.613
                        38.400
                  88942625.502 6  21377423.203                    21377423.125
                        36.900
 123442037.513 5                  23490238.859
        35.600
                  93849862.910 5  22612400.438                    22612401.574
                        34.000
 108073278.552 8  84212839.59046  20565661.188                    20565664.211
        50.700          36.500
 118339880.146 7  92212949.21945  22519337.680                    22519343.652
        46.100          33.900
 119393611.320 6  93033885.22243  22719818.992                    22719826.152
        39.000          20.100
 119055868.563 7  92770812.84144  22655585.742                    22655591.336
        43.400          28.300
 125493809.787 5  97787489.28942  23880699.313                    23880705.313
        33.200          15.600
 123157084.948 7  95966570.00945  23436013.531                    23436016.078
        47.800          32.500
 129510237.002 5                  24644996.266
        33.600
 116885256.668 6  91079456.50343  22242530.063                    22242534.043
        41.000          22.600
 18  3 13 15 17  9.0000000  0 20R01G19G22G25R08R10R09R17R18R19G31R02
                                G12G06G03G32G24G17G02G14
                  86296432.942 5  20755979.078                    20755982.594
                        34.300
 115591773.308 7  90071514.46745  21996382.695                    21996384.309
        45.500          33.500
 122648318.595 6  95570125.18342  23339197.906                    23339200.660
        37.700          15.600
 115678526.288 8  90139052.14745  22012872.008                    22012877.004
        48.100          30.000
                  93296440.688 5  22400297.305                    22400296.953
                        35.500
                  85505186.617 5  20623568.602                    20623572.145
                        34.800
                  81751307.698 6  19683506.750                    19683505.895
                        40.400
                  93273483.339 6  22410484.531                    22410486.902
                        37.700
                  82683078.010 6  19914896.234                    19914897.695
                        39.400
                  88940119.088 6  21376820.992                    21376820.727
                        37.500
 123439187.433 6                  23489697.258
        36.100
                  93847261.895 5  22611773.156                    22611775.250
                        35.100
 108073789.765 8  84213237.93446  20565758.609                    20565761.473
        50.400          37.300
 118338114.271 7  92211573.19145  22519001.094                    22519007.855
        45.900          34.300
 119393604.655 6  93033880.02043  22719817.656                    22719824.730
        39.400          20.100
 119058283.255 7  92772694.42245  22656045.617                    22656051.078
        43.700          30.200
 125497907.467 5  97790682.21142  23881478.992                    23881485.020
        33.500          14.800
 123160372.064 7  95969131.40145  23436638.766                    23436642.199
        47.500          32.800
 129507405.144 5                  24644457.422
        33.900
 116885636.487 6  91079752.43743  22242603.156                    22242606.410
        41.700          22.900
 18  3 13 15 17 10.0000000  0 20R01G19G22G25R08R10R09R17R18R19G31R02
                                G12G06G03G32G24G17G02G14
                  86297181.487 5  20756159.070                    20756162.461
                        34.300
 115594407.732 7  90073567.26145  21996884.156                    21996885.641
        45.700          33.600
 122649708.307 6  95571208.04642  23339463.039                    23339464.926
        37.700          14.800
 115676266.917 8  90137291.60344  22012441.813                    22012447.020
        48.200          29.900
                  93299713.120 5  22401082.734                    22401082.488
                        35.300
                  85503172.747 5  20623083.008                    20623086.340
                        35.000
                  81752732.780 6  19683849.664                    19683849.480
                        40.100
                  93276924.336 6  22411311.539                    22411313.703
                        37.700
                  82683839.796 6  19915079.508                    19915080.738
                        39.600
                  88937613.057 6  21376217.547                    21376218.652
                        37.400
 123436337.576 5                  23489154.820
        35.900
                  93844661.235 5  22611146.656                    22611148.703
                        35.100
 108074301.633 8  84213636.79246  20565856.102                    20565858.719
        50.500          37.800
 118336348.905 7  92210197.56445  22518665.555                    22518671.859
        46.000          34.300
 119393598.710 6  93033875.38443  22719816.258                    22719823.359
        39.300          19.300
 119060698.505 7  92774576.42744  22656504.750                    22656510.332
        43.200          29.500
 125502005.474 5  97793875.44642  23882258.672                    23882265.215
        33.100          14.800
 123163659.506 7  95971693.04845  23437264.375                    23437267.594
        47.300          33.100
 129504573.470 5                  24643918.523
        34.200
 116886016.914 6  91080048.86843  22242675.680                    22242679.012
        41.400          22.800
 18  3 13 15 17 11.0000000  0 20R01G19G22G25R08R10R09R17R18R19G31R02
                                G12G06G03G32G24G17G02G14
                  86297930.732 5  20756339.813                    20756342.848
                        31.300
 115597042.763 7  90075620.52945  21997385.648                    21997386.984
        45.300          30.600
 122651098.650 6  95572291.43842  23339727.063                    23339729.668
        37.600          14.800
 115674008.047 7  90135531.45144  22012011.875                    22012017.223
        47.500          27.400
                  93302985.953 5  22401868.070                    22401868.191
                        32.900
                  85501159.340 5  20622596.086                    20622600.133
                        32.500
                  81754158.473 6  19684193.031                    19684192.602
                        37.900
                  93280365.645 5  22412138.570                    22412140.301
                        34.800
                  82684602.290 6  19915262.773                    19915264.406
                        37.300
                  88935107.462 5  21375615.750                    21375616.914
                        34.300
 123433488.119 5                  23488611.984
        35.400
                  93842060.973 5  22610519.695                    22610522.379
                        31.600
 108074814.217 8  84214036.20145  20565953.398                    20565956.129
        50.400          34.700
 118334584.085 7  92208822.37345  22518329.945                    22518336.484
        46.000          31.800
 119393593.473 6  93033871.29742  22719815.195                    22719822.637
        39.200          17.800
 119063114.319 7  92776458.87244  22656965.055                    22656970.492
        43.200          26.200
 125506103.549 5  97797068.77142  23883037.734                    23883044.926
        32.500          14.800
 123166947.288 7  95974254.95844  23437889.297                    23437893.250
        46.800          29.300
 129501741.957 5                  24643380.086
        33.700
 116886398.008 6  91080345.83043  22242748.422                    22242751.156
        40.900          21.700
 18  3 13 15 17 12.0000000  0 20R01G19G22G25R08R10R09R17R18R19G31R02
                                G12G06G03G32G24G17G02G14
                  86298680.760 5  20756520.141                    20756523.746
                        34.600
 115599678.486 7  90077674.34145  21997887.188                    21997888.980
        45.800          33.900
 122652489.621 6  95573375.35842  23339991.867                    23339994.348
        37.700          14.800
 115671749.735 7  90133771.72045  22011582.172                    22011587.555
        47.900          30.200
                  93306259.209 6  22402655.305                    22402654.586
                        36.000
                  85499146.446 5  20622111.023                    20622114.734
                        34.900
                  81755584.813 6  19684536.469                    19684535.391
                        40.700
                  93283807.301 6  22412965.891                    22412967.363
                        37.000
                  82685365.530 6  19915446.711                    19915448.488
                        40.200
                  88932602.337 6  21375013.719                    21375014.512
                        37.100
 123430638.996 6                  23488070.977
        36.100
                  93839461.107 6  22609893.891                    22609895.762
                        36.000
 108075327.553 8  84214436.19946  20566051.164                    20566053.711
        50.500          37.300
 118332819.892 7  92207447.66745  22517994.148                    22518000.840
        46.100          34.700
 119393588.931 6  93033867.77143  22719814.539                    22719821.602
        38.800          19.000
 119065530.760 7  92778341.80144  22657424.422                    22657430.039
        43.700          29.900
 125510202.021 5  97800262.39442  23883817.734                    23883824.785
        32.900          14.800
 123170235.515 7  95976817.20845  23438515.594                    23438518.945
        47.600          32.300
 129498910.649 5                  24642840.523
        33.100
 116886779.784 6  91080643.31843  22242820.570                    22242823.742
        41.400          23.000
 18  3 13 15 17 13.0000000  0 21R01G19G22G25R08R10R09R16R17R18R19G31
                                R02G12G06G03G32G24G17G02G14
                  86299431.555 5  20756700.188                    20756704.203
                        34.700
 115602314.798 7  90079728.60645  21998388.766                    21998390.324
        45.700          34.400
 122653881.262 6  95574459.74842  23340256.664                    23340259.234
        38.300          16.900
 115669491.921 8  90132012.38744  22011152.695                    22011157.836
        48.300          29.600
                  93309532.855 6  22403439.711                    22403441.137
                        36.900
                  85497134.037 5  20621625.914                    20621629.516
                        35.800
                  81757011.824 6  19684879.734                    19684879.305
                        40.400
                  96178476.62413  23149042.438                    23149044.922
                        23.200
                  93287249.244 6  22413792.297                    22413794.129
                        36.900
                  82686129.477 6  19915630.906                    19915632.809
                        40.200
                  88930097.682 6  21374412.273                    21374411.770
                        37.600
 123427790.162 6                  23487527.977
        36.700
                  93836861.635 6  22609266.984                    22609269.750
                        36.200
 108075841.604 8  84214836.75646  20566149.023                    20566151.500
        50.300          37.500
 118331056.271 7  92206073.40145  22517658.164                    22517665.160
        45.900          34.600
 119393585.122 7  93033864.81943  22719814.570                    22719821.211
        42.200          22.200
 119067947.857 7  92780225.26544  22657884.781                    22657889.992
        42.000          29.400
 125514300.592 5  97803456.11742  23884598.609                    23884604.898
        33.100          15.600
 123173524.100 8  95979379.72745  23439141.500                    23439144.586
        48.000          32.800
 129496079.623 5                  24642302.461
        32.300
 116887162.266 6  91080941.33344  22242893.563                    22242896.480
        41.700          25.200
 18  3 13 15 17 14.0000000  0 21R01G19G22G25R08R10R09R16R17R18R19G31
                                R02G12G06G03G32G24G17G02G14
                  86300183.125 5  20756881.586                    20756885.047
                        34.400
 115604951.784 7  90081783.40645  21998890.438                    21998892.043
        45.400          32.600
 122655273.483 6  95575544.63042  23340521.836                    23340524.270
        37.500          15.600
 115667234.682 8  90130253.51844  22010723.008                    22010728.480
        48.100          29.900
                  93312806.922 5  22404225.453                    22404227.020
                        35.700
                  85495122.143 5  20621140.305                    20621144.082
                        35.700
                  81758439.457 6  19685223.844                    19685222.867
                        40.200
                  96182286.297 3  23149959.656                    23149962.258
                        22.100
                  93290691.566 6  22414618.586                    22414621.410
                        37.400
                  82686894.185 6  19915815.094                    19915816.973
                        39.700
                  88927593.487 6  21373811.008                    21373809.887
                        37.500
 123424941.758 6                  23486985.867
        38.300
                  93834262.547 6  22608641.328                    22608643.059
                        36.300
 108076356.430 8  84215237.91746  20566247.000                    20566249.551
        49.800          36.800
 118329293.288 7  92204699.63845  22517322.977                    22517329.691
        45.700          34.300
 119393582.095 7  93033862.47144  22719813.195                    22719820.273
        42.000          24.500
 119070365.534 7  92782109.17744  22658344.945                    22658349.816
        42.200          28.900
 125518399.541 5  97806650.09842  23885378.109                    23885384.531
        33.000          14.800
 123176813.086 7  95981942.57245  23439766.992                    23439770.602
        47.200          32.300
 129493248.766 5                  24641762.719
        31.600
 116887545.474 7  91081239.92744  22242966.500                    22242969.742
        42.600          25.300
 18  3 13 15 17 15.0000000  0 21R01G19G22G25R08R10R09R16R17R18R19G31
                                R02G12G06G03G32G24G17G02G14
                  86300935.425 5  20757062.445                    20757066.055
                        34.700
 115607589.404 7  90083838.69645  21999392.602                    21999394.219
        45.700          33.700
 122656666.335 6  95576629.98542  23340786.867                    23340789.523
        36.900          14.800
 115664977.926 8  90128495.00645  22010293.844                    22010299.090
        48.400          30.300
                  93316081.396 5  22405010.367                    22405012.262
                        35.300
                  85493110.724 5  20620654.609                    20620658.848
                        35.600
                  81759867.734 6  19685567.172                    19685566.625
                        40.200
                  96186096.078 3  23150875.906                    23150878.859
                        22.100
                  93294134.244 6  22415446.117                    22415448.695
                        37.400
                  82687659.629 6  19915999.758                    19916001.195
                        40.100
                  88925089.683 6  21373207.500                    21373207.781
                        37.800
 123422093.725 6                  23486444.141
        38.100
                  93831663.874 6  22608015.430                    22608016.602
                        37.000
 108076871.979 8  84215639.65046  20566345.328                    20566347.875
        50.200          37.500
 118327530.864 7  92203326.31345  22516987.578                    22516994.227
        45.500          34.800
 119393579.764 7  93033860.66943  22719812.914                    22719820.016
        42.600          23.900
 119072783.798 7  92783993.53444  22658804.844                    22658810.148
        42.600          29.900
 125522498.673 5  97809844.26442  23886158.375                    23886164.379
        33.000          15.600
 123180102.472 7  95984505.73445  23440393.016                    23440396.520
        47.200          32.000
 129490418.105 5                  24641223.617
        31.900
 116887929.327 7  91081539.03043  22243039.320                    22243042.930
        42.200          23.500
 18  3 13 15 17 16.0000000  0 21R01G19G22G25R08R10R09R16R17R18R19G31
                                R02G12G06G03G32G24G17G02G14
                  86301688.454 5  20757244.688                    20757247.012
                        33.400
 115610227.627 7  90085894.45745  21999894.477                    21999896.109
        45.000          33.600
 122658059.834 5  95577715.88442  23341051.031                    23341054.566
        34.800          14.800
 115662721.737 7  90126736.92745  22009864.219                    22009869.137
        47.600          31.300
                  93319356.244 5  22405797.680                    22405799.238
                        35.800
                  85491099.790 5  20620169.867                    20620174.301
                        34.800
                  81761296.639 6  19685911.594                    19685911.152
                        40.400
                  96189906.058 3  23151791.375                    23151796.090
                        22.500
                  93297577.252 6  22416273.641                    22416275.539
                        37.000
                  82688425.804 6  19916183.617                    19916185.543
                        39.600
                  88922586.406 6  21372606.461                    21372607.195
                        37.500
 123419246.062 5                  23485902.578
        35.900
                  93829065.628 5  22607388.547                    22607391.141
                        35.100
 108077388.258 8  84216041.95146  20566443.398                    20566445.938
        50.100          36.600
 118325769.039 7  92201953.45545  22516652.313                    22516658.879
        45.800          35.100
 119393578.185 7  93033859.44544  22719813.141                    22719819.504
        42.400          25.900
 119075202.664 7  92785878.37044  22659265.234                    22659270.508
        42.300          28.600
 125526597.962 5  97813038.53842  23886938.234                    23886944.680
        33.000          14.800
 123183392.214 7  95987069.16845  23441019.219                    23441022.832
        47.400          32.600
 129487587.729 5                  24640686.063
        32.300
 116888313.878 6  91081838.67643  22243111.977                    22243116.238
        40.800          23.400
 18  3 13 15 17 17.0000000  0 21R01G19G22G25R08R10R09R16R17R18R19G31
                                R02G12G06G03G32G24G17G02G14
                  86302442.252 4  20757425.242                    20757428.008
                        27.700
 115612866.500 7  90087950.72545  22000396.750                    22000398.336
        44.900          32.700
 122659453.936 5  95578802.17542  23341316.688                    23341320.238
        31.300          13.900
 115660466.056 7  90124979.26544  22009434.938                    22009440.031
        47.600          29.700
                  93322631.462 5  22406584.836                    22406585.234
                        32.500
                  85489089.378 5  20619685.258                    20619689.074
                        34.700
                  81762726.192 6  19686255.344                    19686254.477
                        38.700
                                  23152708.539

                  93301020.586 5  22417101.961                    22417102.660
                        33.200
                  82689192.738 6  19916369.031                    19916370.828
                        39.000
                  88920083.583 5  21372005.250                    21372005.770
                        35.700
 123416398.790 5                  23485360.445
        34.100
                  93826467.810 5  22606763.078                    22606765.648
                        35.000
 108077905.260 8  84216444.81745  20566541.789                    20566544.254
        49.700          35.900
 118324007.820 7  92200581.06345  22516317.242                    22516323.770
        45.700          33.800
 119393577.346 6  93033858.79843  22719813.289                    22719819.223
        41.100          22.900
 119077622.174 7  92787763.70644  22659725.313                    22659730.813
        42.100          28.600
 125530697.616 5  97816233.08942  23887718.164                    23887725.008
        32.200          13.900
 123186682.344 7  95989632.91245  23441645.352                    23441648.984
        47.900          33.100
 129484757.65415                  24640147.906
        32.000
 116888699.119 6  91082138.86243  22243185.133                    22243189.270
        41.600          22.300
 18  3 13 15 17 18.0000000  0 20R01G19G22G25R08R10R09R17R18R19G31R02
                                G12G06G03G32G24G17G02G14
                  86303196.802 4  20757606.703                    20757610.297
                        28.000
 115615506.011 7  90090007.47645  22000898.992                    22000900.367
        45.000          32.600
 122660849.36913                  23341582.148
        23.800
 115658210.863 8  90123221.98045  22009006.188                    22009011.281
        48.000          31.500
                  93325907.110 5  22407371.602                    22407372.090
                        33.800
                  85487079.420 6  20619200.516                    20619203.922
                        36.500
                  81764156.362 6  19686600.227                    19686599.621
                        40.100
                  93304464.274 5  22417928.641                    22417930.762
                        34.100
                  82689960.344 6  19916552.914                    19916555.254
                        40.300
                  88917581.193 6  21371404.211                    21371403.961
                        36.700
 123413551.726 6                  23484819.023
        38.300
                  93823870.304 5  22606137.211                    22606139.113
                        35.200
 108078422.977 8  84216848.23546  20566640.164                    20566642.762
        50.200          37.100
 118322247.132 7  92199209.08645  22515982.023                    22515988.895
        45.700          35.900
 119393577.123 6  93033858.63043  22719812.586                    22719819.090
        38.000          21.100
 119080042.200 7  92789649.43744  22660185.906                    22660191.484
        42.600          28.600
 125534797.412 5  97819427.63642  23888498.766                    23888504.953
        33.500          13.900
 123189972.851 8  95992196.95445  23442271.352                    23442274.918
        48.200          33.600
 129481927.545 5                  24639608.695
        32.000
 116889084.925 7  91082439.48043  22243258.867                    22243262.793
        42.400          22.900
 18  3 13 15 17 19.0000000  0 19R01G19G25R08R10R09R17R18R19G31R02G12
                                G06G03G32G24G17G02G14
                  86303952.022 4  20757788.047                    20757791.465
                        28.600
 115618146.029 7  90092064.62145  22001400.969                    22001402.852
        44.700          33.400
 115655956.153 7  90121465.08045  22008576.672                    22008582.141
        47.900          31.900
                  93329183.092 5  22408157.648                    22408158.219
                        34.000
                  85485069.872 6  20618715.203                    20618719.453
                        36.500
                  81765587.167 6  19686944.234                    19686944.141
                        40.300
                  93307908.251 5  22418756.758                    22418758.563
                        33.500
                  82690728.649 6  19916738.422                    19916740.625
                        40.500
                  88915079.146 6  21370801.781                    21370802.367
                        36.900
 123410705.118 6                  23484277.297
        36.900
                  93821273.148 6  22605511.258                    22605513.570
                        37.200
 108078941.327 8  84217252.14546  20566738.641                    20566741.160
        50.200          36.900
 118320486.958 7  92197837.52045  22515647.383                    22515653.676
        46.100          35.500
 119393577.623 6  93033859.04143  22719813.000                    22719819.469
        41.200          23.000
 119082462.815 7  92791535.62244  22660646.492                    22660652.031
        43.000          29.800
 125538897.376 5  97822622.37742  23889279.109                    23889285.176
        32.900          13.900
 123193263.658 8  95994761.22345  23442897.469                    23442901.027
        48.400          34.700
 129479097.626 5                  24639069.703
        32.400
 116889471.397 6  91082740.65143  22243332.391                    22243336.254
        41.900          22.300
 18  3 13 15 17 20.0000000  0 19R01G19G25R08R10R09R17R18R19G31R02G12
                                G06G03G32G24G17G02G14
                  86304708.032 5  20757970.617                    20757973.418
                        31.700
 115620786.723 7  90094122.30645  22001903.766                    22001905.367
        45.000          32.800
 115653701.980 8  90119708.59445  22008147.516                    22008153.117
        48.500          32.200
                  93332459.452 5  22408942.883                    22408945.246
                        34.100
                  85483060.845 5  20618231.836                    20618235.375
                        35.800
                  81767018.604 6  19687289.609                    19687288.844
                        39.500
                  93311352.540 5  22419584.500                    22419585.973
                        35.500
                  82691497.671 6  19916923.352                    19916925.617
                        40.400
                  88912577.575 6  21370200.469                    21370200.727
                        36.700
 123407858.748 5                  23483734.953
        34.800
                  93818676.425 6  22604886.531                    22604888.039
                        36.900
 108079460.452 8  84217656.65046  20566837.203                    20566840.051
        50.300          36.200
 118318727.400 7  92196466.43845  22515312.922                    22515318.891
        45.900          35.200
 119393578.848 6  93033859.98544  22719813.648                    22719819.445
        40.800          25.800
 119084884.021 7  92793422.26745  22661107.305                    22661113.070
        43.200          30.400
 125542997.655 5  97825817.38842  23890059.930                    23890065.645
        31.600          13.900
 123196554.877 8  95997325.81245  23443523.602                    23443527.188
        48.100          34.600
 129476268.048 5                  24638531.688
        31.800
 116889858.613 7  91083042.35943  22243406.359                    22243410.012
        42.600          23.000
 18  3 13 15 17 21.0000000  0 20R01G19G25R08R10R09R16R17R18R19G31R02
                                G12G06G03G32G24G17G02G14
                  86305464.758 5  20758151.813                    20758155.246
                        31.600
 115623427.977 7  90096180.43545  22002406.250                    22002408.121
        45.400          33.400
 115651448.273 8  90117952.46745  22007718.609                    22007724.008
        48.600          31.100
                  93335736.183 5  22409729.352                    22409731.625
                        34.300
                  85481052.280 6  20617746.258                    20617750.102
                        36.100
                  81768450.636 6  19687634.164                    19687632.711
                        39.800
                                  23156378.875

                  93314797.130 5  22420410.602                    22420413.637
                        35.200
                  82692267.399 6  19917109.297                    19917111.098
                        40.200
                  88910076.422 6  21369599.602                    21369599.484
                        37.200
 123405012.722 5                  23483193.102
        34.800
                  93816080.081 5  22604260.125                    22604262.336
                        35.800
 108079980.226 8  84218061.65546  20566936.359                    20566938.910
        50.300          36.400
 118316968.374 7  92195095.76445  22514977.688                    22514984.141
        46.200          35.500
 119393580.733 6  93033861.45444  22719813.797                    22719819.797
        41.700          26.600
 119087305.761 7  92795309.33845  22661568.305                    22661573.781
        43.200          30.000
 125547098.065 5  97829012.57242  23890839.688                    23890846.004
        32.400          14.800
 123199846.419 8  95999890.65445  23444150.227                    23444153.824
        48.100          34.700
 129473438.581 5                  24637993.586
        33.000
 116890246.448 7  91083344.55043  22243480.094                    22243483.414
        42.700          23.400
 18  3 13 15 17 22.0000000  0 20R01G19G25R08R10R09R16R17R18R19G31R02
                                G12G06G03G32G24G17G02G14
                  86306222.288 5  20758333.867                    20758337.367
                        32.600
 115626069.964 7  90098239.13145  22002909.492                    22002910.777
        45.200          33.500
 115649195.176 8  90116196.81445  22007290.195                    22007295.734
        49.000          32.300
                  93339013.385 5  22410516.375                    22410518.582
                        34.600
                  85479044.289 5  20617261.969                    20617265.938
                        35.800
                  81769883.379 6  19687979.063                    19687978.102
                        39.900
                                  23157294.766

                  93318242.146 5  22421237.797                    22421241.438
                        34.700
                  82693037.955 6  19917294.844                    19917296.551
                        40.200
                  88907575.825 6  21368998.938                    21368998.867
                        37.300
 123402167.143 5                  23482651.117
        35.900
                  93813484.218 6  22603634.867                    22603637.309
                        36.000
 108080500.826 8  84218467.31546  20567035.188                    20567037.969
        50.600          36.900
 118315210.016 7  92193725.60546  22514643.078                    22514649.770
        46.600          36.200
 119393583.488 6  93033863.60144  22719814.398                    22719820.344
        41.400          25.800
 119089728.204 7  92797196.95945  22662029.328                    22662034.746
        42.800          30.200
 125551198.818 5  97832208.00952  23891619.859                    23891626.445
        32.500          13.900
 123203138.427 8  96002455.85845  23444777.047                    23444780.039
        48.200          35.400
 129470609.398 5                  24637455.648
        33.800
 116890635.042 7  91083647.33843  22243554.156                    22243557.422
        42.600          23.000
 18  3 13 15 17 23.0000000  0 21R01G19G22G25R08R10R09R16R17R18R19G31
                                R02G12G06G03G32G24G17G02G14
                  86306980.533 5  20758516.680                    20758520.016
                        33.100
 115628712.524 7  90100298.28245  22003412.148                    22003413.617
        45.000          32.700
 122667630.20316                  23342911.180
        39.000
 115646942.543 8  90114441.51045  22006861.203                    22006866.926
        49.100          32.100
                  93342290.934 5  22411304.359                    22411305.863
                        35.000
                  85477036.723 5  20616777.289                    20616782.008
                        35.300
                  81771316.714 6  19688324.047                    19688323.223
                        40.200
                  96216582.06313  23158212.344                    23158216.578
                        22.300
                  93321687.486 6  22422066.266                    22422068.281
                        38.700
                  82693809.227 6  19917480.969                    19917482.199
                        40.400
                  88905075.597 6  21368398.875                    21368397.738
                        37.600
 123399321.890 5                  23482110.070
        35.000
                  93810888.696 5  22603009.477                    22603011.621
                        35.800
 108081022.127 8  84218873.52146  20567134.359                    20567137.082
        50.500          37.100
 118313452.219 7  92192355.88045  22514308.461                    22514315.008
        46.600          35.300
 119393586.932 6  93033866.26244  22719814.578                    22719820.820
        40.400          24.400
 119092151.198 7  92799085.01745  22662490.164                    22662495.953
        43.100          30.600
 125555299.776 5  97835403.55842  23892400.531                    23892406.848
        32.900          15.600
 123206430.770 8  96005021.31545  23445403.266                    23445406.910
        48.300          35.200
 129467780.361 5                  24636917.516
        33.900
 116891024.257 7  91083950.62544  22243628.922                    22243631.715
        42.600          24.600
 18  3 13 15 17 24.0000000  0 21R01G19G22G25R08R10R09R16R17R18R19G31
                                R02G12G06G03G32G24G17G02G14
                  86307739.494 5  20758698.742                    20758702.391
                        33.600
 115631355.643 7  90102357.85745  22003915.180                    22003917.098
        45.100          32.700
 122669028.50915                  23343177.211
        30.100
 115644690.392 8  90112686.58245  22006433.172                    22006438.566
        48.600          32.100
                  93345568.871 5  22412090.852                    22412092.273
                        35.200
                  85475029.589 6  20616293.938                    20616298.035
                        36.200
                  81772750.663 6  19688668.867                    19688668.766
                        40.200
                  96220393.15213  23159129.023                    23159133.965
                        21.900
                  93325133.053 6  22422895.023                    22422896.461
                        39.100
                  82694581.212 6  19917666.500                    19917668.043
                        39.400
                  88902575.808 6  21367797.227                    21367796.797
                        37.800
 123396476.889 6                  23481569.586
        36.300
                  93808293.518 6  22602384.938                    22602386.629
                        38.100
 108081544.068 8  84219280.23846  20567233.719                    20567236.543
        50.700          36.600
 118311694.955 7  92190986.57845  22513974.188                    22513980.641
        46.100          35.500
 119393590.950 7  93033869.37944  22719814.914                    22719821.492
        42.300          25.600
 119094574.738 7  92800973.48645  22662951.164                    22662957.086
        43.300          30.500
 125559400.875 5  97838599.23242  23893181.313                    23893187.148
        31.300          15.600
 123209723.467 7  96007587.04845  23446030.000                    23446033.281
        47.000          34.200
 129464951.533 5                  24636379.648
        32.400
 116891414.133 7  91084254.43244  22243702.844                    22243705.898
        43.200          25.300
 18  3 13 15 17 25.0000000  0 21R01G19G22G25R08R10R09R16R17R18R19G31
                                R02G12G06G03G32G24G17G02G14
                  86308499.200 5  20758882.141                    20758884.813
                        33.700
 115633999.401 7  90104417.94645  22004418.313                    22004419.652
        46.100          33.000
 122670427.004 4                  23343442.805
        29.100
 115642438.763 8  90110932.06345  22006004.500                    22006010.012
        48.800          31.500
                  93348847.242 5  22412877.961                    22412879.742
                        35.400
                  85473022.946 6  20615810.117                    20615813.398
                        36.000
                  81774185.246 6  19689014.695                    19689014.660
                        40.000
                  96224204.43013  23160048.516                    23160051.348
                        22.300
                  93328579.012 6  22423723.336                    22423724.000
                        38.800
                  82695353.922 6  19917852.617                    19917854.609
                        39.600
                  88900076.449 6  21367196.211                    21367196.309
                        38.100
 123393632.284 5                  23481028.063
        34.500
                  93805698.729 6  22601759.250                    22601761.031
                        38.200
 108082066.777 8  84219687.55446  20567332.945                    20567335.750
        50.900          36.200
 118309938.269 7  92189617.72445  22513639.781                    22513646.707
        46.100          35.500
 119393595.764 6  93033873.12344  22719816.828                    22719822.645
        41.400          25.700
 119096998.885 7  92802862.41545  22663412.742                    22663418.496
        43.400          30.800
 125563502.269 5  97841795.09042  23893959.898                    23893968.113
        32.400          15.600
 123213016.559 7  96010153.09845  23446656.359                    23446660.270
        46.700          34.900
 129462122.953 5                  24635840.258
        32.300
 116891804.654 7  91084558.73843  22243777.156                    22243780.121
        43.400          23.500
 18  3 13 15 17 26.0000000  0 20R01G19G22G25R08R10R09R17R18R19G31R02
                                G12G06G03G32G24G17G02G14
                  86309259.606 5  20759064.828                    20759068.125
                        35.300
 115636643.788 7  90106478.50745  22004921.367                    22004923.152
        45.700          33.800
 122671826.75616                  23343709.844
        38.400
 115640187.632 8  90109177.92545  22005576.266                    22005581.688
        48.600          31.800
                  93352125.931 5  22413665.484                    22413667.180
                        34.900
                  85471016.804 5  20615326.078                    20615329.805
                        35.300
                  81775620.468 6  19689360.352                    19689360.273
                        40.000
                  93332025.285 6  22424551.125                    22424552.797
                        36.200
                  82696127.331 6  19918038.688                    19918040.641
                        39.700
                  88897577.539 6  21366595.586                    21366595.531
                        38.000
 123390787.993 5                  23480486.648
        33.800
                  93803104.242 6  22601133.820                    22601135.738
                        36.000
 108082590.179 8  84220095.40446  20567432.898                    20567435.430
        50.900          36.700
 118308182.145 7  92188249.32946  22513305.703                    22513312.125
        45.800          36.000
 119393601.407 6  93033877.52943  22719817.898                    22719823.645
        40.600          22.000
 119099423.625 7  92804751.82445  22663874.164                    22663879.594
        43.500          30.200
 125567603.879 5  97844991.09842  23894741.227                    23894748.219
        31.900          13.900
 123216309.981 7  96012719.38945  23447282.883                    23447286.695
        47.000          35.100
 129459294.470 5                  24635301.766
        33.300
 116892195.827 7  91084863.52843  22243851.094                    22243854.602
        42.000          23.900
 18  3 13 15 17 27.0000000  0 20R01G19G22G25R08R10R09R17R18R19G31R02
                                G12G06G03G32G24G17G02G14
                  86310020.795 5  20759247.477                    20759250.254
                        32.500
 115639288.801 7  90108539.54345  22005424.656                    22005426.508
        44.600          34.100
 122673227.11517                  23343975.992
        42.400
 115637937.054 7  90107424.21945  22005147.742                    22005153.320
        47.800          32.000
                  93355405.078 5  22414453.813                    22414454.512
                        35.100
                  85469011.130 6  20614841.820                    20614845.840
                        36.200
                  81777056.346 6  19689705.711                    19689705.406
                        40.700
                  93335471.884 5  22425378.711                    22425380.254
                        33.600
                  82696901.515 6  19918225.383                    19918227.125
                        40.400
                  88895079.075 6  21365995.555                    21365995.281
                        37.400
 123387944.013 5                  23479945.898
        35.300
                  93800510.229 5  22600508.398                    22600510.148
                        35.200
 108083114.296 8  84220503.82146  20567532.531                    20567535.254
        51.300          37.100
 118306426.576 7  92186881.36445  22512971.641                    22512978.465
        46.300          35.300
 119393607.375 7  93033882.19744  22719817.867                    22719825.145
        43.400          28.600
 119101848.934 7  92806641.66044  22664335.359                    22664341.277
        43.600          29.300
 125571705.679 5  97848187.33242  23895522.844                    23895529.535
        31.300          13.900
 123219603.747 7  96015285.94545  23447909.641                    23447913.531
        47.700          35.200
 129456466.260 5                  24634763.328
        33.500
 116892587.733 6  91085168.92744  22243925.906                    22243929.625
        41.300          24.800
 18  3 13 15 17 28.0000000  0 20R01G19G22G25R08R10R09R17R18R19G31R02
                                G12G06G03G32G24G17G02G14
                  86310782.728 5  20759431.133                    20759434.324
                        33.500
 115641934.383 7  90110601.03844  22005927.789                    22005929.480
        43.100          28.900
 122674627.90917                  23344242.461
        43.000
 115635687.027 8  90105670.95245  22004720.047                    22004725.133
        48.200          32.300
                  93358684.553 5  22415240.039                    22415241.773
                        35.100
                  85467005.978 6  20614357.883                    20614362.129
                        36.100
                  81778492.895 6  19690051.781                    19690051.754
                        41.100
                  93338918.869 6  22426206.797                    22426208.855
                        37.100
                  82697676.400 6  19918411.805                    19918413.410
                        40.700
                  88892581.059 6  21365394.609                    21365394.945
                        37.900
 123385100.472 5                  23479405.016
        35.000
                  93797916.548 6  22599883.336                    22599885.625
                        37.800
 108083639.165 8  84220912.81346  20567632.586                    20567635.195
        51.600          37.300
 118304671.652 7  92185513.89445  22512637.898                    22512644.340
        46.400          35.600
 119393614.272 7  93033887.60445  22719819.109                    22719826.484
        43.700          30.100
 119104274.888 7  92808532.01044  22664797.648                    22664803.090
        43.900          29.700
 125575807.717 5                  23896302.297
        31.200
 123222898.103 7  96017852.97944  23448536.469                    23448540.379
        42.500          26.300
 129453638.267 5                  24634225.344
        32.600
 116892980.310 6  91085474.82744  22244000.055                    22244003.961
        41.400          24.700
 18  3 13 15 17 29.0000000  0 21R01G19G22G25R08R10R09R16R17R18R19G31
                                R02G12G06G03G32G24G17G02G14
                  86311545.376 5  20759613.734                    20759617.785
                        33.400
 115644580.690 7  90112663.09345  22006431.648                    22006433.164
        45.800          34.900
 122676029.39317                  23344509.602
        42.900
 115633437.506 7  90103918.08845  22004291.656                    22004297.121
        47.800          31.500
                  93361964.457 5  22416028.000                    22416029.223
                        35.700
                  85465001.302 5  20613874.453                    20613878.906
                        35.400
                  81779930.077 6  19690397.289                    19690397.359
                        40.600
                  96239451.24513  23163716.977                    23163720.738
                        22.700
                  93342366.163 6  22427035.281                    22427037.391
                        38.400
                  82698452.015 6  19918598.492                    19918600.543
                        40.200
                  88890083.487 6  21364794.039                    21364794.617
                        38.200
 123382257.354 6  96142040.00752  23478863.422                    23478868.434
        37.500          16.300
                  93795323.259 6  22599258.492                    22599261.133
                        38.800
 108084164.750 8  84221322.36946  20567732.531                    20567735.336
        51.300          37.600
 118302917.295 7  92184146.85445  22512303.414                    22512310.098
        46.900          35.900
 119393621.925 7  93033893.59945  22719820.734                    22719827.973
        44.000          30.600
 119106701.399 7  92810422.77944  22665259.273                    22665264.871
        44.100          29.700
 125579910.076 5                  23897082.516
        31.500
 123226192.558 6  96020420.09044  23449163.406                    23449167.418
        41.800          24.700
 129450810.464 5                  24633687.625
        33.700
 116893373.551 7  91085781.24744  22244075.695                    22244078.840
        43.200          26.100
 18  3 13 15 17 30.0000000  0 21R01G19G22G25R08R10R09R16R17R18R19G31
                                R02G12G06G03G32G24G17G02G14
                  86312308.777 5  20759798.211                    20759801.582
                        33.400
 115647227.572 7  90114725.59945  22006935.219                    22006936.914
        45.600          34.500
 122677431.48616                  23344776.273
        41.800
 115631188.498 8  90102165.62545  22003864.070                    22003869.449
        48.400          31.800
                  93365244.692 5  22416814.961                    22416816.559
                        34.300
                  85462997.126 6  20613391.531                    20613395.727
                        36.000
                  81781367.876 6  19690743.992                    19690744.055
                        40.200
                  96243263.332 4  23164634.523                    23164638.250
                        24.200
                  93345813.796 5  22427864.234                    22427866.207
                        32.900
                  82699228.329 6  19918785.289                    19918787.555
                        40.200
                  88887586.395 6  21364194.148                    21364194.047
                        37.600
 123379414.513 6  96139824.81342  23478322.930                    23478327.180
        37.800          15.600
                  93792730.405 6  22598634.023                    22598636.352
                        37.100
 108084691.043 8  84221732.46346  20567832.922                    20567835.219
        50.900          38.000
 118301163.521 7  92182780.27345  22511970.094                    22511976.980
        46.500          35.400
 119393630.285 7  93033900.11344  22719822.469                    22719829.102
        44.000          29.900
 119109128.533 7  92812314.04144  22665720.930                    22665726.547
        44.000          29.400
 125584012.662 5                  23897864.344
        31.200
 123229487.594 7  96022987.64745  23449790.930                    23449793.973
        45.400          30.800
 129447982.880 5                  24633150.227
        33.400
 116893767.441 7  91086088.18844  22244149.930                    22244153.676
        43.000          25.900
 18  3 13 15 17 31.0000000  0 21R01G19G22G25R08R10R09R16R17R18R19G31
                                R02G12G06G03G32G24G17G02G14
                  86313072.924 5  20759981.820                    20759985.059
                        33.900
 115649875.079 7  90116788.60045  22007439.125                    22007440.914
        45.300          33.700
 122678833.703 7                  23345042.828
        42.000
 115628940.005 8  90100413.55145  22003435.875                    22003441.434
        48.200          32.200
                  93368525.392 5  22417603.305                    22417604.918
                        35.400
                  85460993.426 6  20612907.891                    20612911.813
                        36.200
                  81782806.317 6  19691090.242                    19691090.176
                        40.300
                  96247075.572 4  23165552.563                    23165555.645
                        25.100
                  93349261.751 6  22428692.266                    22428694.254
                        36.900
                  82700005.367 6  19918972.953                    19918974.133
                        40.200
                  88885089.758 6  21363595.086                    21363594.367
                        37.600
 123376572.049 6  96137609.93542  23477782.125                    23477786.816
        37.700          17.400
                  93790137.908 5  22598009.023                    22598011.176
                        34.300
 108085218.065 8  84222143.12346  20567933.359                    20567935.582
        51.000          38.100
 118299410.312 7  92181414.13145  22511636.258                    22511642.949
        46.000          34.900
 119393639.358 7  93033907.16045  22719824.711                    22719830.988
        44.300          30.400
 119111556.261 7  92814205.77444  22666182.672                    22666188.977
        43.200          28.400
 125588115.403 5                  23898644.555
        31.200
 123232782.959 7  96025555.46045  23450417.633                    23450421.586
        46.600          32.700
 129445155.571 5                  24632611.234
        33.800
 116894162.038 7  91086395.66743  22244225.234                    22244228.723
        43.800          23.300
 18  3 13 15 17 32.0000000  0 21R01G19G22G25R08R10R09R16R17R18R19G31
                                R02G12G06G03G32G24G17G02G14
                  86313837.801 5  20760166.195                    20760168.914
                        33.300
 115652523.176 7  90118852.05845  22007942.961                    22007944.574
        46.300          34.200
 122680236.997 6  95595147.13354  23345310.477                    23345311.891
        41.500          25.400
 115626691.991 8  90098661.85645  22003007.828                    22003013.414
        48.100          30.900
                  93371806.442 5  22418390.094                    22418392.148
                        34.300
                  85458990.188 6  20612424.977                    20612429.008
                        36.400
                  81784245.385 6  19691436.773                    19691436.801
                        40.200
                  96250887.922 3  23166469.484                    23166473.648
                        22.800
                  93352709.964 5  22429521.125                    22429522.375
                        33.100
                  82700783.098 6  19919160.172                    19919161.832
                        39.900
                  88882593.521 6  21362994.602                    21362994.008
                        37.700
 123373729.938 6  96135395.30842  23477241.555                    23477245.340
        38.300          17.400
                  93787545.821 6  22597384.531                    22597387.066
                        36.200
 108085745.759 8  84222554.30446  20568033.625                    20568036.051
        51.000          37.400
 118297657.665 7  92180048.42545  22511302.789                    22511309.699
        46.300          34.700
 119393649.102 7  93033914.73645  22719826.156                    22719832.785
        44.600          30.200
 119113984.530 7  92816097.93244  22666644.719                    22666650.766
        42.700          29.200
 125592218.436 5                  23899425.773
        30.100
 123236078.631 7  96028123.52345  23451044.844                    23451048.332
        46.300          31.700
 129442328.290 5                  24632074.609
        33.500
 116894557.243 7  91086703.61944  22244301.055                    22244304.348
        43.600          25.600
 18  3 13 15 17 33.0000000  0 21R01G19G22G25R08R10R09R16R17R18R19G31
                                R02G12G06G03G32G24G17G02G14
                  86314603.407 5  20760349.258                    20760352.426
                        33.600
 115655171.867 7  90120915.97545  22008446.859                    22008449.008
        45.700          33.500
 122681640.886 6  95596241.07043  23345577.297                    23345578.793
        41.800          23.500
 115624444.506 7  90096910.56645  22002580.133                    22002586.016
        47.400          30.900
                  93375087.862 5  22419178.172                    22419180.039
                        34.900
                  85456987.413 6  20611942.180                    20611945.734
                        36.700
                  81785685.062 6  19691783.625                    19691782.680
                        40.500
                  96254700.442 3  23167388.398                    23167391.230
                        22.100
                  93356158.455 5  22430349.242                    22430350.793
                        34.800
                  82701561.552 6  19919348.023                    19919348.984
                        40.400
                  88880097.738 6  21362394.828                    21362394.559
                        37.700
 123370888.083 6  96133180.85543  23476700.969                    23476704.602
        37.500          18.300
                  93784954.170 6  22596760.344                    22596763.133
                        36.000
 108086274.183 8  84222966.06046  20568134.313                    20568136.652
        50.900          37.900
 118295905.585 7  92178683.16545  22510969.250                    22510976.020
        46.500          35.700
 119393659.591 7  93033922.88845  22719828.289                    22719834.449
        44.700          30.200
 119116413.397 7  92817990.55245  22667106.969                    22667112.836
        43.300          30.200
 125596321.626 5                  23900207.234
        30.700
 123239374.658 7  96030691.86045  23451672.070                    23451675.418
        46.300          32.500
 129439501.292 5                  24631535.836
        34.600
 116894953.142 7  91087012.10844  22244375.898                    22244379.230
        43.700          26.700
 18  3 13 15 17 34.0000000  0 21R01G19G22G25R08R10R09R16R17R18R19G31
                                R02G12G06G03G32G24G17G02G14
                  86315369.773 5  20760534.328                    20760537.254
                        33.000
 115657821.199 7  90122980.39445  22008950.977                    22008952.590
        44.800          33.400
 122683045.416 6  95597335.51144  23345844.047                    23345846.172
        41.800          26.100
 115622197.545 7  90095159.68945  22002153.008                    22002158.172
        47.300          30.500
                  93378369.660 5  22419967.922                    22419968.344
                        34.700
                  85454985.122 5  20611458.484                    20611462.484
                        35.700
                  81787125.389 6  19692129.734                    19692130.480
                        40.400
                  96258513.076 3  23168306.430                    23168309.379
                        22.800
                  93359607.354 5  22431177.922                    22431179.449
                        34.200
                  82702340.758 6  19919535.117                    19919537.070
                        40.000
                  88877602.374 6  21361794.617                    21361795.047
                        37.800
 123368046.605 6  96130966.72942  23476159.547                    23476163.555
        37.500          17.400
                  93782362.846 6  22596135.930                    22596138.281
                        36.200
 108086803.313 8  84223378.35846  20568234.797                    20568237.051
        50.700          37.000
 118294154.056 7  92177318.33645  22510635.984                    22510642.703
        46.400          34.900
 119393670.767 7  93033931.59145  22719830.531                    22719836.957
        44.800          30.800
 119118842.858 7  92819883.63444  22667569.625                    22667574.973
        43.100          28.700
 125600425.106 5                  23900987.766
        30.300
 123242671.081 7  96033260.50745  23452299.539                    23452303.164
        46.200          31.400
 129436674.513 5                  24630998.773
        34.300
 116895349.710 7  91087321.11744  22244450.961                    22244454.625
        43.400          26.900
 18  3 13 15 17 35.0000000  0 21R01G19G22G25R08R10R09R16R17R18R19G31
                                R02G12G06G03G32G24G17G02G14
                  86316136.930 5  20760719.008                    20760722.309
                        33.900
 115660471.190 7  90125045.32045  22009455.758                    22009456.898
        44.900          33.300
 122684450.609 6  95598430.48144  23346111.414                    23346113.699
        41.700          24.700
 115619951.126 7  90093409.23245  22001725.070                    22001730.160
        47.400          31.400
                  93381651.871 5  22420757.813                    22420756.148
                        34.800
                  85452983.359 6  20610976.305                    20610980.086
                        36.200
                  81788566.355 6  19692477.016                    19692476.625
                        40.300
                  96262325.926 3  23169223.328                    23169226.574
                        22.500
                  93363056.644 5  22432006.766                    22432008.160
                        34.000
                  82703120.738 6  19919723.406                    19919725.254
                        39.600
                  88875107.517 6  21361195.594                    21361195.234
                        37.800
 123365205.496 6  96128752.86142  23475618.711                    23475623.164
        37.100          16.300
                  93779771.934 6  22595511.898                    22595514.164
                        36.400
 108087333.205 8  84223791.25346  20568335.625                    20568338.086
        50.700          37.100
 118292403.186 7  92175954.01845  22510302.727                    22510309.555
        47.000          35.500
 119393682.726 7  93033940.90745  22719832.609                    22719839.094
        44.400          30.200
 119121272.951 7  92821777.21544  22668032.188                    22668037.918
        43.600          29.600
 125604528.757 4                  23901767.156
        29.900
 123245967.942 7  96035829.48845  23452926.398                    23452930.281
        45.300          30.900
 129433847.942 5                  24630459.961
        34.400
 116895746.952 7  91087630.64644  22244527.320                    22244530.594
        43.600          26.300
 18  3 13 15 17 36.0000000  0 21R01G19G22G25R08R10R09R16R17R18R19G31
                                R02G12G06G03G32G24G17G02G14
                  86316904.846 5  20760903.578                    20760906.555
                        33.300
 115663121.787 7  90127110.71445  22009959.594                    22009961.762
        44.900          33.900
 122685856.421 7  95599525.91344  23346379.625                    23346381.547
        42.900          25.600
 115617705.196 8  90091659.16245  22001297.961                    22001303.113
        48.100          32.400
                  93384934.478 5  22421544.289                    22421544.098
                        35.100
                  85450982.097 5  20610493.078                    20610497.703
                        35.500
                  81790007.985 6  19692823.859                    19692824.008
                        40.000
                  96266138.960 3  23170140.469                    23170144.242
                        21.400
                  93366506.255 5  22432835.242                    22432837.223
                        35.600
                  82703901.420 6  19919911.633                    19919913.340
                        39.600
                  88872613.084 6  21360595.172                    21360595.270
                        37.300
 123362364.761 5  96126539.27142  23475077.570                    23475083.063
        32.500          16.300
                  93777181.419 6  22594886.516                    22594889.602
                        37.900
 108087863.818 8  84224204.70746  20568436.531                    20568439.059
        50.400          37.200
 118290652.842 7  92174590.10145  22509970.008                    22509976.430
        47.300          35.400
 119393695.420 7  93033950.80645  22719835.500                    22719841.266
        45.400          32.100
 119123703.654 6  92823671.26344  22668494.273                    22668500.262
        41.700          29.800
 125608632.611 5                  23902547.570
        30.100
 123249265.177 7  96038398.76044  23453554.820                    23453557.914
        44.300          29.800
 129431021.610 5                  24629922.563
        35.100
 116896144.874 7  91087940.70544  22244602.445                    22244606.453
        43.000          25.300
 18  3 13 15 17 37.0000000  0 21R01G19G22G25R08R10R09R16R17R18R19G31
                                R02G12G06G03G32G24G17G02G14
                  86317673.500 5  20761088.523                    20761091.465
                        31.900
 115665773.040 7  90129176.62145  22010464.352                    22010465.738
        45.900          34.200
 122687262.862 7  95600621.82544  23346647.234                    23346648.871
        44.400          25.400
 115615459.841 7  90089909.53445  22000870.289                    22000875.855
        47.900          31.000
                  93388217.495 5  22422331.773                    22422332.504
                        34.500
                  85448981.317 5  20610011.703                    20610014.848
                        35.500
                  81791450.279 6  19693171.273                    19693171.875
                        39.800
                                  23171058.461

                  93369956.199 6  22433663.586                    22433666.418
                        36.000
                  82704682.854 6  19920099.109                    19920101.289
                        39.300
                  88870119.099 6  21359996.328                    21359996.516
                        37.000
 123359524.470 5  96124326.06642  23474536.375                    23474541.953
        34.300          14.800
                  93774591.304 6  22594263.492                    22594265.477
                        37.900
 108088395.163 8  84224618.72846  20568537.703                    20568540.570
        50.200          36.600
 118288903.134 7  92173226.67645  22509637.234                    22509643.488
        47.500          35.200
 119393708.818 7  93033961.22845  22719837.625                    22719843.652
        46.000          33.600
 119126134.958 7  92825565.78244  22668957.180                    22668963.309
        42.200          29.500
 125612736.813 5                  23903329.203
        30.100
 123252562.788 7  96040968.33744  23454182.141                    23454185.242
        44.800          29.400
 129428195.474 5                  24629383.406
        34.600
 116896543.540 7  91088251.33544  22244678.664                    22244682.129
        43.000          24.700
 18  3 13 15 17 38.0000000  0 20R01G19G22G25R08R10R09R17R18R19G31R02
                                G12G06G03G32G24G17G02G14
                  86318442.921 5  20761273.742                    20761276.727
                        32.200
 115668424.929 7  90131243.02845  22010968.781                    22010970.477
        45.600          34.000
 122688669.929 7  95601718.21544  23346915.234                    23346916.766
        44.800          25.700
 115613214.989 7  90088160.28745  22000443.188                    22000448.641
        47.900          30.800
                  93391500.949 6  22423119.367                    22423121.023
                        36.000
                  85446981.038 5  20609528.383                    20609532.004
                        35.700
                  81792893.227 6  19693518.578                    19693518.570
                        39.700
                  93373406.464 5  22434493.203                    22434494.813
                        33.000
                  82705464.995 6  19920287.773                    19920289.371
                        39.500
                  88867625.604 6  21359396.508                    21359396.867
                        37.300
 123356684.426 5  96122113.00842  23473996.773                    23474001.391
        35.500          15.600
                  93772001.602 6  22593639.633                    22593641.672
                        38.000
 108088927.252 8  84225033.33646  20568638.742                    20568641.840
        50.300          36.900
 118287154.007 7  92171863.70045  22509304.250                    22509310.539
        47.400          35.400
 119393722.940 7  93033972.22345  22719840.227                    22719846.742
        44.900          31.100
 119128566.838 7  92827460.74444  22669420.023                    22669425.348
        42.800          29.600
 125616841.338 4                  23904109.742
        29.900
 123255860.775 7  96043538.22544  23454809.508                    23454813.184
        45.700          28.600
 129425369.556 5                  24628846.625
        34.600
 116896942.835 7  91088562.45244  22244754.625                    22244758.273
        43.000          24.600
 18  3 13 15 17 39.0000000  0 20R01G19G22G25R08R10R09R17R18R19G31R02
                                G12G06G03G32G24G17G02G14
                  86319213.072 5  20761458.328                    20761461.488
                        32.500
 115671077.416 7  90133309.89345  22011473.563                    22011475.453
        45.800          33.900
 122690077.615 7  95602815.06644  23347182.961                    23347184.836
        44.900          26.400
 115610970.662 7  90086411.45445  22000016.172                    22000022.074
        47.900          32.700
                  93394784.728 5  22423908.188                    22423908.949
                        34.600
                  85444981.265 5  20609045.250                    20609049.824
                        35.000
                  81794336.811 6  19693866.008                    19693866.109
                        39.900
                  93376857.092 4  22435322.336                    22435324.473
                        26.700
                  82706247.882 6  19920476.266                    19920478.121
                        39.100
                  88865132.578 6  21358797.797                    21358797.887
                        37.400
 123353844.777 5  96119900.25942  23473456.250                    23473461.238
        35.000          15.600
                  93769412.269 6  22593015.977                    22593017.930
                        36.600
 108089460.063 8  84225448.51146  20568740.203                    20568743.031
        50.500          36.700
 118285405.450 7  92170501.18146  22508971.344                    22508978.145
        47.700          36.100
 119393737.687 7  93033983.71343  22719843.398                    22719849.348
        42.100          23.200
 119130999.334 7  92829356.19745  22669882.359                    22669888.746
        43.000          30.200
 125620945.918 5                  23904891.406
        30.100
 123259159.126 7  96046108.35344  23455437.305                    23455440.617
        44.500          28.500
 129422543.840 5                  24628309.141
        34.000
 116897342.786 7  91088874.10244  22244830.711                    22244834.418
        43.900          26.500
 18  3 13 15 17 40.0000000  0 20R01G19G22G25R08R10R09R17R18R19G31R02
                                G12G06G03G32G24G17G02G14
                  86319983.932 5  20761644.750                    20761647.238
                        33.600
 115673730.479 7  90135377.21645  22011978.742                    22011980.125
        47.000          34.700
 122691485.830 7  95603912.35744  23347450.789                    23347452.699
        43.600          28.300
 115608726.813 8  90084662.98745  21999589.648                    21999594.840
        48.600          32.700
                  93398068.922 5  22424697.578                    22424697.445
                        34.300
                  85442981.895 5  20608563.836                    20608567.219
                        35.100
                  81795780.993 6  19694214.219                    19694214.262
                        40.100
                  93380307.960 3  22436152.219                    22436153.461
                        21.400
                  82707031.506 6  19920664.984                    19920666.941
                        39.100
                  88862639.920 6  21358198.063                    21358198.434
                        37.200
 123351005.412 5  96117687.76342  23472915.906                    23472920.992
        35.800          16.300
                  93766823.358 5  22592391.898                    22592393.695
                        34.700
 108089993.523 8  84225864.19246  20568842.023                    20568844.285
        50.800          36.900
 118283657.411 7  92169139.06746  22508638.680                    22508645.410
        47.800          36.000
 119393753.172 6  93033995.79644  22719846.531                    22719852.352
        41.400          24.700
 119133432.342 7  92831252.05644  22670345.656                    22670351.598
        43.700          29.600
 125625050.719 4                  23905672.477
        29.600
 123262457.817 7  96048678.74244  23456064.664                    23456068.449
        46.100          26.900
 129419718.310 5                  24627771.039
        34.100
 116897743.364 7  91089186.24244  22244906.633                    22244910.945
        42.000          25.100
 18  3 13 15 17 41.0000000  0 21R01G19G22G25R08R10R09R16R17R18R19G31
                                R02G12G06G03G32G24G17G02G14
                  86320755.588 5  20761830.352                    20761833.465
                        33.000
 115676384.259 7  90137445.11245  22012483.563                    22012485.332
        45.800          32.800
 122692894.778 7  95605010.25944  23347718.953                    23347720.875
        42.900          26.400
 115606483.528 8  90082914.96545  21999162.461                    21999167.824
        48.500          31.600
                  93401353.538 5  22425484.875                    22425485.961
                        34.700
                  85440983.053 5  20608081.680                    20608084.203
                        35.200
                  81797225.850 6  19694561.383                    19694562.020
                        40.200
                                  23174729.836

                                  22436980.000

                  82707815.882 6  19920854.156                    19920855.691
                        39.300
                  88860147.767 6  21357599.164                    21357599.691
                        37.500
 123348166.497 5  96115475.65842  23472376.055                    23472380.598
        35.300          16.300
                  93764234.834 5  22591768.703                    22591770.887
                        33.500
 108090527.796 8  84226280.50746  20568943.773                    20568946.191
        50.800          36.800
 118281910.028 7  92167777.45545  22508306.617                    22508312.797
        47.800          35.800
 119393769.446 6  93034008.51044  22719848.750                    22719855.301
        41.100          25.000
 119135865.998 7  92833148.40644  22670809.180                    22670814.660
        43.700          29.500
 125629155.870 5                  23906454.281
        30.500
 123265756.926 7  96051249.49644  23456692.508                    23456695.961
        46.600          29.300
 129416893.055 5                  24627232.477
        33.900
 116898144.707 7  91089498.97944  22244982.781                    22244987.137
        43.400          24.700
 18  3 13 15 17 42.0000000  0 21R01G19G22G25R08R10R09R16R17R18R19G31
                                R02G12G06G03G32G24G17G02G14
                  86321527.945 5  20762015.867                    20762018.141
                        32.800
 115679038.608 7  90139513.43745  22012988.508                    22012990.508
        45.400          34.800
 122694304.299 7  95606108.62244  23347987.078                    23347988.734
        44.100          25.900
 115604240.757 7  90081167.35445  21998735.477                    21998740.996
        47.800          31.900
                  93404638.517 5  22426273.984                    22426275.148
                        34.600
                  85438984.666 5  20607598.594                    20607602.633
                        35.600
                  81798671.325 6  19694909.711                    19694909.973
                        39.900
                                  23175647.648

                                  22437811.023

                  82708600.975 6  19921042.930                    19921044.582
                        38.900
                  88857656.037 6  21357000.859                    21357000.293
                        37.600
 123345327.881 5  96113263.69542  23471835.641                    23471840.504
        35.600          15.600
                  93761646.690 5  22591144.250                    22591147.141
                        32.600
 108091062.762 8  84226697.36646  20569045.352                    20569048.297
        50.800          36.700
 118280163.190 7  92166416.27445  22507973.938                    22507980.430
        47.500          35.200
 119393786.388 7  93034021.68845  22719852.492                    22719858.559
        47.100          33.500
 119138300.262 7  92835045.22345  22671271.844                    22671278.039
        43.600          30.100
 125633261.191 4                  23907234.961
        29.400
 123269056.410 7  96053820.53444  23457320.563                    23457323.613
        46.400          29.200
 129414067.900 5                  24626696.852
        33.600
 116898546.681 7  91089812.21444  22245059.852                    22245063.461
        43.100          26.300
 18  3 13 15 17 43.0000000  0 21R01G19G22G25R08R10R09R16R17R18R19G31
                                R02G12G06G03G32G24G17G02G14
                  86322301.069 5  20762201.461                    20762204.457
                        32.000
 115681693.594 7  90141582.26345  22013493.695                    22013495.367
        45.300          34.100
 122695714.406 7  95607207.42144  23348255.719                    23348257.297
        44.300          28.800
 115601998.515 7  90079420.16045  21998309.391                    21998314.789
        47.800          32.000
                  93407923.818 5  22427063.797                    22427063.375
                        35.500
                  85436986.777 5  20607117.453                    20607121.180
                        35.800
                  81800117.448 6  19695258.359                    19695258.363
                        40.100
                                  23176566.359

                  93390657.56215  22438638.711                    22438641.629
                        34.900
                  82709386.767 6  19921232.492                    19921234.059
                        39.700
                  88855164.748 6  21356402.273                    21356401.703
                        37.800
 123342489.706 6  96111052.15642  23471295.797                    23471300.598
        36.900          14.800
                  93759058.968 6  22590520.695                    22590523.531
                        36.900
 108091598.427 8  84227114.76146  20569147.633                    20569149.996
        50.800          36.500
 118278416.970 7  92165055.57645  22507641.766                    22507648.273
        47.600          35.400
 119393804.280 6  93034035.62043  22719855.555                    22719862.137
        38.700          20.900
 119140735.162 7  92836942.53744  22671735.688                    22671741.238
        43.200          28.300
 125637366.82515                  23908016.656
        30.500
 123272356.267 7  96056391.85844  23457948.703                    23457951.848
        44.900          28.900
 129411243.080 5                  24626157.977
        33.200
 116898949.380 7  91090126.00144  22245136.469                    22245140.227
        42.700          24.000
 18  3 13 15 17 44.0000000  0 21R01G19G22G25R08R10R09R16R17R18R19G31
                                R02G12G06G03G32G24G17G02G14
                  86323074.850 5  20762387.219                    20762390.504
                        31.800
 115684349.222 7  90143651.58345  22013999.203                    22014001.043
        45.000          32.500
 122697125.185 6  95608306.72043  23348524.445                    23348525.582
        39.400          21.100
 115599756.789 7  90077673.36945  21997882.055                    21997887.652
        47.600          31.900
                  93411209.515 5  22427852.969                    22427852.719
                        33.700
                  85434989.411 6  20606635.727                    20606639.379
                        36.300
                  81801564.219 6  19695606.203                    19695606.055
                        40.000
                                  23177484.695

                  93394109.93816  22439468.461                    22439470.781
                        37.400
                  82710173.288 6  19921421.625                    19921423.668
                        39.700
                  88852673.929 6  21355803.813                    21355803.191
                        37.400
 123339651.970 5  96108840.98742  23470755.984                    23470760.934
        35.200          14.800
                  93756471.674 6  22589897.281                    22589899.895
                        40.000
 108092134.896 8  84227532.78946  20569249.438                    20569251.805
        50.300          36.700
 118276671.347 7  92163695.34545  22507309.672                    22507315.992
        47.100          35.600
 119393822.479 6  93034049.84943  22719859.211                    22719865.434
        37.300          19.000
 119143170.566 7  92838840.24344  22672198.641                    22672204.676
        43.700          29.300
 125641472.559 5                  23908797.734
        30.500
 123275656.511 7  96058963.47344  23458576.141                    23458579.871
        43.900          28.900
 129408418.313 5                  24625620.734
        33.900
 116899352.699 7  91090440.25844  22245213.383                    22245216.813
        43.700          24.300
 18  3 13 15 17 45.0000000  0 21R01G19G22G25R08R10R09R16R17R18R19G31
                                R02G12G06G03G32G24G17G02G14
                  86323849.567 5  20762573.734                    20762577.371
                        32.100
 115687005.452 7  90145721.38245  22014505.000                    22014506.414
        45.800          33.400
 122698536.706 6  95609406.64143  23348793.336                    23348794.422
        41.200          20.100
 115597515.620 7  90075927.00945  21997455.742                    21997461.324
        47.500          31.100
                  93414495.671 5  22428640.477                    22428640.988
                        32.900
                  85432992.477 5  20606153.750                    20606157.859
                        35.300
                  81803011.614 6  19695955.195                    19695955.211
                        40.200
                                  23178404.211

                  93397562.51816  22440298.102                    22440300.301
                        38.000
                  82710960.525 6  19921611.023                    19921613.004
                        39.700
                  88850183.541 6  21355204.914                    21355204.996
                        37.900
 123336814.381 6  96106629.88942  23470216.859                    23470220.691
        36.300          14.800
                  93753884.768 6  22589274.156                    22589276.672
                        39.100
 108092672.037 8  84227951.33246  20569351.664                    20569354.371
        50.300          37.000
 118274926.265 7  92162335.53345  22506977.563                    22506984.125
        46.800          35.500
 119393841.680 7  93034064.81145  22719862.945                    22719869.301
        46.700          33.400
 119145606.631 7  92840738.48044  22672662.719                    22672668.453
        43.000          28.900
 125645578.592 4                  23909580.477
        29.600
 123278957.117 7  96061535.36844  23459204.211                    23459207.898
        45.100          29.600
 129405593.93915                  24625084.188
        33.300
 116899756.712 7  91090755.05644  22245289.695                    22245293.336
        44.100          26.900
 18  3 13 15 17 46.0000000  0 20R01G19G22G25R08R10R09R17R18R19G31R02
                                G12G06G03G32G24G17G02G14
                  86324624.883 5  20762759.398                    20762763.453
                        30.600
 115689662.281 7  90147791.64845  22015010.266                    22015011.859
        45.600          34.000
 122699948.587 7  95610506.79343  23349061.586                    23349063.211
        42.000          21.800
 115595274.906 7  90074181.00645  21997029.289                    21997035.129
        47.600          31.400
                  93417782.161 5  22429430.766                    22429430.531
                        33.400
                  85430996.034 5  20605672.547                    20605675.945
                        35.100
                  81804459.642 6  19696304.039                    19696303.840
                        39.700
                  93401015.467 6  22441127.563                    22441130.398
                        38.000
                  82711748.485 6  19921800.680                    19921802.953
                        39.100
                  88847693.563 6  21354606.227                    21354605.879
                        36.900
 123333977.197 5  96104419.14642  23469675.875                    23469680.820
        34.900          14.800
                  93751298.160 6  22588650.570                    22588653.043
                        39.500
 108093209.863 8  84228370.41846  20569453.758                    20569456.828
        50.500          36.700
 118273181.777 7  92160976.18846  22506645.219                    22506651.660
        47.800          36.300
 119393861.507 7  93034080.25145  22719866.867                    22719872.723
        47.100          31.400
 119148043.210 7  92842637.11045  22673125.969                    22673132.191
        42.600          30.700
 125649684.800 4                  23910361.211
        28.300
 123282258.077 7  96064107.53044  23459832.773                    23459836.164
        44.400          27.800
 129402769.626 5                  24624545.578
        31.300
 116900161.362 7  91091070.33144  22245367.227                    22245370.461
        43.900          27.300
 18  3 13 15 17 47.0000000  0 20R01G19G22G25R08R10R09R17R18R19G31R02
                                G12G06G03G32G24G17G02G14
                  86325400.875 5  20762946.320                    20762949.902
                        30.300
 115692319.691 7  90149862.36345  22015516.391                    22015517.887
        46.000          35.000
 122701361.126 7  95611607.43643  23349330.336                    23349331.641
        42.600          22.800
 115593034.647 7  90072435.34945  21996603.094                    21996608.395
        47.200          32.700
                  93421068.974 5  22430218.586                    22430220.004
                        35.500
                  85429000.031 5  20605191.258                    20605194.477
                        35.400
                  81805908.219 6  19696652.281                    19696652.652
                        40.300
                  93404468.661 6  22441956.891                    22441959.430
                        39.100
                  82712537.095 6  19921991.328                    19921992.809
                        40.200
                  88845204.020 6  21354007.766                    21354007.340
                        37.700
 123331140.545 5  96102208.78242  23469136.414                    23469141.117
        33.200          14.800
                  93748711.888 6  22588027.945                    22588030.180
                        40.900
 108093748.360 8  84228790.02646  20569556.320                    20569558.984
        50.300          37.200
 118271437.783 7  92159617.22745  22506313.320                    22506320.145
        47.800          35.900
 119393881.996 7  93034096.21145  22719870.844                    22719876.625
        46.900          33.100
 119150480.338 7  92844536.17044  22673589.875                    22673596.359
        42.000          29.700
 125653791.197 4                  23911142.617
        28.300
 123285559.315 7  96066679.91344  23460460.953                    23460464.426
        44.600          28.000
 129399945.465 5                  24624008.445
        32.500
 116900566.620 7  91091386.10943  22245443.930                    22245447.441
        42.500          23.200
 18  3 13 15 17 48.0000000  0 19R01G19G22G25R08R10R09R17R18R19R02G12
                                G06G03G32G24G17G02G14
                  86326177.620 5  20763133.547                    20763137.332
                        33.100
 115694977.703 7  90151933.54545  22016021.883                    22016023.617
        44.800          33.500
 122702774.304 6  95612708.58744  23349599.148                    23349600.547
        41.800          24.600
 115590794.965 7  90070690.14645  21996177.023                    21996182.559
        47.000          31.900
                  93424356.185 5  22431008.406                    22431009.066
                        34.700
                  85427004.617 5  20604710.016                    20604713.113
                        30.400
                  81807357.476 6  19697001.516                    19697001.031
                        40.100
                  93407922.195 6  22442787.063                    22442789.348
                        38.200
                  82713326.463 6  19922181.016                    19922182.855
                        40.200
                  88842714.965 6  21353410.508                    21353409.285
                        37.200
                  93746126.060 6  22587404.750                    22587407.512
                        40.900
 108094287.602 8  84229210.21646  20569659.102                    20569661.945
        50.600          37.100
 118269694.416 7  92158258.75846  22505982.102                    22505988.270
        47.900          36.000
 119393903.188 7  93034112.71345  22719874.672                    22719880.625
        45.800          31.800
 119152918.057 7  92846435.67944  22674053.516                    22674059.402
        43.400          29.200
 125657897.832 4                  23911924.516
        28.600
 123288860.894 7  96069252.56344  23461089.547                    23461092.465
        45.000          27.800
 129397121.574 5                  24623471.086
        32.500
 116900972.759 6  91091702.57143  22245521.242                    22245525.297
        40.800          22.000
 18  3 13 15 17 49.0000000  0 21R01G19G22G25R08R10R09R16R17R18R19G31
                                R02G12G06G03G32G24G17G02G14
                  86326955.147 5  20763320.648                    20763324.133
                        30.900
 115697636.343 7  90154005.22145  22016527.445                    22016529.332
        45.000          33.900
 122704188.087 7  95613810.24343  23349868.234                    23349869.199
        42.800          23.800
 115588555.807 7  90068945.34245  21995750.586                    21995756.398
        47.800          33.000
                  93427643.838 5  22431799.188                    22431798.742
                        30.700
                  85425009.672 5  20604228.953                    20604232.430
                        34.100
                  81808807.393 6  19697350.344                    19697349.820
                        39.700
                  96315724.97913  23182077.250                    23182078.656
                        21.400
                  93411376.013 6  22443617.000                    22443619.176
                        38.700
                  82714116.592 6  19922371.172                    19922373.074
                        40.400
                  88840226.330 6  21352811.445                    21352811.387
                        37.300
 123325470.74316  96097790.87252  23468057.148                    23468062.285
        38.600          14.800
                  93743540.650 6  22586782.078                    22586784.309
                        41.200
 108094827.566 8  84229630.96346  20569761.695                    20569764.070
        50.300          37.000
 118267951.632 7  92156900.76045  22505649.961                    22505656.379
        47.700          35.700
 119393925.132 7  93034129.81345  22719878.695                    22719884.609
        46.300          32.300
 119155356.369 6  92848335.67544  22674518.195                    22674523.941
        41.200          25.300
 125662005.14014                  23912705.234
        27.600
 123292162.878 7  96071825.53844  23461717.453                    23461721.176
        45.300          28.100
 129394297.86315                  24622933.742
        33.200
 116901379.218 6  91092019.26843  22245599.102                    22245602.367
        41.400          21.800
 18  3 13 15 17 50.0000000  0 21R01G19G22G25R08R10R09R16R17R18R19G31
                                R02G12G06G03G32G24G17G02G14
                  86327733.450 5  20763507.680                    20763511.469
                        30.100
 115700295.681 7  90156077.44045  22017033.445                    22017035.570
        44.600          32.600
 122705602.583 7  95614912.45644  23350137.219                    23350138.801
        42.800          24.500
 115586317.161 7  90067200.93844  21995324.969                    21995330.551
        46.100          27.500
                  93430931.802 5  22432588.867                    22432588.254
                        30.000
                  85423015.182 4  20603747.352                    20603751.219
                        28.400
                  81810257.947 6  19697700.070                    19697699.750
                        40.200
                  96319540.021 3  23182994.664                    23182996.531
                        22.500
                  93414830.178 6  22444447.094                    22444448.848
                        38.500
                  82714907.459 6  19922561.672                    19922563.563
                        40.500
                  88837738.191 6  21352214.070                    21352212.789
                        37.800
 123322634.979 6  96095581.46842  23467517.102                    23467522.297
        37.800          15.600
                  93740955.699 6  22586159.313                    22586161.418
                        40.400
 108095368.306 8  84230052.32246  20569864.688                    20569867.496
        50.300          37.500
 118266209.434 7  92155543.20645  22505318.859                    22505325.074
        47.700          35.400
 119393947.831 7  93034147.50945  22719882.992                    22719889.293
        46.400          33.500
 119157795.365 5  92850236.20243  22674982.336                    22674988.203
        35.400          21.300
 125666111.698 4                  23913486.289
        28.600
 123295465.360 7  96074398.90445  23462345.750                    23462349.871
        45.100          30.600
 129391474.49715                  24622395.609
        33.800
 116901786.611 6  91092336.70644  22245676.734                    22245679.754
        40.300          25.600
 18  3 13 15 17 51.0000000  0 21R01G19G22G25R08R10R09R16R17R18R19G31
                                R02G12G06G03G32G24G17G02G14
                  86328512.482 5  20763695.000                    20763698.738
                        32.000
 115702955.658 7  90158150.14845  22017539.984                    22017541.938
        45.400          34.400
 122707017.692 7  95616015.14744  23350406.000                    23350407.816
        43.500          25.700
 115584079.068 7  90065456.97044  21994899.016                    21994904.422
        42.400          25.100
                  93434220.184 3  22433376.586                    22433377.363
                        23.000
                  85421021.347 5  20603266.688                    20603270.289
                        33.500
                  81811709.160 6  19698048.570                    19698049.605
                        40.600
                  96323355.349 3  23183913.633                    23183914.539
                        22.800
                  93418284.717 6  22445276.906                    22445278.809
                        38.900
                  82715699.092 6  19922752.641                    19922754.176
                        40.200
                  88835250.521 6  21351616.188                    21351614.570
                        37.700
 123319799.515 6  96093372.22542  23466977.813                    23466983.168
        38.500          15.600
                  93738371.152 6  22585536.539                    22585538.762
                        40.900
 108095909.798 8  84230474.26246  20569967.680                    20569970.621
        50.500          37.900
 118264467.884 7  92154186.15346  22504987.781                    22504993.723
        47.900          36.500
 119393971.252 7  93034165.75945  22719887.523                    22719893.621
        46.800          32.900
 119160234.937 5  92852137.15943  22675445.922                    22675452.383
        33.000          19.900
 125670219.66714                  23914267.398
        28.600
 123298768.229 7  96076972.55044  23462974.648                    23462977.867
        45.200          28.600
 129388651.18215                  24621859.031
        31.200
 116902194.645 6  91092654.67343  22245755.070                    22245757.695
        36.400          21.100
 18  3 13 15 17 52.0000000  0 21R01G19G22G25R08R10R09R16R17R18R19G31
                                R02G12G06G03G32G24G17G02G14
                  86329292.253 5  20763883.148                    20763885.781
                        32.700
 115705616.175 7  90160223.27845  22018046.242                    22018047.898
        44.700          34.200
 122708433.340 7  95617118.22543  23350675.867                    23350676.863
        42.000          22.200
 115581841.524 7  90063713.46043  21994472.820                    21994478.797
        44.100          21.800
                  93437508.979 3  22434165.977                    22434167.203
                        22.500
                  85419027.817 5  20602785.227                    20602789.996
                        33.500
                  81813160.966 6  19698399.156                    19698398.973
                        40.400
                  96327170.788 3  23184832.867                    23184833.152
                        21.900
                  93421739.523 6  22446108.141                    22446108.762
                        39.500
                  82716491.381 6  19922943.367                    19922944.875
                        38.600
                  88832763.228 6  21351017.266                    21351017.305
                        37.400
 123316964.226 5  96091163.04152  23466437.430                    23466443.262
        34.500          14.800
                  93735786.959 6  22584913.609                    22584916.059
                        41.000
 108096451.930 8  84230896.69446  20570071.117                    20570073.875
        50.900          37.800
 118262726.836 7  92152829.48046  22504655.922                    22504662.176
        47.900          36.700
 119393995.357 7  93034184.54045  22719892.375                    22719898.195
        46.400          32.200
 119162675.31414                  22675910.789
        28.900
 125674326.638 4                  23915048.938
        28.300
 123302071.318 7  96079546.37044  23463603.555                    23463606.715
        45.800          29.000
 129385828.36415                  24621322.313
        31.200
 116902603.493 5  91092973.21143  22245831.336                    22245835.727
        35.700          18.600
 18  3 13 15 17 53.0000000  0 19R01G19G22G25R08R10R09R16R17R18R19R02
                                G12G06G03G24G17G02G14
                  86330072.806 5  20764071.352                    20764073.355
                        31.800
 115708277.338 7  90162296.92145  22018552.641                    22018554.414
        44.300          33.100
 122709849.634 6  95618221.87043  23350946.063                    23350946.957
        40.300          22.600
 115579604.550 7  90061970.37743  21994047.344                    21994053.156
        44.300          22.600
                  93440798.62413  22434955.109                    22434957.262
                        22.300
                  85417034.728 5  20602305.406                    20602309.363
                        31.400
                  81814613.429 6  19698747.789                    19698748.578
                        40.900
                  96330986.395 3  23185747.492                    23185751.992
                        21.900
                  93425194.674 6  22446937.789                    22446938.992
                        39.700
                  82717284.407 6  19923134.828                    19923136.594
                        39.900
                  88830276.415 6  21350419.773                    21350419.465
                        37.000
                  93733203.127 6  22584290.992                    22584293.676
                        41.200
 108096994.845 8  84231319.73646  20570173.883                    20570176.910
        50.400          37.900
 118260986.440 7  92151473.33045  22504324.820                    22504331.250
        47.400          35.400
 119394020.193 7  93034203.89345  22719896.656                    22719902.551
        45.800          32.200
 125678434.536 4                  23915831.453
        28.000
 123305374.949 7  96082120.62744  23464231.641                    23464235.156
        45.600          28.300
 129383005.47715                  24620784.633
        30.800
 116903012.857 6  91093292.17943  22245909.609                    22245913.141
        38.300          18.300
 18  3 13 15 17 54.0000000  0 18R01G19G22G25R10R09R16R17R18R19R02G12
                                G06G03G24G17G02G14
                  86330854.088 5  20764259.094                    20764262.203
                        32.200
 115710939.092 7  90164371.01645  22019058.477                    22019060.902
        43.400          31.400
 122711266.524 6  95619325.97543  23351214.852                    23351216.258
        40.700          22.000
 115577368.009 7  90060227.63943  21993622.203                    21993627.621
        42.600          21.300
                  85415042.152 4  20601825.016                    20601828.270
                        26.600
                  81816066.504 6  19699098.320                    19699098.711
                        40.600
                                  23186668.063

                  93428650.161 6  22447767.500                    22447769.047
                        38.900
                  82718078.141 6  19923325.859                    19923327.195
                        40.000
                  88827790.016 6  21349822.383                    21349822.160
                        36.900
                  93730619.678 6  22583668.313                    22583671.391
                        40.300
 108097538.415 8  84231743.30146  20570277.523                    20570280.297
        51.000          38.300
 118259246.600 8  92150117.61045  22503993.570                    22504000.117
        48.100          35.800
 119394045.707 7  93034223.77445  22719901.273                    22719907.844
        45.600          30.900
 125682542.385 4                  23916612.719
        26.400
 123308678.855 7  96084695.10644  23464860.516                    23464863.957
        45.600          26.400
 129380182.89915                  24620247.313
        33.700
 116903422.926 6  91093611.70043  22245986.930                    22245991.914
        37.600          19.600
 18  3 13 15 17 55.0000000  0 18R01G19G22G25R10R09R16R17R18R19R02G12
                                G06G03G24G17G02G14
                  86331636.026 5  20764446.859                    20764449.863
                        32.500
 115713601.449 7  90166445.57645  22019565.711                    22019567.637
        45.100          32.700
 122712684.016 6  95620430.52243  23351484.695                    23351485.914
        40.800          22.000
 115575131.938 7  90058485.30243  21993196.859                    21993201.984
        43.700          22.300
                  85413050.113 4  20601344.070                    20601348.156
                        29.900
                  81817520.203 6  19699448.289                    19699448.129
                        40.200
                                  23187585.461

                  93432105.969 6  22448597.656                    22448600.391
                        39.400
                  82718872.600 6  19923516.766                    19923518.703
                        40.000
                  88825304.074 6  21349223.859                    21349224.363
                        36.400
                  93728036.619 6  22583046.711                    22583049.203
                        41.600
 108098082.708 8  84232167.43146  20570381.195                    20570383.906
        51.000          37.600
 118257507.308 7  92148762.32945  22503662.961                    22503669.203
        47.600          35.500
 119394071.919 7  93034244.19745  22719907.070                    22719912.816
        45.700          32.600
 125686650.690 4                  23917395.258
        28.300
 123311983.142 7  96087269.88544  23465489.242                    23465492.617
        44.700          27.900
 129377360.412 5                  24619710.055
        31.600
 116903833.652 6  91093931.74843  22246065.195                    22246070.031
        36.700          18.300
 18  3 13 15 17 56.0000000  0 19R01G19G22G25R10R09R16R17R18R19R02G12
                                G06G03G32G24G17G02G14
                  86332418.791 5  20764634.539                    20764637.832
                        31.900
 115716264.513 7  90168520.69945  22020072.422                    22020074.152
        45.200          32.400
 122714102.225 6  95621535.61043  23351754.367                    23351755.992
        40.700          21.700
 115572896.398 7  90056743.30744  21992770.750                    21992776.973
        44.200          25.000
                  85411058.573 5  20600863.758                    20600868.137
                        32.700
                  81818974.604 6  19699798.688                    19699799.094
                        40.400
                                  23188504.758

                  93435562.140 6  22449428.031                    22449430.613
                        39.500
                  82719667.839 6  19923708.203                    19923709.289
                        40.300
                  88822818.620 6  21348627.594                    21348627.344
                        37.900
                  93725454.029 6  22582423.875                    22582427.191
                        41.600
 108098627.784 8  84232592.18146  20570485.148                    20570487.438
        50.700          37.600
 118255768.641 7  92147407.53245  22503331.781                    22503338.422
        47.200          35.500
 119394098.921 7  93034265.22745  22719911.930                    22719917.844
        46.400          31.900
 119172442.19815                  22677766.938
        34.500
 125690759.120 4                  23918177.813
        28.900
 123315287.822 7  96089844.96044  23466118.508                    23466121.594
        45.200          26.500
 129374538.373 5                  24619173.578
        31.000
 116904244.945 6  91094252.21742  22246143.125                    22246147.836
        36.100          17.800
 18  3 13 15 17 57.0000000  0 19R01G19G22G25R10R09R16R17R18R19R02G12
                                G06G03G32G24G17G02G14
                  86333202.316 5  20764822.844                    20764826.855
                        32.700
 115718928.180 7  90170596.27145  22020579.063                    22020580.980
        45.000          32.900
 122715520.971 6  95622641.12243  23352024.727                    23352025.684
        40.600          21.500
 115570661.475 7  90055001.76244  21992345.438                    21992351.223
        44.300          24.500
                  85409067.442 5  20600382.938                    20600387.555
                        32.600
                  81820429.650 6  19700148.406                    19700148.578
                        40.800
                                  23189423.453

                  93439018.623 6  22450258.633                    22450260.297
                        40.000
                  82720463.794 6  19923899.945                    19923901.148
                        40.200
                  88820333.599 6  21348030.594                    21348029.586
                        36.700
                  93722871.848 6  22581801.844                    22581803.891
                        41.200
 108099173.627 8  84233017.52546  20570588.742                    20570591.168
        50.200          37.900
 118254030.551 7  92146053.19145  22503001.063                    22503007.496
        47.000          35.000
 119394126.625 7  93034286.79945  22719916.867                    22719923.000
        46.000          32.100
 119174884.894 5                  22678232.266
        34.800
 125694867.877 4                  23918959.117
        28.000
 123318592.892 7  96092420.33044  23466746.797                    23466750.598
        44.900          27.900
 129371716.380 4                  24618636.297
        29.400
 116904657.009 5  91094573.28242  22246222.477                    22246226.152
        34.700          16.900
 18  3 13 15 17 58.0000000  0 19R01G19G22G25R10R09R16R17R18R19R02G12
                                G06G03G32G24G17G02G14
                  86333986.564 5  20765011.250                    20765014.797
                        32.400
 115721592.428 7  90172672.29945  22021086.328                    22021088.418
        43.600          31.400
 122716940.409 6  95623747.20143  23352294.516                    23352295.797
        40.600          22.000
 115568427.025 7  90053260.60844  21991920.766                    21991925.746
        44.300          24.800
                  85407076.804 5  20599903.406                    20599907.340
                        33.400
                  81821885.252 6  19700499.445                    19700499.578
                        40.600
                                  23190341.852

                  93442475.412 6  22451088.961                    22451091.355
                        39.400
                  82721260.441 6  19924091.930                    19924093.805
                        40.200
                  88817848.993 6  21347432.852                    21347432.438
                        37.400
                  93720290.025 6  22581179.602                    22581182.145
                        41.300
 108099720.110 8  84233443.35446  20570692.547                    20570695.574
        50.600          37.800
 118252293.002 7  92144699.27546  22502669.969                    22502676.684
        47.200          36.000
 119394155.024 7  93034308.92845  22719922.727                    22719928.066
        46.100          32.700
 119177328.548 5                  22678698.266
        35.500
 125698976.772 4                  23919740.781
        28.300
 123321898.295 7  96094995.96544  23467376.055                    23467379.543
        45.900          29.400
 129368894.634 5                  24618099.508
        32.200
 116905069.485 5  91094894.64642  22246300.672                    22246304.863
        34.000          16.300
 18  3 13 15 17 59.0000000  0 19R01G19G22G25R10R09R16R17R18R19R02G12
                                G06G03G32G24G17G02G14
                  86334771.521 5  20765200.992                    20765204.152
                        31.900
 115724257.251 7  90174748.77945  22021593.141                    22021594.965
        44.000          32.200
 122718360.361 6  95624853.68643  23352564.836                    23352566.320
        40.500          22.200
 115566193.055 7  90051519.84644  21991495.438                    21991500.961
        45.500          25.200
                  85405086.583 5  20599423.148                    20599427.188
                        33.100
                  81823341.505 6  19700849.336                    19700850.137
                        40.400
                                  23191258.891

                  93445932.489 6  22451920.563                    22451922.008
                        39.200
                  82722057.796 6  19924283.641                    19924285.613
                        40.000
                  88815364.863 6  21346835.852                    21346835.602
                        37.700
                  93717708.595 6  22580557.594                    22580560.395
                        41.200
 108100267.302 8  84233869.74246  20570796.930                    20570799.309
        50.600          37.700
 118250556.021 7  92143345.80045  22502339.547                    22502346.516
        46.900          34.700
 119394184.122 7  93034331.58945  22719928.328                    22719933.902
        46.400          34.000
 119179772.813 5                  22679163.664
        34.700
 125703085.896 4                  23920523.797
        28.900
 123325204.049 7  96097571.86344  23468005.109                    23468008.539
        46.300          29.100
 129366073.014 5                  24617561.836
        31.500
 116905482.855 5                  22246380.813
        31.800
 18  3 13 15 18  0.0000000  0 19R01G19G22G25R10R09R16R17R18R19R02G12
                                G06G03G32G24G17G02G14
                  86335557.191 5  20765389.352                    20765392.535
                        31.200
 115726922.632 7  90176825.70645  22022100.328                    22022102.676
        43.300          31.800
 122719780.844 6  95625960.58443  23352834.555                    23352835.941
        41.400          22.300
 115563959.524 7  90049779.42344  21991070.305                    21991076.125
        45.500          24.400
                  85403096.831 5  20598943.227                    20598947.410
                        33.300
                  81824798.342 6  19701201.266                    19701200.379
                        40.200
                  96357694.50213  23192178.461                    23192180.625
                        22.800
                  93449389.850 6  22452751.359                    22452752.633
                        38.700
                  82722855.815 6  19924475.742                    19924477.984
                        39.600
                  88812881.158 6  21346239.492                    21346238.285
                        37.000
                  93715127.479 6  22579935.898                    22579938.820
                        41.200
 108100815.149 8  84234296.63046  20570901.180                    20570903.664
        50.700          37.000
 118248819.598 7  92141992.74845  22502009.289                    22502015.367
        47.300          34.500
 119394213.900 7  93034354.77545  22719933.930                    22719939.598
        46.400          33.300
 119182217.586 5                  22679628.625
        33.300
 125707195.243 4                  23921304.875
        28.900
 123328510.127 7  96100148.03544  23468634.469                    23468637.996
        46.000          28.600
 129363251.542 5                  24617025.875
        33.700
 116905896.850 5                  22246460.234
        31.200
 18  3 13 15 18  1.0000000  0 19R01G19G22G25R10R09R16R17R18R19R02G12
                                G06G03G32G24G17G02G14
                  86336343.637 5  20765578.359                    20765581.891
                        31.000
 115729588.718 7  90178903.18445  22022607.945                    22022609.719
        43.800          31.900
 122721202.026 6  95627068.01243  23353105.547                    23353106.813
        41.300          22.300
 115561726.587 7  90048039.48544  21990645.664                    21990650.738
        45.400          24.600
                  85401107.660 5  20598463.664                    20598467.797
                        32.500
                  81826255.851 6  19701551.352                    19701552.121
                        39.700
                  96361511.30813  23193097.266                    23193099.133
                        23.800
                  93452847.595 6  22453581.484                    22453583.012
                        39.200
                  82723654.587 6  19924668.813                    19924670.219
                        39.100
                  88810397.895 6  21345642.133                    21345642.277
                        36.900
                  93712546.751 6  22579314.461                    22579317.332
                        40.800
 108101363.778 8  84234724.12046  20571005.586                    20571007.914
        50.500          36.600
 118247083.758 7  92140640.14445  22501678.883                    22501685.469
        47.200          33.900
 119394244.419 7  93034378.56945  22719939.656                    22719945.430
        46.400          32.600
 119184663.003 5                  22680094.492
        35.000
 125711304.761 4                  23922087.000
        29.400
 123331816.607 7  96102724.51944  23469263.625                    23469266.809
        46.700          29.900
 129360430.399 5                  24616488.703
        33.700
 116906311.534 4                  22246538.641
        28.600
 18  3 13 15 18  2.0000000  0 19R01G19G22G25R10R09R16R17R18R19R02G12
                                G06G03G32G24G17G02G14
                  86337130.828 5  20765767.930                    20765770.824
                        30.900
 115732255.352 7  90180981.09645  22023114.969                    22023117.211
        44.100          32.400
 122722623.756 6  95628175.84443  23353376.281                    23353377.102
        41.500          22.900
 115559494.146 7  90046299.94343  21990220.508                    21990226.230
        45.300          22.800
                  85399118.959 5  20597984.297                    20597987.840
                        33.400
                  81827713.954 6  19701902.430                    19701902.617
                        40.500
                  96365328.128 3  23194015.242                    23194017.398
                        23.900
                  93456305.630 6  22454411.898                    22454413.852
                        38.900
                  82724454.087 6  19924861.297                    19924862.660
                        39.800
                  88807915.055 6  21345045.805                    21345044.941
                        37.300
                  93709966.379 6  22578692.125                    22578694.699
                        40.900
 108101913.078 8  84235152.14046  20571110.234                    20571112.652
        50.700          36.700
 118245348.474 7  92139287.97945  22501348.758                    22501355.188
        46.300          34.900
 119394275.635 7  93034402.91645  22719946.328                    22719952.133
        46.400          32.800
 119187108.985 5                  22680559.000
        35.200
 125715414.517 4                  23922869.430
        29.600
 123335123.446 7  96105301.28245  23469892.273                    23469896.023
        45.700          30.000
 129357609.359 5                  24615952.977
        33.400
 116906726.822 5                  22246617.750
        30.700
 18  3 13 15 18  3.0000000  0 19R01G19G22G25R10R09R16R17R18R19R02G12
                                G06G03G32G24G17G02G14
                  86337918.778 5  20765957.203                    20765960.668
                        30.700
 115734922.679 7  90183059.54445  22023623.313                    22023624.602
        44.500          32.700
 122724046.148 6  95629284.21843  23353646.680                    23353647.906
        41.900          22.200
 115557262.280 7  90044560.84143  21989795.844                    21989801.582
        44.900          22.000
                  85397130.779 5  20597504.656                    20597508.500
                        33.400
                  81829172.757 6  19702253.992                    19702253.988
                        40.800
                  96369145.233 3  23194933.867                    23194936.133
                        23.600
                  93459764.054 6  22455242.969                    22455244.813
                        39.100
                  82725254.327 6  19925053.594                    19925055.133
                        39.800
                  88805432.685 6  21344448.117                    21344447.914
                        37.100
                  93707386.412 6  22578070.828                    22578073.051
                        41.200
 108102463.161 8  84235580.77146  20571214.922                    20571217.457
        50.600          36.600
 118243613.840 7  92137936.32845  22501018.195                    22501025.176
        46.800          34.800
 119394307.605 7  93034427.84245  22719952.102                    22719957.883
        46.300          32.900
 119189555.612 5                  22681025.633
        35.500
 125719524.601 4                  23923651.445
        29.100
 123338430.701 7  96107878.35844  23470522.211                    23470525.633
        46.300          29.400
 129354788.628 5                  24615415.430
        33.600
 116907142.946 5                  22246696.039
        31.300
 18  3 13 15 18  4.0000000  0 19R01G19G22G25R10R09R16R17R18R19R02G12
                                G06G03G32G24G17G02G14
                  86338707.482 5  20766146.727                    20766150.078
                        31.400
 115737590.637 7  90185138.48145  22024130.242                    22024132.402
        43.000          30.900
 122725469.217 6  95630393.10543  23353917.734                    23353919.383
        41.500          22.500
 115555030.953 7  90042822.15244  21989371.023                    21989376.730
        44.800          24.700
                  85395143.120 5  20597025.625                    20597029.109
                        33.400
                  81830632.192 6  19702605.719                    19702605.633
                        40.000
                  96372962.421 4  23195853.844                    23195854.930
                        24.500
                  93463222.780 6  22456074.453                    22456075.469
                        37.700
                  82726055.311 6  19925246.711                    19925248.387
                        39.800
                  88802950.775 6  21343852.156                    21343851.660
                        36.700
                  93704806.893 6  22577449.586                    22577451.750
                        40.800
 108103013.974 8  84236009.98246  20571319.359                    20571321.969
        50.700          36.600
 118241879.812 7  92136585.14645  22500688.438                    22500694.988
        47.000          34.800
 119394340.307 7  93034453.33845  22719958.406                    22719964.465
        46.300          32.600
 119192002.836 5                  22681490.531
        35.600
 125723634.904 4                  23924433.336
        27.600
 123341738.337 7  96110455.73645  23471151.688                    23471155.016
        46.000          30.200
 129351968.161 5                  24614878.305
        32.400
 116907559.684 5                  22246775.555
        31.500
 18  3 13 15 18  5.0000000  0 19R01G19G22G25R10R09R16R17R18R19R02G12
                                G06G03G32G24G17G02G14
                  86339496.923 5  20766337.195                    20766340.145
                        30.900
 115740259.225 7  90187217.89545  22024638.531                    22024640.371
        43.800          32.500
 122726892.894 6  95631502.45843  23354188.547                    23354189.793
        41.600          22.600
 115552800.128 7  90041083.85043  21988946.867                    21988951.820
        45.100          21.500
                  85393155.938 5  20596545.977                    20596550.176
                        33.700
                  81832092.293 6  19702956.805                    19702956.930
                        40.200
                  96376779.718 4  23196772.070                    23196774.207
                        24.500
                  93466681.826 6  22456905.500                    22456906.719
                        38.000
                  82726857.031 6  19925440.031                    19925441.598
                        39.900
                  88800469.322 6  21343256.047                    21343255.945
                        36.900
                  93702227.765 6  22576827.797                    22576830.363
                        38.900
 108103565.530 8  84236439.77546  20571424.555                    20571427.250
        50.600          37.000
 118240146.345 7  92135234.39545  22500358.922                    22500365.219
        46.700          35.300
 119394373.743 7  93034479.39945  22719964.352                    22719970.375
        46.700          33.500
 119194450.729 6                  22681957.008
        36.000
 125727745.482 4                  23925215.352
        29.100
 123345046.362 7  96113033.42845  23471780.766                    23471784.594
        46.700          32.000
 129349147.819 5                  24614342.250
        32.300
 116907977.104 5                  22246856.031
        31.900
 18  3 13 15 18  6.0000000  0 19R01G19G22G25R10R09R16R17R18R19R02G12
                                G06G03G32G24G17G02G14
                  86340287.057 5  20766527.250                    20766530.461
                        32.300
 115742928.389 7  90189297.75545  22025146.281                    22025148.070
        44.000          32.800
 122728317.188 7  95632612.28543  23354459.273                    23354460.965
        42.000          22.500
 115550569.813 7  90039345.94344  21988522.375                    21988527.941
        45.100          24.100
                  85391169.227 5  20596067.016                    20596071.000
                        33.300
                  81833552.996 6  19703308.922                    19703308.883
                        40.400
                  96380597.235 4  23197690.617                    23197692.988
                        25.500
                  93470141.186 6  22457737.172                    22457738.633
                        38.900
                  82727659.469 6  19925633.516                    19925634.613
                        40.500
                  88797988.322 6  21342659.758                    21342659.277
                        37.200
                  93699649.042 6  22576205.984                    22576208.762
                        39.600
 108104117.773 8  84236870.10446  20571529.672                    20571532.195
        50.900          37.000
 118238413.447 7  92133884.08745  22500028.953                    22500035.559
        46.400          34.900
 119394407.865 7  93034505.99645  22719970.539                    22719977.102
        46.600          32.700
 119196899.065 5                  22682423.383
        35.400
 125731856.249 4                  23925996.641
        27.600
 123348354.729 7  96115611.36845  23472410.492                    23472414.074
        47.300          32.900
 129346327.701 5                  24613805.852
        31.600
 116908395.156 5                  22246935.570
        31.200
 18  3 13 15 18  7.0000000  0 19R01G19G22G25R10R09R16R17R18R19R02G12
                                G06G03G32G24G17G02G14
                  86341077.995 5  20766717.508                    20766720.332
                        31.600
 115745598.220 7  90191378.14245  22025654.320                    22025656.168
        43.900          31.700
 122729742.116 6  95633722.63343  23354730.578                    23354731.840
        41.400          22.500
 115548340.074 7  90037608.48143  21988098.125                    21988103.848
        45.100          23.000
                  85389183.007 5  20595586.867                    20595591.426
                        33.500
                  81835014.363 6  19703660.594                    19703660.746
                        40.400
                  96384414.895 4  23198609.703                    23198611.250
                        25.300
                  93473600.923 6  22458568.063                    22458569.316
                        38.600
                  82728462.666 6  19925826.703                    19925828.172
                        40.500
                  88795507.784 6  21342063.016                    21342062.566
                        37.500
                  93697070.754 6  22575585.297                    22575587.641
                        38.900
 108104670.784 8  84237301.02246  20571634.383                    20571637.918
        51.200          37.100
 118236681.181 7  92132534.27045  22499699.094                    22499705.496
        46.700          34.600
 119394442.734 7  93034533.17245  22719977.383                    22719983.691
        46.700          33.100
 119199348.100 5                  22682888.492
        35.700
 125735967.244 4                  23926780.203
        27.300
 123351663.496 7  96118189.61445  23473040.023                    23473043.719
        47.500          33.400
 129343507.849 5                  24613268.508
        32.200
 116908813.961 5                  22247014.594
        31.200
 18  3 13 15 18  8.0000000  0 19R01G19G22G25R10R09R16R17R18R19R02G12
                                G06G03G32G24G17G02G14
                  86341869.664 5  20766907.914                    20766910.324
                        31.400
 115748268.658 7  90193459.00245  22026162.555                    22026164.293
        43.800          30.900
 122731167.676 6  95634833.45743  23355002.344                    23355003.047
        41.300          22.300
 115546110.872 7  90035871.44243  21987673.672                    21987679.402
        45.000          23.900
                  85387197.278 5  20595108.477                    20595112.414
                        33.600
                  81836476.363 6  19704012.852                    19704012.586
                        40.400
                  96388232.745 4  23199529.172                    23199530.602
                        25.200
                  93477061.015 6  22459399.352                    22459400.996
                        38.200
                  82729266.601 6  19926020.227                    19926021.484
                        40.300
                  88793027.723 6  21341467.977                    21341467.020
                        37.200
                  93694492.918 6  22574964.289                    22574966.715
                        38.500
 108105224.510 8  84237732.49946  20571739.875                    20571742.504
        50.900          36.900
 118234949.484 7  92131184.89945  22499369.656                    22499376.410
        46.600          34.300
 119394478.329 7  93034560.90645  22719984.117                    22719990.449
        46.700          32.600
 119201797.739 5                  22683354.836
        35.500
 125740078.498 4                  23927564.234
        27.300
 123354972.655 7  96120768.17045  23473669.961                    23473673.344
        47.900          33.100
 129340688.224 5                  24612731.602
        32.000
 116909233.456 5                  22247094.711
        31.500
 18  3 13 15 18  9.0000000  0 19R01G19G22G25R10R09R16R17R18R19R02G12
                                G06G03G32G24G17G02G14
                  86342662.063 5  20767098.094                    20767101.223
                        31.400
 115750939.699 7  90195540.33245  22026670.563                    22026672.656
        44.100          31.100
 122732593.775 6  95635944.71143  23355272.820                    23355274.781
        40.800          22.000
 115543882.095 7  90034134.72444  21987250.016                    21987255.078
        44.900          24.700
                  85385211.981 5  20594629.664                    20594633.707
                        33.400
                  81837938.975 6  19704364.563                    19704365.016
                        40.700
                  96392050.644 4  23200449.039                    23200449.410
                        25.600
                  93480521.410 6  22460229.734                    22460232.621
                        38.300
                  82730071.196 6  19926214.430                    19926215.789
                        40.400
                  88790548.081 6  21340871.789                    21340870.488
                        37.200
                  93691915.417 6  22574343.789                    22574345.715
                        38.400
 108105778.906 8  84238164.49046  20571845.422                    20571848.668
        50.700          36.900
 118233218.303 7  92129835.92545  22499040.711                    22499046.863
        45.600          34.300
 119394514.581 7  93034589.15245  22719991.078                    22719997.270
        46.500          31.900
 119204247.905 5                  22683821.172
        35.900
 125744189.952 4                  23928346.570
        26.400
 123358282.134 8  96123346.97145  23474300.008                    23474302.945
        48.100          33.300
 129337868.685 5                  24612194.586
        31.000
 116909653.515 5                  22247175.906
        30.700
 18  3 13 15 18 10.0000000  0 19R01G19G22G25R10R09R16R17R18R19R02G12
                                G06G03G32G24G17G02G14
                  86343455.199 5  20767289.328                    20767291.648
                        31.900
 115753611.334 7  90197622.12545  22027178.930                    22027181.223
        44.000          32.200
 122734020.505 6  95637056.46743  23355544.398                    23355546.316
        40.600          22.000
 115541653.856 7  90032398.44043  21986826.023                    21986831.125
        45.200          23.800
                  85383227.199 5  20594151.203                    20594155.039
                        33.500
                  81839402.216 6  19704716.461                    19704717.250
                        40.900
                  96395868.793 4  23201367.109                    23201368.535
                        26.000
                  93483982.162 6  22461060.828                    22461063.641
                        38.900
                  82730876.518 6  19926407.273                    19926409.344
                        40.400
                  88788068.884 6  21340275.477                    21340275.207
                        37.200
                  93689338.283 6  22573722.352                    22573724.859
                        38.600
 108106334.047 8  84238597.06946  20571951.039                    20571953.750
        50.700          37.300
 118231487.729 7  92128487.42945  22498711.281                    22498717.426
        46.100          34.600
 119394551.569 7  93034617.98145  22719997.422                    22720004.031
        46.100          32.500
 119206698.678 5                  22684286.555
        35.100
 125748301.700 4                  23929127.609
        28.000
 123361591.994 8  96125926.08145  23474929.945                    23474933.430
        48.200          32.700
 129335049.464 5                  24611658.297
        31.200
 116910074.184 4                  22247254.883
        29.400
 18  3 13 15 18 11.0000000  0 19R01G19G22G25R10R09R16R17R18R19R02G12
                                G06G03G32G24G17G02G14
                  86344249.066 5  20767480.977                    20767482.957
                        32.300
 115756283.597 7  90199704.40845  22027687.133                    22027689.629
        43.700          31.600
 122735447.871 6  95638168.70343  23355816.547                    23355817.918
        40.200          21.700
 115539426.117 7  90030662.53844  21986401.977                    21986406.918
        45.200          24.800
                  85381242.894 5  20593672.117                    20593676.551
                        33.700
                  81840866.103 6  19705068.922                    19705070.094
                        40.900
                  96399687.010 4  23202286.969                    23202287.340
                        24.800
                  93487443.243 6  22461893.578                    22461896.066
                        39.100
                  82731682.575 6  19926602.023                    19926604.070
                        40.400
                  88785590.111 6  21339679.633                    21339678.941
                        37.500
                  93686761.497 6  22573101.852                    22573104.293
                        38.700
 108106889.889 8  84239030.19346  20572056.773                    20572059.988
        50.100          37.900
 118229757.743 7  92127139.38945  22498381.742                    22498388.430
        46.000          34.700
 119394589.274 7  93034647.37345  22720005.328                    22720011.379
        46.300          31.500
 119209149.984 5                  22684752.734
        35.100
 125752413.620 4                  23929910.984
        27.300
 123364902.218 7  96128505.47845  23475559.281                    23475563.121
        47.500          32.800
 129332230.374 5                  24611122.391
        31.800
 116910495.549 5                  22247335.828
        30.800
 18  3 13 15 18 12.0000000  0 19R01G19G22G25R10R09R16R17R18R19R02G12
                                G06G03G32G24G17G02G14
                  86345043.737 5  20767670.727                    20767673.996
                        32.500
 115758956.516 7  90201787.20645  22028196.523                    22028198.578
        43.300          32.100
 122736875.886 6  95639281.46243  23356088.109                    23356089.484
        40.200          21.700
 115537199.001 7  90028927.12444  21985977.867                    21985983.559
        44.900          24.400
                  85379259.146 5  20593192.266                    20593197.949
                        33.400
                  81842330.656 6  19705422.266                    19705422.180
                        40.600
                  96403505.449 4  23203205.328                    23203207.227
                        25.700
                  93490904.646 6  22462724.625                    22462727.023
                        39.300
                  82732489.371 6  19926797.133                    19926798.297
                        40.400
                  88783111.860 6  21339083.016                    21339083.555
                        37.000
                  93684185.127 6  22572480.539                    22572482.672
                        39.100
 108107446.513 8  84239463.92846  20572162.883                    20572166.059
        50.300          37.000
 118228028.397 7  92125791.85545  22498052.523                    22498059.258
        46.000          34.800
 119394627.737 7  93034677.34545  22720012.250                    22720018.617
        45.700          32.100
 119211601.946 5                  22685220.563
        35.000
 125756526.22214                  23930692.086
        26.400
 123368212.882 7  96131085.22645  23476189.336                    23476192.859
        47.800          33.000
 129329411.579 5                  24610586.688
        31.900
 116910917.643 4                  22247415.234
        29.900
 18  3 13 15 18 13.0000000  0 19R01G19G22G25R10R09R16R17R18R19R02G12
                                G06G03G32G24G17G02G14
                  86345839.102 5  20767863.320                    20767865.109
                        31.900
 115761630.014 7  90203870.44645  22028704.922                    22028707.160
        42.700          32.400
 122738304.489 6  95640394.66743  23356359.703                    23356361.441
        40.200          21.500
 115534972.338 7  90027192.06044  21985554.250                    21985559.617
        45.200          25.300
                  85377275.840 5  20592715.242                    20592719.859
                        33.800
                  81843795.801 6  19705774.367                    19705775.039
                        40.600
                  96407324.042 4  23204124.188                    23204125.969
                        24.300
                  93494366.331 6  22463556.563                    22463558.715
                        39.500
                  82733296.881 6  19926991.289                    19926991.918
                        39.500
                  88780634.006 6  21338488.828                    21338487.496
                        37.000
                  93681609.163 6  22571859.352                    22571862.824
                        39.700
 108108003.800 8  84239898.18346  20572269.109                    20572272.027
        50.100          37.000
 118226299.601 7  92124444.76245  22497723.508                    22497730.293
        46.100          34.900
 119394666.871 7  93034707.83645  22720020.313                    22720025.875
        45.800          32.300
 119214054.502 5                  22685687.586
        35.700
 125760638.066 4                  23931475.953
        25.900
 123371523.844 8  96133665.19645  23476819.352                    23476823.020
        48.100          32.700
 129326592.929 5                  24610050.070
        31.600
 116911340.292 5                  22247494.492
        30.100
 18  3 13 15 18 14.0000000  0 19R01G19G22G25R10R09R16R17R18R19R02G12
                                G06G03G32G24G17G02G14
                  86346635.151 5  20768054.750                    20768056.715
                        31.300
 115764304.098 7  90205954.14745  22029214.016                    22029215.871
        43.800          32.200
 122739733.632 6  95641508.27143  23356631.688                    23356632.832
        40.000          21.500
 115532746.153 7  90025457.36744  21985130.563                    21985136.098
        45.000          25.100
                  85375292.994 5  20592236.297                    20592240.973
                        33.900
                  81845261.548 6  19706128.195                    19706128.633
                        40.500
                  96411142.657 4  23205042.547                    23205045.617
                        24.000
                  93497828.271 5  22464389.000                    22464390.734
                        35.400
                  82734105.069 6  19927185.711                    19927187.031
                        39.800
                  88778156.583 6  21337893.836                    21337892.570
                        37.000
                  93679033.597 6  22571238.938                    22571242.109
                        36.000
 108108561.779 8  84240332.97646  20572375.125                    20572377.664
        50.300          36.700
 118224571.325 7  92123098.08145  22497394.383                    22497401.391
        45.700          35.000
 119394706.655 7  93034738.84445  22720027.430                    22720033.492
        45.500          32.500
 119216507.563 6                  22686154.672
        36.200
 125764750.658 4                  23932258.563
        26.800
 123374835.179 8  96136245.44645  23477449.125                    23477453.059
        48.200          35.000
 129323774.425 5                  24609513.375
        31.900
 116911763.660 4                  22247576.023
        29.900
 18  3 13 15 18 15.0000000  0 19R01G19G22G25R10R09R16R17R18R19R02G12
                                G06G03G32G24G17G02G14
                  86347431.938 5  20768245.656                    20768248.777
                        31.400
 115766978.829 7  90208038.35445  22029722.625                    22029724.875
        43.600          32.300
 122741163.435 6  95642622.40343  23356903.703                    23356904.863
        39.900          21.300
 115530520.519 7  90023723.12144  21984707.219                    21984712.555
        44.500          24.000
                  85373310.641 5  20591758.711                    20591763.875
                        33.600
                  81846727.942 6  19706480.984                    19706481.195
                        40.700
                  96414961.545 3  23205959.164                    23205964.113
                        22.100
                  93501290.667 6  22465219.664                    22465223.203
                        36.800
                  82734914.020 6  19927380.305                    19927382.141
                        40.700
                  88775679.612 6  21337297.742                    21337297.055
                        37.400
                  93676458.450 6  22570618.648                    22570620.543
                        37.300
 108109120.482 8  84240768.32646  20572481.523                    20572484.145
        50.300          36.600
 118222843.679 7  92121751.88745  22497066.141                    22497072.762
        46.100          34.800
 119394747.210 7  93034770.44045  22720035.477                    22720041.016
        45.100          32.200
 119218961.331 5                  22686620.406
        35.900
 125768863.37114                  23933040.617
        26.400
 123378146.878 8  96138825.99845  23478079.539                    23478083.340
        48.600          33.100
 129320956.193 5                  24608977.289
        32.000
 116912187.751 4                  22247656.305
        29.600
 18  3 13 15 18 16.0000000  0 19R01G19G22G25R10R09R16R17R18R19R02G12
                                G06G03G32G24G17G02G14
                  86348229.463 5  20768437.914                    20768440.055
                        31.200
 115769654.120 7  90210122.99245  22030231.664                    22030234.121
        44.000          31.900
 122742593.834 6  95643737.00643  23357176.438                    23357177.449
        39.900          21.100
 115528295.377 7  90021989.25043  21984283.648                    21984289.285
        44.600          23.500
                  85371328.794 5  20591280.898                    20591285.180
                        33.900
                  81848194.964 6  19706834.250                    19706834.332
                        41.100
                  96418780.455 3  23206879.758                    23206883.297
                        22.700
                  93504753.274 5  22466052.109                    22466054.582
                        35.700
                  82735723.683 6  19927575.477                    19927576.887
                        40.800
                  88773203.069 6  21336701.867                    21336702.016
                        37.000
                  93673883.582 5  22569998.250                    22570001.039
                        35.800
 108109679.886 8  84241204.22946  20572587.797                    20572590.602
        50.400          36.800
 118221116.588 7  92120406.11645  22496737.406                    22496743.902
        46.100          35.500
 119394788.444 7  93034802.57045  22720043.023                    22720049.105
        46.000          35.000
 119221415.543 5                  22687087.430
        35.200
 125772976.81914                  23933822.945
        25.900
 123381458.936 8  96141406.82645  23478709.711                    23478713.395
        48.500          34.900
 129318138.045 5                  24608441.539
        32.500
 116912613.04514                  22247738.719
        27.600
 18  3 13 15 18 17.0000000  0 19R01G19G22G25R10R09R16R17R18R19R02G12
                                G06G03G32G24G17G02G14
                  86349027.726 5  20768630.188                    20768632.215
                        30.900
 115772330.059 7  90212208.14645  22030741.125                    22030743.559
        43.900          31.900
 122744024.892 6  95644852.11843  23357448.703                    23357449.574
        39.900          21.300
 115526070.792 7  90020255.81543  21983860.523                    21983865.805
        45.000          23.000
                  85369347.417 5  20590802.367                    20590807.262
                        34.200
                  81849662.635 6  19707187.063                    19707187.047
                        41.000
                  96422599.562 4  23207799.367                    23207802.672
                        25.800
                  93508216.271 5  22466883.484                    22466886.348
                        35.800
                  82736534.092 6  19927771.328                    19927772.004
                        40.600
                  88770727.009 6  21336106.852                    21336107.293
                        37.300
                  93671309.178 6  22569377.828                    22569380.648
                        36.200
 108110240.041 8  84241640.71246  20572694.398                    20572697.172
        50.500          36.700
 118219390.078 7  92119060.79445  22496409.078                    22496415.367
        46.300          35.100
 119394830.427 7  93034835.27045  22720051.133                    22720056.742
        46.300          33.800
 119223870.429 5                  22687555.016
        35.200
 125777090.01114                  23934605.461
        24.600
 123384771.402 8  96143987.98145  23479340.297                    23479343.941
        48.200          34.000
 129315320.280 5                  24607904.578
        32.500
 116913038.04814                  22247819.531
        26.400
 18  3 13 15 18 18.0000000  0 19R01G19G22G25R10R09R16R17R18R19R02G12
                                G06G03G32G24G17G02G14
                  86349826.726 5  20768822.070                    20768824.578
                        31.500
 115775006.635 7  90214293.78245  22031250.375                    22031252.398
        44.000          32.100
 122745456.538 6  95645967.68543  23357721.664                    23357722.105
        40.200          21.100
 115523846.681 7  90018522.74244  21983437.211                    21983442.695
        45.000          25.600
                  85367366.531 5  20590324.781                    20590329.395
                        34.300
                  81851130.944 6  19707540.969                    19707540.875
                        41.200
                  96426418.784 3  23208719.719                    23208721.383
                        22.800
                  93511679.541 6  22467716.438                    22467718.191
                        36.200
                  82737345.187 6  19927966.031                    19927967.055
                        40.700
                  88768251.419 6  21335512.508                    21335511.820
                        37.100
                  93668735.169 6  22568758.047                    22568760.684
                        36.800
 108110800.904 8  84242077.74746  20572801.203                    20572803.816
        50.200          36.600
 118217664.185 7  92117715.96345  22496080.484                    22496087.465
        46.500          35.200
 119394873.097 7  93034868.51545  22720059.070                    22720065.023
        46.500          33.300
 119226325.885 5                  22688022.703
        35.400
 125781203.007 4                  23935387.539
        25.300
 123388084.220 8  96146569.40145  23479970.773                    23479974.254
        48.300          34.100
 129312502.601 5                  24607368.383
        32.000
 116913464.106 4                  22247900.617
        26.400
 18  3 13 15 18 19.0000000  0 18R01G19G22G25R10R09R16R17R18R19R02G12
                                G06G03G32G24G17G02
                  86350626.486 5  20769013.664                    20769016.465
                        31.500
 115777683.806 7  90216379.89145  22031760.133                    22031762.055
        43.900          31.900
 122746888.772 6  95647083.71043  23357993.797                    23357994.719
        39.700          21.300
 115521623.139 7  90016790.11244  21983013.758                    21983019.137
        44.900          24.500
                  85365386.145 5  20589846.828                    20589851.609
                        34.100
                  81852599.902 6  19707893.820                    19707894.969
                        40.700
                  96430238.191 3  23209638.227                    23209641.063
                        22.500
                  93515143.110 6  22468549.672                    22468550.090
                        36.900
                  82738157.003 6  19928161.445                    19928162.359
                        40.600
                  88765776.282 6  21334917.477                    21334916.414
                        37.200
                  93666161.579 5  22568137.242                    22568140.387
                        35.800
 108111362.490 8  84242515.34846  20572908.102                    20572910.863
        50.200          36.700
 118215938.879 7  92116371.59145  22495752.391                    22495758.520
        46.600          34.700
 119394916.514 7  93034902.33945  22720067.508                    22720073.215
        46.800          33.800
 119228781.967 5                  22688489.664
        35.700
 125785316.67814                  23936171.234
        26.400
 123391397.416 8  96149151.12045  23480601.266                    23480604.445
        48.200          34.000
 129309685.203 5                  24606832.992
        32.400
 18  3 13 15 18 20.0000000  0 18R01G19G22G25R10R09R16R17R18R19R02G12
                                G06G03G32G24G17G02
                  86351426.961 5  20769206.156                    20769209.305
                        31.100
 115780361.569 7  90218466.45145  22032269.555                    22032271.539
        43.900          32.200
 122748321.634 6  95648200.22843  23358266.609                    23358267.152
        39.200          21.300
 115519400.111 7  90015057.87944  21982590.734                    21982596.449
        45.100          25.600
                  85363406.250 5  20589370.563                    20589374.609
                        33.400
                  81854069.474 6  19708248.586                    19708248.492
                        40.500
                  96434057.749 3  23210558.492                    23210560.508
                        21.400
                  93518607.002 6  22469381.930                    22469382.852
                        36.800
                  82738969.543 6  19928357.336                    19928358.707
                        40.200
                  88763301.578 6  21334323.008                    21334321.891
                        36.900
                  93663588.363 5  22567516.922                    22567520.895
                        35.000
 108111924.784 8  84242953.49346  20573015.516                    20573017.926
        50.500          36.300
 118214214.110 7  92115027.63745  22495424.086                    22495430.188
        46.500          35.400
 119394960.598 7  93034936.68845  22720076.211                    22720081.984
        46.800          34.700
 119231238.593 5                  22688957.141
        34.400
 125789430.562 4                  23936954.250
        25.900
 123394710.964 8  96151733.11345  23481231.547                    23481235.211
        48.000          34.400
 129306867.969 5                  24606296.836
        32.600
 18  3 13 15 18 21.0000000  0 18R01G19G22G25R10R09R16R17R18R19R02G12
                                G06G03G32G24G17G02
                  86352228.204 5  20769399.391                    20769402.199
                        31.400
 115783039.988 7  90220553.52545  22032778.813                    22032781.277
        44.100          32.300
 122749755.124 6  95649317.26243  23358538.945                    23358540.309
        39.400          20.600
 115517177.594 7  90013326.05044  21982168.195                    21982173.582
        45.000          26.300
                  85361426.824 5  20588892.430                    20588896.859
                        33.700
                  81855539.690 6  19708601.859                    19708602.754
                        40.300
                  96437877.441 3  23211476.727                    23211480.031
                        21.900
                  93522071.191 6  22470214.695                    22470215.082
                        37.100
                  82739782.798 6  19928553.281                    19928554.051
                        40.000
                  88760827.286 6  21333728.109                    21333726.887
                        37.100
                  93661015.573 5  22566897.664                    22566900.871
                        35.100
 108112487.800 8  84243392.20446  20573122.688                    20573124.895
        50.200          37.000
 118212489.950 7  92113684.15745  22495095.781                    22495102.223
        46.500          35.300
 119395005.408 7  93034971.60245  22720084.219                    22720090.316
        47.000          34.700
 119233695.830 5                  22689425.023
        34.200
 125793545.08814                  23937736.781
        26.400
 123398024.869 8  96154315.38745  23481862.336                    23481865.695
        48.100          34.300
 129304050.957 5                  24605760.336
        31.800
 18  3 13 15 18 22.0000000  0 18R01G19G22G25R10R09R16R17R18R19R02G12
                                G06G03G32G24G17G02
                  86353030.199 5  20769591.586                    20769595.176
                        31.300
 115785719.005 7  90222641.06345  22033289.617                    22033290.750
        44.200          32.400
 122751189.219 6  95650434.74743  23358811.633                    23358812.879
        39.400          20.400
 115514955.597 7  90011594.62844  21981745.039                    21981750.535
        44.600          24.700
                  85359447.921 5  20588415.156                    20588419.609
                        33.900
                  81857010.541 6  19708956.578                    19708956.824
                        40.300
                  96441697.304 3  23212395.375                    23212399.031
                        21.600
                  93525535.737 6  22471045.633                    22471048.094
                        37.100
                  82740596.790 6  19928749.633                    19928750.980
                        40.100
                  88758353.469 6  21333133.695                    21333133.168
                        37.200
                  93658443.196 5  22566279.023                    22566280.852
                        34.900
 108113051.532 8  84243831.47546  20573230.039                    20573232.363
        50.000          37.200
 118210766.352 7  92112341.11145  22494767.930                    22494774.285
        46.000          34.900
 119395050.937 7  93035007.06945  22720092.891                    22720098.949
        46.900          34.000
 119236153.618 5                  22689892.781
        34.500
 125797658.938 3                  23938519.898
        23.800
 123401339.153 8  96156897.94245  23482492.773                    23482496.746
        48.000          34.800
 129301234.203 5                  24605223.672
        31.800
 18  3 13 15 18 23.0000000  0 18R01G19G22G25R10R09R16R17R18R19R02G12
                                G06G03G32G24G17G02
                  86353832.924 5  20769784.492                    20769787.750
                        31.900
 115788398.616 7  90224729.06445  22033799.555                    22033800.969
        44.300          32.300
 122752623.908 6  95651552.69943  23359085.109                    23359085.852
        39.800          20.400
 115512734.103 7  90009863.59343  21981322.219                    21981327.898
        44.900          23.800
                  85357469.471 5  20587938.133                    20587942.332
                        33.700
                  81858482.011 6  19709310.539                    19709311.148
                        40.100
                  96445517.231 3  23213315.984                    23213319.055
                        22.700
                  93529000.603 6  22471878.289                    22471880.051
                        36.400
                  82741411.483 6  19928945.766                    19928946.820
                        40.300
                  88755880.090 6  21332539.344                    21332538.723
                        37.400
                  93655871.188 5  22565658.539                    22565660.832
                        34.600
 108113615.972 8  84244271.29646  20573337.094                    20573339.648
        50.300          37.100
 118209043.309 7  92110998.49145  22494439.883                    22494446.426
        46.300          34.700
 119395097.178 7  93035043.08945  22720102.063                    22720107.988
        47.300          33.900
 119238611.997 5                  22690360.586
        35.100
 125801773.529 4                  23939302.250
        26.400
 123404653.815 8  96159480.79745  23483123.859                    23483127.281
        48.300          34.100
 129298417.619 5                  24604688.359
        32.200
 18  3 13 15 18 24.0000000  0 18R01G19G22G25R10R09R16R17R18R19R02G12
                                G06G03G32G24G17G02
                  86354636.387 5  20769978.477                    20769980.980
                        30.800
 115791078.854 7  90226817.56945  22034308.719                    22034310.703
        44.300          30.700
 122754059.238 6  95652671.13743  23359357.984                    23359359.250
        39.900          21.500
 115510513.149 7  90008132.97944  21980899.359                    21980905.133
        44.500          25.800
                  85355491.543 5  20587461.203                    20587465.680
                        33.400
                  81859954.128 6  19709665.133                    19709665.359
                        39.900
                  96449337.375 3  23214236.617                    23214238.164
                        21.600
                  93532465.813 6  22472710.781                    22472713.125
                        36.000
                  82742226.915 6  19929141.820                    19929143.586
                        39.700
                  88753407.158 6  21331944.734                    21331944.395
                        36.900
                  93653299.592 5  22565038.984                    22565040.617
                        34.900
 108114181.149 8  84244711.69146  20573444.820                    20573447.375
        50.300          37.100
 118207320.899 7  92109656.36745  22494112.070                    22494118.480
        46.500          34.600
 119395144.147 7  93035079.68845  22720111.039                    22720117.027
        47.200          33.800
 119241071.010 5                  22690827.844
        34.800
 125805888.82814                  23940085.078
        25.300
 123407968.853 7  96162063.94545  23483754.555                    23483758.324
        47.900          33.600
 129295601.211 5                  24604151.641
        32.200
 18  3 13 15 18 25.0000000  0 18R01G19G22G25R10R09R16R17R18R19R02G12
                                G06G03G32G24G17G02
                  86355440.617 5  20770171.766                    20770174.559
                        31.400
 115793759.762 7  90228906.58845  22034819.258                    22034821.379
        44.300          31.700
 122755495.226 6  95653790.08743  23359631.219                    23359632.426
        40.400          21.800
 115508292.762 7  90006402.80143  21980476.867                    21980483.012
        44.500          23.800
                  85353514.130 5  20586983.906                    20586987.898
                        33.600
                  81861426.901 6  19710019.883                    19710020.480
                        40.400
                  96453157.737 3  23215155.094                    23215158.281
                        22.700
                  93535931.354 5  22473543.211                    22473545.828
                        35.400
                  82743043.127 6  19929338.445                    19929339.738
                        39.700
                  88750934.705 6  21331349.742                    21331349.512
                        37.100
                  93650728.436 5  22564419.891                    22564422.023
                        34.700
 108114747.101 8  84245152.69746  20573552.305                    20573554.914
        50.100          36.900
 118205599.089 7  92108314.72345  22493784.578                    22493790.742
        46.700          35.100
 119395191.898 7  93035116.91145  22720119.969                    22720126.043
        47.200          34.400
 119243530.584 5                  22691296.172
        35.000
 125810003.41913                  23940868.813
        23.800
 123411284.285 8  96164647.39945  23484385.781                    23484388.859
        48.300          33.800
 129292785.052 5                  24603615.867
        31.900
 18  3 13 15 18 26.0000000  0 18R01G19G22G25R10R09R16R17R18R19R02G12
                                G06G03G32G24G17G02
                  86356245.578 5  20770365.492                    20770367.750
                        31.200
 115796441.266 7  90230996.07045  22035329.586                    22035331.703
        44.500          31.500
 122756931.798 6  95654909.49943  23359903.977                    23359905.637
        41.200          21.800
 115506072.840 7  90004672.98044  21980054.617                    21980060.539
        44.700          25.300
                  85351537.215 5  20586507.594                    20586512.219
                        34.300
                  81862900.300 6  19710374.531                    19710374.930
                        40.600
                  96456978.222 3  23216075.234                    23216077.133
                        23.200
                  93539397.158 5  22474376.328                    22474378.227
                        34.200
                  82743860.019 6  19929535.281                    19929536.785
                        39.800
                  88748462.669 6  21330755.477                    21330755.324
                        37.600
                  93648157.588 6  22563800.523                    22563802.449
                        36.100
 108115313.730 8  84245594.22546  20573660.156                    20573663.109
        50.200          37.200
 118203877.827 7  92106973.50345  22493457.055                    22493463.598
        47.000          35.300
 119395240.309 7  93035154.63245  22720128.898                    22720135.301
        47.700          33.600
 119245990.806 6                  22691764.719
        36.300
 125814119.02714                  23941652.891
        25.900
 123414600.037 8  96167231.10345  23485016.289                    23485020.059
        48.200          34.600
 129289969.202 5                  24603079.203
        32.600
 18  3 13 15 18 27.0000000  0 19R01G19G22G25R10R09R16R17R18R19R02G12
                                G06G03G32G24G17G02G14
                  86357051.246 5  20770558.719                    20770561.395
                        30.100
 115799123.380 7  90233086.01545  22035839.414                    22035841.289
        44.100          31.500
 122758368.935 6  95656029.34643  23360178.164                    23360179.129
        41.300          22.200
 115503853.451 7  90002943.58044  21979632.258                    21979638.246
        44.300          24.600
                  85349560.703 5  20586031.094                    20586034.719
                        34.500
                  81864374.311 6  19710729.234                    19710729.250
                        39.700
                  96460798.807 3  23216994.391                    23216996.992
                        22.500
                  93542863.337 5  22475209.336                    22475210.969
                        34.300
                  82744677.624 6  19929731.844                    19929733.055
                        39.700
                  88745991.087 6  21330161.742                    21330161.656
                        37.400
                  93645587.225 5  22563181.219                    22563183.480
                        34.800
 108115881.068 8  84246036.31146  20573768.188                    20573770.855
        49.600          36.600
 118202157.148 7  92105632.74445  22493129.531                    22493136.145
        47.100          35.000
 119395289.436 7  93035192.91945  22720138.391                    22720144.125
        47.600          33.900
 119248451.624 6                  22692233.117
        36.600
 125818234.59613                  23942433.898
        23.800
 123417916.177 7  96169815.10445  23485647.602                    23485651.301
        47.900          34.600
 129287153.396 5                  24602544.125
        31.200
 116917305.35415                  22248635.805
        35.100
 18  3 13 15 18 28.0000000  0 19R01G19G22G25R10R09R16R17R18R19R02G12
                                G06G03G32G24G17G02G14
                  86357857.660 5  20770752.367                    20770755.801
                        31.200
 115801806.077 7  90235176.42145  22036350.227                    22036352.176
        45.100          34.000
 122759806.575 7  95657149.58543  23360451.344                    23360453.051
        42.900          22.600
 115501634.604 7  90001214.60844  21979209.945                    21979215.867
        44.500          25.700
                  85347584.697 5  20585553.914                    20585557.996
                        32.900
                  81865848.970 6  19711084.477                    19711084.406
                        40.300
                  96464619.590 3  23217915.500                    23217916.809
                        22.500
                  93546329.819 5  22476042.523                    22476043.617
                        34.700
                  82745495.938 6  19929929.195                    19929930.652
                        39.600
                  88743519.951 6  21329568.281                    21329567.648
                        36.300
                  93643017.237 5  22562562.039                    22562564.453
                        35.500
 108116449.129 8  84246478.95646  20573875.727                    20573878.902
        50.000          36.500
 118200437.034 7  92104292.40945  22492801.875                    22492808.828
        47.500          35.200
 119395339.221 7  93035231.71045  22720148.133                    22720153.734
        47.400          32.700
 119250912.909 5                  22692700.602
        35.700
 125822350.28714                  23943216.914
        24.600
 123421232.660 8  96172399.38645  23486278.281                    23486282.555
        48.000          34.400
 129284337.898 5                  24602008.680
        33.200
 116917738.39216                  22248716.523
        37.100
 18  3 13 15 18 29.0000000  0 19R01G19G22G25R10R09R16R17R18R19R02G12
                                G06G03G32G24G17G02G14
                  86358664.848 5  20770946.617                    20770949.836
                        31.800
 115804489.445 7  90237267.36345  22036861.203                    22036862.914
        45.600          34.700
 122761245.009 7  95658270.44543  23360725.234                    23360726.715
        42.200          22.000
 115499416.299 7  89999486.08244  21978787.867                    21978793.840
        44.100          25.600
                  85345609.272 5  20585077.008                    20585081.559
                        32.800
                  81867324.306 6  19711439.586                    19711439.801
                        40.400
                  96468440.482 4  23218834.508                    23218836.406
                        25.000
                  93549796.677 5  22476875.391                    22476876.883
                        34.400
                  82746315.027 6  19930126.664                    19930127.645
                        39.800
                  88741049.301 6  21328973.992                    21328973.848
                        37.100
                  93640447.703 6  22561942.195                    22561944.820
                        36.800
 108117017.935 8  84246922.18346  20573983.820                    20573987.223
        50.500          36.900
 118198717.568 7  92102952.58245  22492474.883                    22492481.273
        46.900          34.900
 119395389.841 7  93035271.17045  22720157.398                    22720163.254
        46.900          31.400
 119253374.880 6                  22693169.656
        36.000
 125826466.19814                  23944001.438
        25.900
 123424549.583 8  96174984.01445  23486909.688                    23486913.395
        48.500          34.200
 129281522.665 5                  24601472.586
        32.900
 116918171.504 6                  22248798.375
        38.300
 18  3 13 15 18 30.0000000  0 19R01G19G22G25R10R09R16R17R18R19R02G12
                                G06G03G32G24G17G02G14
                  86359472.849 5  20771141.500                    20771144.063
                        32.000
 115807173.504 7  90239358.84345  22037371.453                    22037373.652
        45.800          34.400
 122762684.118 7  95659391.84343  23360999.273                    23361000.375
        42.600          21.800
 115497198.593 7  89997758.00044  21978365.773                    21978371.516
        44.300          24.900
                  85343634.355 5  20584601.125                    20584604.902
                        31.900
                  81868800.305 6  19711794.781                    19711795.477
                        40.600
                  96472261.629 3  23219754.250                    23219756.031
                        23.200
                  93553263.904 5  22477709.008                    22477710.223
                        34.900
                  82747134.898 6  19930323.992                    19930325.543
                        39.700
                  88738579.187 6  21328380.258                    21328379.977
                        36.000
                  93637878.651 6  22561323.063                    22561325.480
                        37.200
 108117587.553 8  84247366.04246  20574092.469                    20574095.469
        50.100          36.700
 118196998.771 7  92101613.28245  22492147.867                    22492154.188
        47.100          35.500
 119395441.228 7  93035311.23245  22720167.141                    22720173.188
        47.000          31.600
 119255837.488 6                  22693638.672
        36.600
 125830582.47713                  23944786.133
        23.800
 123427866.944 8  96177568.97645  23487540.984                    23487544.570
        48.800          34.400
 129278707.653 5                  24600937.219
        32.800
 116918605.867 6                  22248881.742
        38.200
 18  3 13 15 18 31.0000000  0 18R01G19G22G25R10R09R16R17R18R19R02G12
                                G06G03G32G17G02G14
                  86360281.557 5  20771336.680                    20771338.949
                        31.900
 115809858.173 7  90241450.80345  22037882.313                    22037884.738
        45.300          33.700
 122764123.826 7  95660513.69443  23361273.031                    23361274.332
        42.700          21.500
 115494981.402 7  89996030.32844  21977944.016                    21977949.457
        44.100          24.800
                  85341659.914 5  20584124.445                    20584128.859
                        32.000
                  81870276.945 6  19712150.523                    19712150.754
                        40.500
                  96476082.798 3  23220672.688                    23220675.875
                        22.800
                  93556731.474 5  22478540.664                    22478542.910
                        35.000
                  82747955.470 6  19930521.719                    19930523.035
                        40.200
                  88736109.497 6  21327787.219                    21327785.848
                        36.400
                  93635309.941 6  22560704.227                    22560707.398
                        36.500
 108118157.878 8  84247810.45346  20574200.813                    20574204.125
        50.100          37.200
 118195280.528 7  92100274.41646  22491820.922                    22491827.398
        47.000          36.100
 119395493.323 7  93035351.83445  22720176.984                    22720183.000
        47.300          33.500
 119258300.730 5                  22694107.633
        35.800
 123431184.635 8  96180154.19245  23488172.641                    23488176.543
        48.100          34.300
 129275892.898 5                  24600401.742
        32.800
 116919040.853 6                  22248963.719
        38.500
 18  3 13 15 18 32.0000000  0 18R01G19G22G25R10R09R16R17R18R19R02G12
                                G06G03G32G17G02G14
                  86361091.024 5  20771530.555                    20771534.059
                        31.500
 115812543.431 7  90243543.20545  22038394.102                    22038395.523
        45.300          34.400
 122765564.130 6  95661635.99643  23361547.289                    23361548.516
        41.900          21.100
 115492764.693 7  89994303.02643  21977521.891                    21977527.879
        44.300          23.900
                  85339685.912 5  20583648.125                    20583652.191
                        32.800
                  81871754.202 6  19712506.445                    19712506.887
                        40.500
                  96479904.237 3  23221592.242                    23221595.898
                        22.700
                  93560199.348 5  22479373.344                    22479376.258
                        35.900
                  82748776.750 6  19930719.078                    19930721.094
                        40.000
                  88733640.247 6  21327193.242                    21327192.930
                        36.800
                  93632741.610 6  22560085.836                    22560087.852
                        36.100
 108118728.896 8  84248255.40046  20574309.414                    20574312.656
        50.300          37.400
 118193562.857 7  92098936.00545  22491494.273                    22491500.648
        46.900          35.500
 119395546.133 8  93035392.99245  22720187.484                    22720193.391
        48.200          35.300
 119260764.467 5                  22694575.320
        35.300
 123434502.720 7  96182739.70245  23488803.352                    23488807.641
        47.200          34.000
 129273078.311 5                  24599865.750
        32.900
 116919476.450 6                  22249046.570
        38.000
 18  3 13 15 18 33.0000000  0 18R01G19G22G25R10R09R16R17R18R19R02G12
                                G06G03G32G17G02G14
                  86361901.275 5  20771725.320                    20771728.664
                        31.800
 115815229.324 7  90245636.11545  22038905.023                    22038906.434
        45.200          33.800
 122767005.083 6  95662758.80343  23361821.328                    23361822.840
        41.700          20.900
 115490548.565 7  89992576.18044  21977100.117                    21977106.355
        44.500          24.900
                  85337712.478 5  20583172.375                    20583176.766
                        32.400
                  81873232.125 6  19712861.727                    19712862.262
                        40.200
                  96483725.805 3  23222512.344                    23222515.297
                        22.500
                  93563667.590 5  22480207.563                    22480209.629
                        35.800
                  82749598.796 6  19930917.344                    19930918.785
                        39.800
                  88731171.488 6  21326599.773                    21326599.359
                        36.300
                  93630173.663 5  22559467.008                    22559469.316
                        35.800
 108119300.675 8  84248700.93746  20574418.492                    20574421.930
        50.700          37.500
 118191845.823 7  92097598.09145  22491167.375                    22491173.895
        47.000          35.500
 119395599.666 8  93035434.70345  22720197.289                    22720203.145
        48.300          35.400
 119263228.889 5                  22695044.977
        35.600
 123437821.199 7  96185325.50745  23489435.211                    23489438.617
        47.900          34.500
 129270263.954 5                  24599329.906
        32.800
 116919912.823 6                  22249130.227
        37.900
 18  3 13 15 18 34.0000000  0 18R01G19G22G25R10R09R16R17R18R19R02G12
                                G06G03G32G17G02G14
                  86362712.293 5  20771921.055                    20771924.156
                        31.400
 115817915.865 7  90247729.52245  22039416.211                    22039417.992
        45.100          33.300
 122768446.662 6  95663882.11043  23362095.852                    23362097.188
        41.300          20.600
 115488332.981 7  89990849.74144  21976678.633                    21976684.516
        44.700          25.900
                  85335739.520 5  20582697.000                    20582701.207
                        32.400
                  81874710.688 6  19713217.859                    19713218.922
                        40.600
                  96487547.602 3  23223432.773                    23223435.141
                        22.500
                  93567136.148 5  22481042.313                    22481042.926
                        35.600
                  82750421.581 6  19931115.039                    19931116.996
                        40.000
                  88728703.186 6  21326006.219                    21326005.809
                        36.800
                  93627606.132 6  22558848.742                    22558850.457
                        36.000
 108119873.198 8  84249147.06146  20574527.680                    20574530.535
        50.400          37.500
 118190129.406 7  92096260.66345  22490840.672                    22490846.797
        46.800          34.900
 119395653.937 8  93035476.98645  22720207.797                    22720213.461
        48.200          34.700
 119265693.879 6                  22695513.438
        36.300
 123441140.055 7  96187911.60945  23490066.836                    23490070.406
        47.300          34.200
 129267449.812 5                  24598794.664
        33.700
 116920349.882 6  91106817.03952  22249213.578                    22249215.484
        38.600          16.300
 18  3 13 15 18 35.0000000  0 18R01G19G22G25R10R09R16R17R18R19R02G12
                                G06G03G32G17G02G14
                  86363524.048 5  20772115.922                    20772119.379
                        31.200
 115820603.025 7  90249823.40945  22039927.523                    22039929.074
        45.000          32.800
 122769888.872 6  95665005.90643  23362370.172                    23362371.059
        41.700          21.500
 115486117.906 7  89989123.71043  21976257.469                    21976262.723
        44.300          22.500
                  85333767.061 5  20582220.781                    20582224.855
                        32.800
                  81876189.884 6  19713573.852                    19713574.637
                        40.400
                                  23224351.617

                  93570604.997 5  22481876.352                    22481875.965
                        35.900
                  82751245.088 6  19931313.625                    19931315.305
                        39.800
                  88726235.343 6  21325413.141                    21325412.715
                        37.200
                  93625039.002 5  22558229.945                    22558232.426
                        35.500
 108120446.430 8  84249593.72946  20574636.797                    20574639.484
        50.100          37.600
 118188413.548 7  92094923.67045  22490513.813                    22490520.363
        47.200          34.800
 119395708.908 7  93035519.81545  22720218.164                    22720223.945
        47.700          34.800
 119268159.483 6                  22695983.305
        37.300
 123444459.261 8  96190498.00345  23490698.680                    23490702.086
        48.100          34.400
 129264635.924 5                  24598259.961
        33.200
 116920787.589 6  91107158.10642  22249297.477                    22249299.195
        38.400          15.600
 18  3 13 15 18 36.0000000  0 17R01G19G22G25R10R09R17R18R19R02G12G06
                                G03G32G17G02G14
                  86364336.526 5  20772311.641                    20772314.559
                        31.200
 115823290.767 7  90251917.75045  22040439.039                    22040440.824
        45.400          33.300
 122771331.695 7  95666130.21743  23362645.023                    23362645.902
        42.200          21.100
 115483903.342 7  89987398.07443  21975835.914                    21975841.594
        44.300          22.900
                  85331795.101 5  20581745.141                    20581749.777
                        32.900
                  81877669.734 6  19713930.125                    19713931.074
                        40.700
                  93574074.188 6  22482708.438                    22482710.383
                        36.400
                  82752069.287 6  19931512.945                    19931513.809
                        40.400
                  88723767.935 6  21324820.820                    21324820.152
                        36.900
                  93622472.287 6  22557610.961                    22557613.938
                        36.400
 108121020.384 8  84250040.96446  20574746.078                    20574748.766
        50.300          37.600
 118186698.270 7  92093587.12745  22490187.523                    22490193.938
        47.200          35.500
 119395764.602 7  93035563.20945  22720228.609                    22720234.719
        47.300          35.300
 119270625.673 6                  22696453.172
        36.800
 123447778.865 7  96193084.71745  23491330.164                    23491334.020
        47.700          34.200
 129261822.250 5                  24597724.977
        32.900
 116921225.925 6  91107499.66842  22249380.359                    22249382.574
        38.400          16.300
 18  3 13 15 18 37.0000000  0 17R01G19G22G25R10R09R17R18R19R02G12G06
                                G03G32G17G02G14
                  86365149.623 4  20772507.430                    20772509.441
                        28.100
 115825978.968 7  90254012.45545  22040950.391                    22040952.340
        45.000          32.800
 122772774.938 6  95667254.79543  23362920.156                    23362920.848
        38.600          20.600
 115481689.154 7  89985672.74844  21975414.344                    21975420.188
        44.700          24.100
                  85329823.535 5  20581270.008                    20581274.730
                        33.400
                  81879150.077 6  19714286.688                    19714287.109
                        40.000
                  93577543.564 6  22483541.336                    22483543.727
                        36.200
                  82752894.098 6  19931710.852                    19931712.281
                        39.200
                  88721300.874 6  21324227.352                    21324226.680
                        37.200
                  93619905.860 6  22556992.813                    22556995.402
                        36.100
 108121594.904 8  84250488.63946  20574855.461                    20574858.367
        50.600          37.000
 118184983.447 7  92092250.93145  22489861.305                    22489867.281
        47.200          35.000
 119395820.842 7  93035607.03746  22720239.578                    22720245.617
        47.000          36.100
 119273092.285 5                  22696921.844
        34.800
 123451098.667 7  96195671.59045  23491962.016                    23491965.512
        47.600          33.700
 129259008.493 5                  24597189.320
        33.300
 116921664.837 6  91107841.72942  22249463.445                    22249466.418
        36.700          16.900
 18  3 13 15 18 38.0000000  0 18R01G19G22G25R10R09R17R18R19G31R02G12
                                G06G03G32G17G02G14
                  86365963.532 4  20772703.484                    20772705.898
                        26.300
 115828667.797 7  90256107.64545  22041462.281                    22041464.219
        45.300          33.600
 122774218.838 6  95668379.82543  23363194.938                    23363195.660
        37.000          18.300
 115479475.494 7  89983947.81843  21974992.891                    21974998.762
        43.500          22.800
                  85327852.380 5  20580794.156                    20580798.844
                        32.500
                  81880631.017 6  19714643.273                    19714643.645
                        40.400
                  93581013.275 6  22484375.453                    22484376.945
                        36.100
                  82753719.602 6  19931909.891                    19931910.977
                        40.200
                  88718834.240 5  21323634.367                    21323634.055
                        35.900
 123186756.39615                  23441695.453
        33.700
                  93617339.751 6  22556375.039                    22556377.285
                        36.900
 108122170.132 8  84250936.87146  20574965.242                    20574967.680
        50.500          38.000
 118183269.159 7  92090915.15545  22489534.742                    22489541.258
        46.900          35.000
 119395877.787 8  93035651.39446  22720250.250                    22720256.035
        48.000          36.300
 119275559.437 5                  22697391.766
        34.800
 123454418.782 7  96198258.69845  23492593.281                    23492597.523
        47.700          33.100
 129256195.09915                  24596653.938
        34.700
 116922104.388 5  91108184.28942  22249547.617                    22249549.625
        34.100          16.300
 18  3 13 15 18 39.0000000  0 18R01G19G22G25R10R09R17R18R19G31R02G12
                                G06G03G32G17G02G14
                  86366778.155 4  20772898.852                    20772901.840
                        29.600
 115831357.264 7  90258203.33745  22041973.766                    22041975.871
        45.600          33.400
 122775663.348 6  95669505.36042  23363470.023                    23363470.355
        41.300          17.400
 115477262.368 7  89982223.33244  21974572.094                    21974577.840
        44.500          26.900
                  85325881.776 5  20580319.102                    20580323.207
                        33.300
                  81882112.618 6  19715000.102                    19714999.922
                        39.900
                  93584483.299 6  22485208.859                    22485210.750
                        36.500
                  82754545.882 6  19932109.086                    19932110.574
                        39.900
                  88716368.096 6  21323042.195                    21323041.574
                        36.800
 123183938.28514                  23441159.000
        25.300
                  93614774.082 5  22555757.297                    22555758.891
                        35.400
 108122746.105 8  84251385.67946  20575074.594                    20575077.246
        50.500          37.200
 118181555.477 7  92089579.84645  22489208.898                    22489214.996
        46.500          34.400
 119395935.453 7  93035696.32945  22720261.359                    22720267.480
        46.700          34.200
 119278027.206 5                  22697861.250
        35.200
 123457739.314 8  96200846.10945  23493225.867                    23493229.203
        48.200          33.300
 129253381.869 5                  24596118.500
        34.000
 116922544.588 5  91108527.30742  22249630.922                    22249633.844
        35.700          16.300
 18  3 13 15 18 40.0000000  0 17R01G19G22G25R10R09R17R18R19R02G12G06
                                G03G32G17G02G14
                  86367593.502 4  20773095.219                    20773097.484
                        29.400
 115834047.359 7  90260299.51845  22042485.523                    22042487.797
        45.000          32.300
 122777108.513 6  95670631.56343  23363744.852                    23363745.660
        41.100          18.600
 115475049.811 7  89980499.26643  21974151.523                    21974156.793
        44.100          23.200
                  85323911.687 5  20579843.938                    20579848.164
                        34.500
                  81883594.906 6  19715356.641                    19715357.652
                        40.000
                  93587953.668 5  22486042.539                    22486044.453
                        35.800
                  82755372.904 6  19932308.016                    19932309.746
                        39.800
                  88713902.452 6  21322449.578                    21322448.664
                        36.600
                  93612208.829 5  22555138.820                    22555141.078
                        35.700
 108123322.823 8  84251835.07446  20575184.008                    20575186.992
        50.200          36.900
 118179842.438 7  92088245.03645  22488882.820                    22488888.934
        46.400          34.600
 119395993.921 7  93035741.90045  22720272.313                    22720278.441
        47.100          34.300
 119280495.629 5                  22698330.711
        35.000
 123461060.265 8  96203433.84745  23493857.586                    23493861.055
        48.300          33.100
 129250568.894 5                  24595582.453
        33.700
 116922985.492 6  91108870.84042  22249714.992                    22249717.617
        37.900          16.900
 18  3 13 15 18 41.0000000  0 17R01G19G22G25R10R09R17R18R19R02G12G06
                                G03G32G17G02G14
                  86368409.564 5  20773290.820                    20773293.906
                        30.900
 115836738.073 7  90262396.18945  22042997.445                    22042999.543
        45.300          32.900
 122778554.248 6  95671758.18743  23364019.391                    23364020.531
        41.900          18.600
 115472837.773 7  89978775.59244  21973730.234                    21973736.016
        44.500          26.300
                  85321942.073 5  20579368.859                    20579373.324
                        32.800
                  81885077.789 6  19715714.008                    19715714.000
                        40.600
                  93591424.308 5  22486877.234                    22486878.543
                        35.700
                  82756200.650 6  19932507.102                    19932508.313
                        40.400
                  88711437.255 6  21321857.359                    21321856.266
                        36.400
                  93609643.997 5  22554520.320                    22554523.496
                        35.800
 108123900.279 8  84252285.03546  20575293.867                    20575296.949
        50.200          37.100
 118178129.956 7  92086910.66345  22488557.047                    22488563.254
        46.800          35.000
 119396053.054 7  93035787.99045  22720283.352                    22720289.539
        47.200          35.000
 119282964.575 6                  22698800.313
        36.800
 123464381.567 8  96206021.86845  23494489.836                    23494493.219
        48.600          33.800
 129247756.126 5                  24595046.445
        34.100
 116923427.077 6  91109214.91442  22249799.289                    22249801.789
        36.600          16.900
 18  3 13 15 18 42.0000000  0 18R01G19G22G25R10R09R16R17R18R19R02G12
                                G06G03G32G17G02G14
                  86369226.394 5  20773487.844                    20773489.840
                        31.400
 115839429.391 7  90264493.31845  22043510.070                    22043511.813
        44.900          32.000
 122780000.624 6  95672885.26543  23364294.719                    23364296.004
        41.700          19.300
 115470626.245 7  89977052.32344  21973309.602                    21973315.230
        44.800          25.200
                  85319972.975 5  20578893.531                    20578898.453
                        32.900
                  81886561.321 6  19716071.359                    19716071.656
                        40.500
                                  23230790.891

                  93594895.265 5  22487711.156                    22487713.109
                        35.800
                  82757029.112 6  19932707.008                    19932708.355
                        40.400
                  88708972.521 6  21321265.172                    21321263.715
                        36.400
                  93607079.564 6  22553902.891                    22553904.945
                        36.200
 108124478.412 8  84252735.51946  20575404.313                    20575407.195
        50.000          37.500
 118176418.031 7  92085576.73245  22488231.375                    22488237.059
        47.600          35.600
 119396112.896 7  93035834.61445  22720295.273                    22720301.281
        47.400          34.200
 119285434.153 6                  22699269.945
        36.700
 123467703.232 8  96208610.18045  23495121.750                    23495125.426
        48.000          34.400
 129244943.609 5                  24594511.789
        34.500
 116923869.336 6  91109559.49642  22249883.773                    22249885.977
        37.500          17.800
 18  3 13 15 18 43.0000000  0 18R01G19G22G25R10R09R16R17R18R19R02G12
                                G06G03G32G17G02G14
                  86370043.945 5  20773684.367                    20773686.781
                        31.800
 115842121.331 7  90266590.92745  22044022.133                    22044023.953
        45.200          33.200
 122781447.586 6  95674012.77543  23364569.484                    23364570.836
        41.400          19.900
 115468415.234 7  89975329.46943  21972888.516                    21972894.309
        44.800          23.500
                  85318004.367 5  20578419.234                    20578423.449
                        32.400
                  81888045.463 6  19716428.320                    19716428.793
                        40.500
                                  23231711.914

                  93598366.567 5  22488545.195                    22488546.492
                        35.200
                  82757858.274 6  19932907.023                    19932908.355
                        39.900
                  88706508.226 6  21320672.195                    21320671.738
                        36.700
                  93604515.532 5  22553284.453                    22553287.180
                        35.700
 108125057.306 8  84253186.60546  20575514.344                    20575516.992
        50.100          37.400
 118174706.731 7  92084243.28045  22487905.336                    22487911.668
        46.900          34.400
 119396173.484 7  93035881.82245  22720306.797                    22720312.555
        47.500          33.800
 119287904.297 6                  22699740.977
        37.300
 123471025.270 7  96211198.78645  23495753.688                    23495757.543
        47.900          34.000
 129242131.258 5                  24593977.344
        35.000
 116924312.216 6  91109904.61642  22249967.297                    22249970.578
        36.600          17.800
 18  3 13 15 18 44.0000000  0 18R01G19G22G25R10R09R16R17R18R19R02G12
                                G06G03G32G17G02G14
                  86370862.250 5  20773881.414                    20773884.258
                        32.900
 115844813.869 7  90268689.00645  22044534.328                    22044536.445
        44.800          32.800
 122782895.154 6  95675140.75143  23364845.305                    23364846.707
        41.100          19.000
 115466204.761 7  89973607.03844  21972467.844                    21972473.586
        45.100          25.900
                  85316036.229 5  20577944.984                    20577948.512
                        32.500
                  81889530.232 6  19716785.602                    19716786.035
                        40.300
                                  23232632.125

                  93601838.211 5  22489379.109                    22489381.633
                        35.900
                  82758688.145 6  19933106.930                    19933108.406
                        39.900
                  88704044.369 6  21320079.969                    21320079.516
                        36.600
                  93601951.864 6  22552667.031                    22552668.867
                        37.100
 108125636.886 8  84253638.22146  20575624.406                    20575627.480
        49.500          37.700
 118172995.950 7  92082910.22945  22487579.648                    22487586.129
        46.700          34.500
 119396234.771 7  93035929.57945  22720318.125                    22720324.336
        47.200          33.100
 119290375.010 6                  22700210.203
        37.300
 123474347.676 7  96213787.67945  23496385.711                    23496389.539
        47.200          34.100
 129239319.096 5                  24593442.211
        35.500
 116924755.838 5  91110250.32742  22250051.883                    22250054.707
        35.700          16.300
 18  3 13 15 18 45.0000000  0 18R01G19G22G25R10R09R16R17R18R19R02G12
                                G06G03G32G17G02G14
                  86371681.270 5  20774077.867                    20774081.184
                        32.200
 115847506.977 7  90270787.53545  22045047.227                    22045048.996
        45.200          33.500
 122784343.342 6  95676269.18143  23365120.680                    23365121.855
        41.400          20.100
 115463994.746 7  89971884.94744  21972047.398                    21972052.969
        45.000          25.800
                  85314068.554 5  20577470.000                    20577474.523
                        31.900
                  81891015.611 6  19717143.859                    19717144.273
                        40.000
                                  23233553.523

                  93605310.164 5  22490213.297                    22490215.133
                        35.100
                  82759518.706 6  19933306.945                    19933308.293
                        39.600
                  88701580.916 6  21319489.148                    21319487.102
                        36.500
                  93599388.574 5  22552050.273                    22552052.328
                        35.900
 108126217.149 8  84254090.38046  20575734.852                    20575737.660
        49.800          37.100
 118171285.744 7  92081577.62745  22487254.500                    22487260.691
        46.400          34.300
 119396296.742 7  93035977.86745  22720329.938                    22720336.223
        46.800          33.800
 119292846.275 6                  22700680.555
        37.800
 123477670.405 7  96216376.82545  23497018.742                    23497021.973
        47.800          33.100
 129236507.190 5                  24592907.328
        35.600
 116925200.034 6  91110596.44242  22250136.477                    22250139.656
        36.100          16.300
 18  3 13 15 18 46.0000000  0 18R01G19G22G25R10R09R16R17R18R19R02G12
                                G06G03G32G17G02G14
                  86372500.989 5  20774274.625                    20774278.270
                        31.900
 115850200.682 7  90272886.52245  22045559.563                    22045561.598
        45.300          34.400
 122785792.072 7  95677398.03343  23365396.797                    23365397.395
        42.000          19.300
 115461785.241 7  89970163.25644  21971626.453                    21971632.445
        45.100          24.600
                  85312101.333 5  20576995.719                    20576999.738
                        31.900
                  81892501.604 6  19717502.023                    19717501.926
                        40.600
                                  23234472.664

                  93608782.408 5  22491045.164                    22491049.191
                        35.900
                  82760349.992 6  19933506.969                    19933508.281
                        40.200
                  88699117.851 6  21318896.148                    21318894.785
                        36.500
                  93596825.672 5  22551432.070                    22551434.469
                        35.800
 108126798.130 8  84254543.09946  20575845.398                    20575848.422
        49.800          37.300
 118169576.076 7  92080245.43545  22486929.172                    22486934.992
        46.600          34.600
 119396359.368 7  93036026.66745  22720341.727                    22720348.027
        46.700          34.200
 119295318.160 6                  22701151.438
        36.900
 123480993.479 7  96218966.23545  23497650.609                    23497654.387
        47.700          33.300
 129233695.406 5                  24592372.328
        35.200
 116925644.892 6  91110943.07342  22250219.758                    22250223.867
        36.500          16.900
 18  3 13 15 18 47.0000000  0 18R01G19G22G25R10R09R16R17R18R19R02G12
                                G06G03G32G17G02G14
                  86373321.478 5  20774472.492                    20774475.738
                        31.900
 115852895.010 7  90274985.99645  22046072.578                    22046074.391
        45.500          34.700
 122787241.480 7  95678527.42843  23365672.258                    23365673.051
        42.200          19.000
 115459576.274 7  89968441.97644  21971206.516                    21971212.355
        45.000          24.300
                  85310134.618 5  20576521.344                    20576525.160
                        32.000
                  81893988.233 6  19717859.727                    19717859.941
                        40.500
                                  23235393.328

                  93612254.973 5  22491880.289                    22491883.242
                        35.800
                  82761182.023 6  19933707.445                    19933708.641
                        40.400
                  88696655.252 6  21318304.109                    21318303.672
                        36.500
                  93594263.208 5  22550814.367                    22550816.641
                        35.400
 108127379.824 8  84254996.36846  20575956.148                    20575958.992
        50.000          37.000
 118167867.009 7  92078913.71245  22486604.023                    22486610.160
        46.500          34.700
 119396422.761 7  93036076.06045  22720354.063                    22720360.176
        46.400          34.100
 119297790.594 6                  22701621.563
        36.600
 123484316.920 7  96221555.91545  23498282.992                    23498286.477
        47.800          33.100
 129230883.845 5                  24591837.461
        35.000
 116926090.431 6  91111290.23742  22250304.602                    22250308.758
        36.300          16.900
 18  3 13 15 18 48.0000000  0 18R01G19G22G25R10R09R16R17R18R19R02G12
                                G06G03G32G17G02G14
                  86374142.665 5  20774670.727                    20774673.063
                        32.100
 115855589.924 7  90277085.92445  22046585.141                    22046587.262
        45.500          34.200
 122788691.437 6  95679657.23643  23365948.266                    23365949.043
        41.400          19.300
 115457367.799 7  89966721.09044  21970786.102                    21970792.113
        45.000          24.700
                  85308168.388 5  20576046.813                    20576050.852
                        31.800
                  81895475.491 6  19718217.344                    19718217.258
                        40.700
                                  23236312.195

                  93615727.857 5  22492716.156                    22492717.750
                        35.600
                  82762014.761 6  19933907.828                    19933909.035
                        40.500
                  88694193.125 6  21317712.805                    21317711.223
                        36.400
                  93591701.146 5  22550197.203                    22550199.180
                        35.600
 108127962.213 8  84255450.17546  20576067.234                    20576070.250
        50.000          37.600
 118166158.489 7  92077582.41145  22486278.938                    22486284.367
        46.700          34.800
 119396486.821 7  93036125.96545  22720366.195                    22720372.184
        46.300          34.000
 119300263.582 6                  22702092.227
        36.900
 123487640.730 7  96224145.88545  23498915.391                    23498919.137
        47.900          33.800
 129228072.482 5                  24591302.664
        35.000
 116926536.590 6  91111637.87642  22250389.625                    22250393.813
        36.000          17.400
 18  3 13 15 18 49.0000000  0 18R01G19G22G25R10R09R16R17R18R19R02G12
                                G06G03G32G17G02G14
                  86374964.636 5  20774868.023                    20774870.785
                        32.300
 115858285.481 7  90279186.36445  22047098.680                    22047099.941
        45.800          34.600
 122790142.034 6  95680787.58643  23366224.625                    23366225.367
        41.800          20.100
 115455159.912 7  89965000.65644  21970366.367                    21970371.879
        45.300          25.900
                  85306202.642 5  20575573.516                    20575576.867
                        31.900
                  81896963.382 6  19718576.039                    19718576.047
                        40.200
                                  23237233.953

                  93619201.040 5  22493551.000                    22493552.688
                        35.400
                  82762848.252 6  19934108.727                    19934109.969
                        40.200
                  88691731.521 6  21317121.672                    21317119.883
                        37.000
                  93589139.559 5  22549579.898                    22549582.086
                        35.400
 108128545.391 8  84255904.60646  20576177.945                    20576180.645
        50.200          37.300
 118164450.589 7  92076251.57745  22485954.023                    22485959.883
        46.900          34.600
 119396551.612 7  93036176.43845  22720378.570                    22720384.578
        46.500          33.800
 119302737.229 6                  22702563.219
        36.600
 123490964.888 7  96226736.12945  23499548.406                    23499551.809
        47.500          32.600
 129225261.419 5                  24590766.898
        34.300
 116926983.484 6  91111986.10742  22250474.609                    22250478.691
        36.200          17.800
 18  3 13 15 18 50.0000000  0 17R01G19G22G25R10R09R17R18R19R02G12G06
                                G03G32G17G02G14
                  86375787.321 5  20775066.070                    20775068.375
                        30.100
 115860981.655 7  90281287.27645  22047611.188                    22047613.105
        45.500          33.700
 122791593.231 6  95681918.39443  23366500.164                    23366501.410
        41.700          19.300
 115452952.494 7  89963280.59044  21969945.938                    21969951.813
        44.700          25.000
                  85304237.395 5  20575098.992                    20575102.613
                        31.700
                  81898451.906 6  19718934.250                    19718934.449
                        39.900
                  93622674.543 5  22494384.922                    22494387.297
                        35.600
                  82763682.436 6  19934309.492                    19934311.391
                        39.800
                  88689270.301 6  21316529.484                    21316528.578
                        36.700
                  93586578.315 5  22548963.242                    22548964.941
                        34.900
 108129129.262 8  84256359.56746  20576288.922                    20576292.090
        50.000          36.900
 118162743.237 7  92074921.18145  22485628.906                    22485635.254
        46.900          35.100
 119396617.118 7  93036227.47645  22720390.883                    22720397.199
        46.400          32.600
 119305211.407 6                  22703033.953
        36.700
 123494289.515 7  96229326.75944  23500180.680                    23500184.148
        45.300          29.600
 129222450.502 5                  24590232.945
        34.700
 116927431.000 6  91112334.87142  22250559.891                    22250563.938
        36.100          16.300
 18  3 13 15 18 51.0000000  0 17R01G19G22G25R10R09R17R18R19R02G12G06
                                G03G32G17G02G14
                  86376610.744 5  20775263.891                    20775267.289
                        30.800
 115863678.404 7  90283388.64345  22048124.836                    22048126.383
        45.600          33.900
 122793045.005 7  95683049.66643  23366776.852                    23366777.758
        42.200          20.100
 115450745.575 7  89961560.91744  21969526.367                    21969532.199
        44.800          24.100
                  85302272.624 5  20574625.133                    20574629.273
                        32.700
                  81899941.040 6  19719293.156                    19719293.137
                        40.100
                  93626148.366 5  22495219.336                    22495221.609
                        35.500
                  82764517.297 6  19934510.688                    19934511.586
                        39.700
                  88686809.561 6  21315937.469                    21315936.621
                        36.900
                  93584017.435 5  22548346.617                    22548348.426
                        34.200
 108129713.840 8  84256815.09546  20576400.352                    20576403.137
        49.600          36.700
 118161036.447 7  92073591.21345  22485304.352                    22485309.820
        47.000          35.500
 119396683.313 7  93036279.04545  22720403.891                    22720410.051
        46.800          34.500
 119307686.135 6                  22703505.023
        36.900
 123497614.405 7  96231917.58144  23500813.766                    23500817.117
        45.300          29.800
 129219639.719 5                  24589697.703
        35.400
 116927879.260 6  91112684.15942  22250645.219                    22250649.070
        37.000          16.300
 18  3 13 15 18 52.0000000  0 17R01G19G22G25R10R09R17R18R19R02G12G06
                                G03G32G17G02G14
                  86377434.935 5  20775461.789                    20775464.820
                        32.000
 115866375.763 7  90285490.47645  22048637.727                    22048639.613
        45.200          33.600
 122794497.397 7  95684181.42743  23367053.242                    23367054.043
        42.200          19.900
 115448539.188 7  89959841.65844  21969106.273                    21969112.297
        44.100          24.700
                  85300308.323 5  20574151.133                    20574155.078
                        32.700
                  81901430.801 6  19719651.836                    19719651.578
                        40.700
                  93629622.542 5  22496053.922                    22496056.816
                        35.600
                  82765352.897 6  19934712.055                    19934713.016
                        40.000
                  88684349.280 6  21315346.055                    21315345.313
                        36.400
                  93581456.889 5  22547729.727                    22547731.359
                        34.800
 108130299.141 8  84257271.18146  20576511.664                    20576514.723
        49.700          37.000
 118159330.243 7  92072261.70345  22484979.336                    22484985.426
        47.300          35.600
 119396750.244 7  93036331.19745  22720416.180                    22720422.352
        47.400          34.100
 119310161.467 5                  22703974.773
        35.900
 123500939.664 7  96234508.69445  23501445.555                    23501449.707
        45.500          31.000
 129216829.185 5                  24589162.445
        33.800
 116928328.076 6  91113033.90742  22250730.484                    22250734.859
        37.700          17.400
 18  3 13 15 18 53.0000000  0 17R01G19G22G25R10R09R17R18R19R02G12G06
                                G03G32G17G02G14
                  86378259.848 5  20775660.109                    20775663.727
                        30.400
 115869073.767 7  90287592.81645  22049151.117                    22049153.277
        45.800          33.600
 122795950.445 7  95685313.66743  23367329.656                    23367330.207
        42.500          19.900
 115446333.348 7  89958122.84044  21968686.617                    21968692.281
        44.400          24.700
                  85298344.507 5  20573677.391                    20573681.238
                        33.400
                  81902921.217 6  19720010.398                    19720010.750
                        40.600
                  93633097.034 6  22496888.992                    22496891.609
                        37.200
                  82766189.248 6  19934913.250                    19934915.035
                        39.800
                  88681889.500 6  21314755.180                    21314754.234
                        36.700
                  93578896.694 5  22547112.313                    22547114.844
                        34.600
 108130885.188 8  84257727.84146  20576622.820                    20576625.934
        50.300          36.700
 118157624.643 7  92070932.66345  22484654.625                    22484660.547
        47.500          35.700
 119396817.936 7  93036383.93845  22720429.008                    22720435.340
        47.100          34.200
 119312637.425 6                  22704446.461
        36.300
 123504265.293 7  96237100.09145  23502079.195                    23502082.746
        46.300          30.600
 129214018.934 5                  24588628.297
        34.000
 116928777.698 6  91113384.26642  22250816.414                    22250820.355
        37.700          16.900
 18  3 13 15 18 54.0000000  0 17R01G19G22G25R10R09R17R18R19R02G12G06
                                G03G32G17G02G14
                  86379085.469 5  20775859.055                    20775861.637
                        30.900
 115871772.343 7  90289695.60245  22049664.781                    22049666.246
        45.100          32.800
 122797404.079 7  95686446.36743  23367606.414                    23367606.563
        42.800          19.600
 115444128.012 7  89956404.39244  21968266.922                    21968272.301
        44.500          26.200
                  85296381.197 5  20573204.094                    20573207.609
                        32.500
                  81904412.251 6  19720369.523                    19720369.410
                        40.600
                  93636571.767 5  22497723.938                    22497726.574
                        33.200
                  82767026.301 6  19935114.766                    19935116.387
                        39.700
                  88679430.130 6  21314164.531                    21314163.102
                        36.900
                  93576336.927 4  22546495.883                    22546498.332
                        29.100
 108131471.919 8  84258185.03646  20576734.586                    20576737.656
        50.100          36.700
 118155919.588 7  92069604.04445  22484330.391                    22484336.582
        47.100          35.900
 119396886.308 7  93036437.22445  22720442.414                    22720448.469
        46.600          33.400
 119315113.922 6                  22704917.094
        36.000
 123507591.316 7  96239691.80045  23502712.234                    23502715.488
        46.400          31.400
 129211208.823 5                  24588093.344
        34.400
 116929227.877 6  91113735.03142  22250902.797                    22250906.387
        37.300          15.600
 18  3 13 15 18 55.0000000  0 17R01G19G22G25R10R09R17R18R19R02G12G06
                                G03G32G17G02G14
                  86379911.819 5  20776057.789                    20776060.445
                        30.900
 115874471.511 7  90291798.84245  22050178.609                    22050180.059
        45.700          33.100
 122798858.287 7  95687579.49643  23367883.375                    23367883.367
        42.900          19.000
 115441923.157 7  89954686.31444  21967847.648                    21967853.086
        44.400          25.800
                  85294418.387 5  20572730.203                    20572734.453
                        32.000
                  81905903.898 6  19720728.875                    19720728.969
                        40.500
                  93640046.852 5  22498559.695                    22498560.898
                        31.800
                  82767864.083 6  19935316.820                    19935318.121
                        39.900
                  88676971.189 6  21313573.219                    21313572.629
                        36.900
                  93573777.608 4  22545880.766                    22545881.035
                        26.300
 108132059.351 8  84258642.77046  20576846.594                    20576849.375
        49.900          37.200
 118154215.092 7  92068275.86245  22484006.445                    22484012.469
        47.100          35.900
 119396955.395 7  93036491.07445  22720455.719                    22720461.320
        47.500          34.700
 119317591.009 6                  22705390.102
        36.400
 123510917.638 7  96242283.74345  23503344.914                    23503348.625
        47.000          32.100
 129208398.957 5                  24587558.172
        33.100
 116929678.717 6  91114086.36042  22250988.578                    22250992.281
        36.300          15.600
 18  3 13 15 18 56.0000000  0 18R01G19G22G25R10R09R16R17R18R19R02G12
                                G06G03G32G17G02G14
                  86380738.931 5  20776256.398                    20776259.758
                        30.200
 115877171.320 7  90293902.58445  22050692.250                    22050693.918
        45.100          33.400
 122800313.115 7  95688713.13843  23368160.523                    23368160.020
        42.400          19.000
 115439718.861 7  89952968.68544  21967427.984                    21967433.707
        44.100          25.800
                  85292456.031 5  20572256.352                    20572261.020
                        33.200
                  81907396.190 6  19721088.016                    19721088.445
                        40.200
                                  23243676.219

                  93643522.262 4  22499395.367                    22499396.602
                        29.700
                  82768702.588 6  19935519.148                    19935520.469
                        40.000
                  88674512.699 6  21312981.844                    21312981.402
                        36.800
                  93571218.795 3  22545264.195                    22545264.801
                        22.100
 108132647.513 8  84259101.07546  20576958.711                    20576961.137
        50.300          37.900
 118152511.207 7  92066948.16545  22483681.883                    22483688.348
        47.500          35.600
 119397025.186 7  93036545.47945  22720468.648                    22720474.770
        46.400          35.300
 119320068.703 5                  22705860.969
        35.500
 123514244.346 7  96244875.98545  23503978.133                    23503981.598
        47.300          32.200
 129205589.220 5                  24587024.125
        33.300
 116930130.245 6  91114438.16642  22251074.664                    22251077.957
        37.800          14.800
 18  3 13 15 18 57.0000000  0 18R01G19G22G25R10R09R16R17R18R19R02G12
                                G06G03G32G17G02G14
                  86381566.787 5  20776455.898                    20776458.160
                        30.300
 115879871.728 7  90296006.78145  22051206.164                    22051207.965
        45.600          32.300
 122801768.615 7  95689847.30543  23368436.672                    23368437.242
        42.500          18.300
 115437515.082 7  89951251.45844  21967008.609                    21967014.559
        44.300          25.500
                  85290494.204 5  20571783.867                    20571788.117
                        32.700
                  81908889.133 6  19721447.352                    19721447.547
                        40.200
                                  23244598.836

                  93646997.985 5  22500230.258                    22500231.086
                        35.000
                  82769541.808 6  19935721.305                    19935722.418
                        39.600
                  88672054.692 6  21312391.906                    21312390.180
                        37.000
                  93568660.338 3  22544645.656                    22544648.789
                        20.900
 108133236.405 8  84259559.94846  20577070.563                    20577073.367
        50.400          37.300
 118150807.922 7  92065620.93645  22483357.828                    22483363.703
        47.600          34.800
 119397095.705 7  93036600.43245  22720481.891                    22720488.289
        46.600          35.100
 119322546.973 6                  22706332.461
        36.500
 123517571.453 7  96247468.52945  23504611.195                    23504615.074
        45.200          30.200
 129202779.710 5                  24586488.953
        34.700
 116930582.522 6  91114790.58642  22251160.313                    22251164.313
        37.900          15.600
 18  3 13 15 18 58.0000000  0 17R01G19G22G25R10R09R17R18R19R02G12G06
                                G03G32G17G02G14
                  86382395.381 4  20776654.875                    20776657.707
                        29.500
 115882572.775 7  90298111.50045  22051719.867                    22051721.797
        46.100          33.400
 122803224.699 7  95690981.92742  23368714.117                    23368714.160
        42.600          17.400
 115435311.844 7  89949534.64644  21966589.398                    21966595.020
        44.600          26.300
                  85288532.846 5  20571310.859                    20571314.559
                        31.900
                  81910382.723 6  19721807.031                    19721807.453
                        40.000
                  93650473.947 5  22501065.430                    22501066.035
                        31.700
                  82770381.758 6  19935923.234                    19935924.340
                        39.600
                  88669597.132 6  21311801.945                    21311800.223
                        36.200
                                  22544028.586

 108133825.991 8  84260019.35746  20577182.789                    20577185.613
        50.000          36.900
 118149105.204 7  92064294.14645  22483033.414                    22483039.766
        47.900          34.900
 119397166.943 7  93036655.95645  22720495.406                    22720501.660
        46.400          33.800
 119325025.834 6                  22706804.727
        37.500
 123520898.985 7  96250061.40444  23505244.859                    23505248.168
        46.300          29.900
 129199970.502 5                  24585954.367
        32.200
 116931035.380 6  91115143.44742  22251246.234                    22251250.336
        37.500          14.800
 18  3 13 15 18 59.0000000  0 18R01G19G22G25R08R10R09R17R18R19R02G12
                                G06G03G32G17G02G14
                  86383224.720 5  20776853.852                    20776857.020
                        30.200
 115885274.419 7  90300216.67445  22052234.203                    22052236.004
        45.200          31.700
 122804681.376 6  95692116.98442  23368991.063                    23368991.426
        41.800          17.800
 115433109.154 7  89947818.25144  21966169.266                    21966175.988
        44.500          26.000
                                  22487281.477

                  85286572.003 5  20570837.406                    20570841.660
                        32.400
                  81911876.924 6  19722166.648                    19722166.703
                        40.000
                  93653950.313 5  22501899.508                    22501902.016
                        34.200
                  82771222.401 6  19936125.867                    19936126.844
                        40.000
                  88667139.983 6  21311209.375                    21311208.488
                        36.800
                                  22543412.414

 108134416.299 8  84260479.34046  20577295.000                    20577297.988
        49.600          37.100
 118147403.110 7  92062967.84345  22482709.633                    22482715.875
        46.700          34.300
 119397238.914 7  93036712.03845  22720509.750                    22720515.453
        46.300          33.700
 119327505.276 6                  22707277.023
        36.800
 123524226.801 7  96252654.48144  23505877.797                    23505881.184
        45.600          28.400
 129197161.435 5                  24585419.844
        32.200
 116931488.951 6  91115496.88542  22251332.148                    22251336.746
        36.600          14.800
 18  3 13 15 19  0.0000000  0 18R01G19G22G25R08R10R09R17R18R19R02G12
                                G06G03G32G17G02G14
                  86384054.833 5  20777054.125                    20777057.195
                        30.000
 115887976.747 7  90302322.39144  22052748.055                    22052750.492
        43.900          29.100
 122806138.761 7  95693252.59043  23369268.172                    23369268.223
        42.100          19.000
 115430907.052 7  89946102.32144  21965750.672                    21965757.105
        43.900          24.700
                                  22488078.570

                  85284611.695 5  20570364.195                    20570368.602
                        31.400
                  81913371.825 6  19722526.969                    19722527.242
                        40.200
                  93657427.117 5  22502734.531                    22502736.922
                        33.500
                  82772063.851 6  19936328.438                    19936329.629
                        40.400
                  88664683.391 6  21310619.055                    21310619.129
                        36.300
                                  22542796.773

 108135007.419 8  84260939.96346  20577407.828                    20577410.680
        50.000          37.900
 118145701.659 7  92061642.03145  22482385.750                    22482391.930
        46.600          35.000
 119397311.652 7  93036768.72345  22720523.227                    22720529.148
        45.800          34.100
 119329985.401 6                  22707748.492
        37.300
 123527555.048 7  96255247.90344  23506511.242                    23506515.227
        46.000          27.400
 129194352.651 5                  24584884.625
        32.200
 116931943.276 6  91115850.88142  22251419.555                    22251423.543
        37.300          16.300
 18  3 13 15 19  1.0000000  0 19R01G19G22G25R08R10R09R16R17R18R19R02
                                G12G06G03G32G17G02G14
                  86384885.699 5  20777253.531                    20777256.438
                        31.200
 115890679.665 7  90304428.57545  22053262.508                    22053264.867
        43.000          30.200
 122807596.723 6  95694388.67243  23369546.242                    23369545.828
        41.400          18.600
 115428705.449 7  89944386.79744  21965331.523                    21965337.879
        43.700          24.500
                                  22488874.523

                  85282651.865 5  20569892.258                    20569896.016
                        31.800
                  81914867.345 6  19722886.898                    19722887.156
                        40.700
                  96590788.80213  23248280.000                    23248283.449
                        22.700
                  93660904.196 5  22503570.086                    22503572.332
                        34.800
                  82772906.007 6  19936530.922                    19936532.836
                        40.400
                  88662227.231 6  21310029.391                    21310028.137
                        36.400
                                  22542180.883

 108135599.225 8  84261401.10846  20577520.148                    20577523.328
        49.800          37.000
 118144000.766 7  92060316.64645  22482062.234                    22482068.273
        46.800          34.900
 119397385.101 7  93036825.96745  22720537.164                    22720543.426
        46.100          33.500
 119332466.055 6                  22708219.961
        36.500
 123530883.687 7  96257841.63644  23507144.836                    23507148.004
        45.300          28.200
 129191544.118 5                  24584350.219
        32.800
 116932398.179 6  91116205.29242  22251505.539                    22251509.898
        37.900          14.800
 18  3 13 15 19  2.0000000  0 18R01G19G22G25R08R10R09R17R18R19R02G12
                                G06G03G32G17G02G14
                  86385717.355 5  20777454.602                    20777456.902
                        31.500
 115893383.251 7  90306535.27445  22053777.031                    22053779.246
        43.100          30.400
 122809055.352 6  95695525.27143  23369823.219                    23369823.266
        41.500          18.600
 115426504.396 7  89942671.70144  21964912.641                    21964919.082
        43.600          24.700
                                  22489670.172

                  85280692.549 5  20569419.398                    20569423.445
                        31.700
                  81916363.521 6  19723247.352                    19723247.766
                        40.600
                  93664381.632 5  22504405.992                    22504407.227
                        33.500
                  82773748.921 6  19936733.813                    19936735.680
                        40.000
                  88659771.548 6  21309439.547                    21309438.320
                        36.200
                                  22541565.711

 108136191.775 8  84261862.83446  20577632.805                    20577635.777
        50.000          37.300
 118142300.472 7  92058991.73545  22481738.656                    22481744.820
        47.200          34.300
 119397459.257 7  93036883.75445  22720551.102                    22720557.242
        46.700          34.300
 119334947.310 6                  22708692.977
        37.300
 123534212.675 7  96260435.65844  23507778.125                    23507781.594
        44.300          26.900
 129188735.839 5                  24583815.773
        32.300
 116932853.785 6  91116560.28042  22251592.250                    22251596.387
        37.800          15.600
 18  3 13 15 19  3.0000000  0 18R01G19G22G25R08R10R09R17R18R19R02G12
                                G06G03G32G17G02G14
                  86386549.727 5  20777654.688                    20777656.828
                        31.600
 115896087.405 7  90308642.41544  22054291.555                    22054293.590
        42.400          29.600
 122810514.521 7  95696662.29742  23370101.375                    23370100.801
        42.100          17.800
 115424303.844 7  89940957.00144  21964493.727                    21964500.125
        43.600          24.400
                                  22490466.508

                  85278733.717 5  20568947.102                    20568951.336
                        32.900
                  81917860.284 6  19723607.422                    19723608.082
                        40.500
                  93667859.324 5  22505242.492                    22505243.414
                        33.700
                  82774592.500 6  19936937.133                    19936938.734
                        40.200
                  88657316.261 6  21308849.336                    21308848.414
                        36.500
                                  22540949.180

 108136785.019 8  84262325.08946  20577745.555                    20577748.770
        50.400          37.500
 118140600.736 7  92057667.26745  22481415.250                    22481421.703
        47.200          34.900
 119397534.126 7  93036942.09845  22720565.648                    22720571.770
        46.600          34.400
 119337429.166 6                  22709164.922
        36.100
 123537542.014 7  96263029.96144  23508411.797                    23508415.148
        44.400          27.300
 129185927.701 5                  24583281.148
        32.200
 116933310.044 6  91116915.80842  22251678.758                    22251683.480
        37.900          15.600
 18  3 13 15 19  4.0000000  0 18R01G19G22G25R08R10R09R17R18R19R02G12
                                G06G03G32G17G02G14
                  86387382.769 5  20777855.102                    20777857.727
                        31.500
 115898792.119 7  90310749.98845  22054806.406                    22054808.465
        43.900          31.500
 122811974.285 6  95697799.77142  23370378.367                    23370378.438
        41.800          16.900
 115422103.787 7  89939242.68543  21964075.203                    21964082.352
        43.800          22.000
                  93675323.01714  22491260.969                    22491264.953
                        29.500
                  85276775.384 5  20568475.086                    20568478.906
                        31.700
                  81919357.659 6  19723967.867                    19723968.504
                        39.800
                  93671337.352 5  22506077.914                    22506079.555
                        35.700
                  82775436.764 6  19937140.336                    19937142.102
                        39.300
                  88654861.362 5  21308258.484                    21308257.703
                        35.800
                                  22540334.141

 108137378.947 8  84262787.87346  20577858.656                    20577861.512
        49.800          37.500
 118138901.531 7  92056343.20545  22481092.008                    22481098.063
        47.300          35.300
 119397609.661 7  93037000.96145  22720580.172                    22720585.945
        46.800          34.800
 119339911.497 6                  22709637.508
        37.900
 123540871.669 7  96265624.50544  23509044.594                    23509048.934
        42.800          25.800
 129183119.749 5                  24582746.469
        32.900
 116933766.939 6  91117271.82142  22251765.859                    22251770.293
        38.200          17.400
 18  3 13 15 19  5.0000000  0 18R01G19G22G25R08R10R09R17R18R19R02G12
                                G06G03G32G17G02G14
                  86388216.555 5  20778055.609                    20778057.781
                        31.400
 115901497.539 7  90312858.08845  22055320.992                    22055322.695
        46.200          35.300
 122813434.684 7  95698937.75843  23370656.633                    23370656.480
        42.600          18.600
 115419904.234 7  89937528.73344  21963656.781                    21963663.051
        43.900          24.100
                  93678639.71014  22492060.367                    22492061.621
                        29.100
                  85274817.521 5  20568002.828                    20568006.152
                        31.900
                  81920855.688 6  19724328.336                    19724328.805
                        39.900
                  93674815.651 5  22506913.422                    22506915.035
                        33.300
                  82776281.744 6  19937344.109                    19937345.145
                        38.700
                  88652406.997 5  21307668.602                    21307667.348
                        35.800
                                  22539718.727

 108137973.621 8  84263251.25346  20577972.117                    20577974.801
        50.200          37.400
 118137202.943 7  92055019.64445  22480768.922                    22480774.953
        47.500          35.400
 119397685.963 7  93037060.42545  22720594.875                    22720600.555
        46.200          34.800
 119342394.530 6                  22710110.266
        37.700
 123544201.642 7  96268219.28745  23509679.164                    23509682.219
        47.200          32.400
 129180311.988 5                  24582212.539
        33.900
 116934224.535 6  91117628.42742  22251853.078                    22251856.898
        37.100          16.900
 18  3 13 15 19  6.0000000  0 17R01G19G22G25R08R10R09R17R18R19G12G06
                                G03G32G17G02G14
                  86389051.079 5  20778256.883                    20778259.230
                        31.900
 115904203.486 7  90314966.59845  22055835.953                    22055837.898
        45.700          33.600
 122814895.689 6  95700076.20543  23370935.297                    23370934.516
        41.400          19.300
 115417705.209 7  89935815.21644  21963238.961                    21963245.020
        43.900          24.900
                  93681956.833 4  22492856.422                    22492857.551
                        28.500
                  85272860.156 5  20567531.258                    20567534.008
                        32.300
                  81922354.317 6  19724689.492                    19724689.961
                        39.900
                  93678294.266 3  22507750.063                    22507751.066
                        20.900
                  82777127.447 6  19937547.609                    19937549.078
                        39.400
                  88649953.051 6  21307080.063                    21307078.410
                        36.200
 108138568.988 8  84263715.17046  20578085.328                    20578088.238
        50.300          37.500
 118135504.926 7  92053696.51945  22480445.875                    22480452.148
        47.300          35.400
 119397762.860 7  93037120.35445  22720608.820                    22720615.035
        47.500          34.600
 119344878.027 6                  22710581.672
        37.000
 123547532.042 8  96270814.42046  23510312.852                    23510316.508
        48.700          36.100
 129177504.502 5                  24581678.547
        33.200
 116934682.785 6  91117985.51342  22251940.617                    22251944.570
        37.800          16.300
 18  3 13 15 19  7.0000000  0 17R01G19G22G25R08R10R09R17R18R19G12G06
                                G03G32G17G02G14
                  86389886.378 5  20778456.352                    20778459.492
                        31.600
 115906910.070 7  90317075.60845  22056351.281                    22056353.094
        44.500          34.000
 122816357.303 6  95701215.08643  23371212.625                    23371212.691
        41.200          18.300
 115415506.771 7  89934102.15544  21962820.633                    21962826.691
        43.900          26.300
                  93685274.342 4  22493653.531                    22493653.844
                        29.600
                  85270903.299 5  20567059.180                    20567062.363
                        31.800
                  81923853.629 6  19725050.219                    19725050.320
                        39.800
                                  22508584.078

                  82777973.954 6  19937751.703                    19937753.168
                        39.200
                  88647499.611 6  21306490.031                    21306488.367
                        36.200
 108139165.115 8  84264179.68946  20578198.711                    20578201.984
        50.000          36.500
 118133807.528 7  92052373.87145  22480122.602                    22480128.652
        47.900          35.100
 119397840.568 7  93037180.88844  22720623.867                    22720629.855
        44.600          26.000
 119347362.216 5                  22711055.102
        35.200
 123550862.871 8  96273409.89245  23510946.523                    23510950.324
        49.000          35.800
 129174697.148 5                  24581145.391
        33.000
 116935141.785 6  91118343.19442  22252027.930                    22252031.809
        36.100          16.900
 18  3 13 15 19  8.0000000  0 18R01G19G22G25R08R10R09R17R18R19G31G12
                                G06G03G32G17G02G14
                  86390722.341 5  20778658.320                    20778660.480
                        33.500
 115909617.153 7  90319185.03545  22056866.648                    22056868.148
        44.600          31.900
 122817819.501 6  95702354.39743  23371491.203                    23371490.719
        40.800          20.400
 115413308.717 7  89932389.39044  21962402.188                    21962408.336
        45.200          27.500
                  93688592.091 5  22494450.172                    22494450.582
                        30.100
                  85268946.896 5  20566586.648                    20566589.930
                        33.100
                  81925353.506 6  19725412.188                    19725411.688
                        39.900
                  93685252.44915  22509419.297                    22509423.973
                        32.600
                  82778821.116 6  19937955.281                    19937957.355
                        39.800
                  88645046.544 6  21305898.891                    21305898.867
                        36.700
 123102674.06615                  23425635.969
        30.100
 108139761.897 8  84264644.70946  20578312.641                    20578314.754
        50.700          37.000
 118132110.677 7  92051051.64946  22479799.781                    22479805.395
        47.400          36.600
 119397918.949 7  93037241.94945  22720638.609                    22720644.695
        44.900          30.200
 119349846.722 5                  22711527.070
        34.800
 123554193.919 8  96276005.53845  23511580.430                    23511583.984
        48.000          32.600
 129171890.023 5                  24580611.063
        34.800
 116935601.395 6  91118701.35942  22252115.414                    22252118.938
        36.700          16.900
 18  3 13 15 19  9.0000000  0 18R01G19G22G25R08R10R09R17R18R19G31G12
                                G06G03G32G17G02G14
                  86391558.966 4  20778858.664                    20778862.418
                        29.900
 115912324.966 7  90321295.06145  22057381.453                    22057383.258
        43.500          31.600
 122819282.312 6  95703494.24943  23371769.531                    23371769.055
        40.200          19.900
 115411111.323 7  89930677.13243  21961983.750                    21961990.203
        43.800          23.900
                  93691910.354 4  22495247.125                    22495247.129
                        25.100
                  85266990.978 5  20566115.477                    20566118.746
                        32.200
                  81926854.024 6  19725772.070                    19725773.176
                        40.400
                  93688731.96815  22510255.766                    22510258.676
                        33.600
                  82779669.009 6  19938159.750                    19938161.441
                        39.900
                  88642593.997 6  21305310.422                    21305309.035
                        36.500
 123099866.08015                  23425101.375
        33.000
 108140359.403 8  84265110.29546  20578426.508                    20578429.117
        51.000          37.700
 118130414.414 7  92049729.88645  22479476.953                    22479483.605
        46.300          33.700
 119397998.070 7  93037303.65045  22720653.398                    22720659.754
        46.300          32.100
 119352332.231 5                  22712000.258
        33.400
 123557525.438 7  96278601.54745  23512214.203                    23512218.113
        46.900          32.400
 129169083.197 5                  24580077.445
        34.400
 116936061.671 6  91119060.00842  22252202.492                    22252206.637
        37.500          16.300
 18  3 13 15 19 10.0000000  0 18R01G19G22G25R08R10R09R17R18R19G31G12
                                G06G03G32G17G02G14
                  86392396.366 5  20779060.023                    20779063.352
                        31.500
 115915033.321 7  90323405.49245  22057897.422                    22057899.270
        42.500          31.000
 122820745.697 6  95704634.54842  23372048.648                    23372047.664
        41.600          16.900
 115408914.364 7  89928965.21544  21961565.672                    21961572.066
        44.300          26.100
                  93695228.841 4  22496044.539                    22496043.621
                        26.800
                  85265035.543 5  20565644.367                    20565647.031
                        33.000
                  81928355.134 6  19726134.219                    19726134.590
                        39.500
                  93692211.836 5  22511093.016                    22511094.813
                        33.300
                  82780517.602 6  19938364.461                    19938365.172
                        39.700
                  88640141.862 6  21304721.109                    21304719.902
                        36.400
 123097058.815 4                  23424566.289
        29.600
 108140957.594 8  84265576.40946  20578540.094                    20578542.668
        51.000          36.800
 118128718.710 7  92048408.55145  22479154.422                    22479160.621
        47.100          34.200
 119398077.881 7  93037365.87145  22720668.703                    22720675.199
        46.600          33.300
 119354817.996 6                  22712474.406
        37.100
 123560857.283 7  96281197.78645  23512847.883                    23512851.996
        46.300          31.900
 129166276.475 5                  24579542.578
        34.200
 116936522.618 6  91119419.14642  22252291.930                    22252294.652
        38.300          15.600
 18  3 13 15 19 11.0000000  0 18R01G19G22G25R08R10R09R17R18R19G31G12
                                G06G03G32G17G02G14
                  86393234.468 5  20779262.438                    20779264.996
                        31.400
 115917742.251 7  90325516.35145  22058412.578                    22058414.402
        42.800          31.200
 122822209.681 7  95705775.32142  23372327.063                    23372326.352
        42.000          16.900
 115406717.860 7  89927253.67043  21961147.688                    21961154.000
        45.300          23.200
                  93698547.827 4  22496839.742                    22496840.934
                        29.300
                  85263080.593 5  20565172.828                    20565175.441
                        31.400
                  81929856.903 6  19726495.438                    19726496.742
                        39.900
                  93695692.074 5  22511929.914                    22511931.219
                        33.300
                  82781366.896 6  19938568.719                    19938569.918
                        39.900
                  88637690.152 6  21304132.313                    21304130.559
                        36.100
 123094251.802 5                  23424031.641
        32.800
 108141556.507 8  84266043.08246  20578653.898                    20578656.809
        50.800          37.600
 118127023.555 7  92047087.64845  22478831.664                    22478837.988
        47.100          35.100
 119398158.407 7  93037428.63645  22720684.242                    22720690.313
        46.400          33.100
 119357304.435 6                  22712946.867
        36.400
 123564189.446 7  96283794.26045  23513482.961                    23513485.813
        46.900          33.000
 129163469.953 5                  24579009.172
        34.800
 116936984.143 6  91119778.74042  22252378.852                    22252382.660
        39.200          16.900
 18  3 13 15 19 12.0000000  0 17R01G19G22G25R10R09R17R18R19G31G12G06
                                G03G32G17G02G14
                  86394073.395 4  20779463.313                    20779466.875
                        28.200
 115920452.57116                  22058928.617
        38.100
 122823674.352 7  95706916.61542  23372605.539                    23372604.844
        43.100          17.800
 115404521.904 7  89925542.54044  21960729.680                    21960736.195
        46.300          28.500
                  85261126.164 5  20564701.063                    20564704.168
                        32.900
                  81931359.287 6  19726857.570                    19726858.180
                        39.700
                  93699172.629 6  22512766.023                    22512767.867
                        37.200
                  82782216.912 6  19938773.172                    19938775.168
                        39.500
                  88635238.908 6  21303542.047                    21303541.828
                        36.000
 123091445.017 6                  23423497.898
        41.600
 108142156.144 8  84266510.33746  20578768.211                    20578770.770
        51.700          38.300
 118125329.028 7  92045767.24645  22478509.117                    22478515.539
        46.600          34.200
 119398239.662 7  93037491.93045  22720699.656                    22720705.816
        46.400          35.100
 119359791.230 6                  22713419.961
        37.200
 123567522.028 7  96286391.02343  23514117.016                    23514119.977
        42.200          22.900
 129160663.772 5                  24578474.523
        35.200
 116937446.458 6  91120138.97842  22252466.531                    22252470.352
        40.900          17.800
 18  3 13 15 19 13.0000000  0 18R01G19G22G25R10R09R17R18R19G31R02G12
                                G06G03G32G17G02G14
                  86394913.053 5  20779666.375                    20779668.918
                        30.600
 115923162.130 6  90329739.60054  22059444.578                    22059445.195
        40.800          27.800
 122825139.566 7  95708058.37843  23372884.500                    23372883.594
        42.900          19.000
 115402326.515 8  89923831.86245  21960312.273                    21960318.777
        49.100          34.500
                  85259172.249 5  20564230.148                    20564232.926
                        34.400
                  81932862.316 6  19727219.875                    19727219.512
                        39.400
                  93702653.480 6  22513601.898                    22513603.309
                        37.300
                  82783067.658 6  19938978.461                    19938980.031
                        38.300
                  88632788.105 6  21302953.211                    21302952.668
                        37.600
 123088638.718 6                  23422962.969
        37.900
                  93527794.26015  22534795.273                    22534796.961
                        32.900
 108142756.486 8  84266978.14346  20578882.570                    20578885.355
        51.000          36.700
 118123635.051 8  92044447.25846  22478186.805                    22478192.586
        48.600          39.300
 119398321.594 7  93037555.76545  22720715.195                    22720721.453
        47.200          35.800
 119362278.694 6                  22713894.172
        41.300
 123570854.878 7  96288987.99745  23514750.656                    23514754.176
        46.500          30.600
 129157857.654 5                  24577940.664
        34.600
 116937909.022 6  91120499.42742  22252556.109                    22252558.512
        36.500          17.400
 18  3 13 15 19 14.0000000  0 18R01G19G22G25R10R09R17R18R19G31R02G12
                                G06G03G32G17G02G14
                  86395753.419 4  20779868.672                    20779871.594
                        27.800
 115925872.776 6  90331851.78843  22059959.602                    22059961.406
        40.200          22.200
 122826605.448 6  95709200.58143  23373163.242                    23373162.574
        41.500          19.900
 115400131.649 7  89922121.57745  21959894.445                    21959900.926
        47.800          32.700
                  85257218.670 4  20563759.055                    20563761.637
                        29.100
                  81934365.958 6  19727581.758                    19727581.980
                        39.400
                  93706134.578 6  22514437.758                    22514439.961
                        37.400
                  82783919.150 6  19939183.820                    19939184.805
                        37.700
                  88630337.781 6  21302365.078                    21302363.152
                        37.200
 123085832.748 6                  23422429.688
        37.700
                  93525242.53315  22534181.133                    22534184.102
                        31.000
 108143357.568 8  84267446.50746  20578996.508                    20578999.406
        51.400          36.900
 118121941.670 7  92043127.72044  22477864.563                    22477870.848
        42.500          25.500
 119398404.246 7  93037620.16145  22720730.578                    22720736.977
        46.300          34.100
 119364767.41515                  22714368.234
        30.500
 123574188.180 7  96291585.34345  23515384.813                    23515388.410
        46.600          34.300
 129155051.884 5                  24577405.969
        34.900
 116938372.672 7  91120860.68144  22252642.922                    22252646.582
        44.600          27.300
 18  3 13 15 19 15.0000000  0 17R01G19G22G25R10R09R17R18R19G31R02G12
                                G06G03G17G02G14
                  86396594.529 4  20780070.609                    20780073.691
                        27.100
 115928584.173 7  90333964.55445  22060475.813                    22060477.137
        45.100          32.600
 122828071.845 7  95710343.23843  23373442.281                    23373441.500
        42.600          19.600
 115397937.307 7  89920411.68745  21959476.383                    21959482.840
        47.600          31.500
                  85255265.701 4  20563287.797                    20563289.977
                        28.700
                  81935870.232 6  19727942.875                    19727943.855
                        39.300
                  93709615.988 5  22515273.297                    22515276.121
                        35.600
                  82784771.296 6  19939388.781                    19939390.410
                        39.500
                  88627887.952 6  21301775.992                    21301774.598
                        38.200
 123083027.224 6                  23421896.148
        39.400
                  93522690.68915  22533566.398                    22533568.234
                        30.200
 108143959.313 8  84267915.40046  20579111.242                    20579113.898
        51.700          37.200
 118120248.977 5  92041808.74543  22477543.047                    22477548.691
        35.200          19.900
 119398487.589 7  93037685.10145  22720746.875                    22720753.363
        47.000          34.300
 123577521.829 7  96294183.02345  23516019.641                    23516023.109
        47.000          33.000
 129152246.340 5                  24576872.867
        34.200
 116938836.882 7  91121222.40844  22252731.484                    22252734.699
        44.400          27.600
 18  3 13 15 19 16.0000000  0 17R01G19G22G25R10R09R17R18R19G31R02G12
                                G06G03G17G02G14
                  86397436.370 5  20780273.813                    20780276.129
                        30.600
 115931296.123 7  90336077.71645  22060992.141                    22060993.359
        45.400          33.400
 122829538.867 6  95711486.31643  23373721.242                    23373720.527
        41.700          19.600
 115395743.444 7  89918702.17245  21959059.297                    21959065.555
        47.800          31.600
                  85253313.188 4  20562816.008                    20562818.941
                        29.000
                  81937375.124 6  19728306.625                    19728306.430
                        39.400
                  93713097.617 5  22516109.523                    22516113.313
                        34.700
                  82785624.100 6  19939594.531                    19939595.309
                        39.800
                  88625438.464 6  21301187.672                    21301186.660
                        38.400
 123080221.951 6                  23421362.258
        40.200
                  93520139.757 5  22532952.508                    22532953.969
                        30.100
 108144561.803 8  84268384.89146  20579225.805                    20579228.863
        51.100          36.600
 118118556.831 5  92040490.21843  22477219.875                    22477226.418
        33.800          19.000
 119398571.630 7  93037750.61245  22720762.906                    22720769.270
        47.200          34.400
 123580855.802 7  96296780.95845  23516654.359                    23516657.777
        47.500          32.600
 129149440.861 6                  24576339.094
        36.500
 116939301.768 7  91121584.63644  22252820.125                    22252823.492
        45.300          28.700
 18  3 13 15 19 17.0000000  0 17R01G19G22G25R10R09R17R18R19G31R02G12
                                G06G03G17G02G14
                  86398278.927 5  20780475.367                    20780478.004
                        30.300
 115934008.878 5  90338191.55643  22061508.375                    22061509.668
        35.900          20.400
 122831006.574 6  95712630.01343  23374000.508                    23373999.895
        41.600          19.300
 115393550.122 7  89916993.08645  21958641.641                    21958648.039
        46.600          31.300
                  85251361.188 4  20562345.438                    20562348.527
                        28.800
                  81938880.688 6  19728668.750                    19728668.645
                        40.000
                  93716579.729 6  22516946.805                    22516949.813
                        37.000
                  82786477.787 6  19939799.820                    19939801.230
                        37.900
                  88622989.554 6  21300597.617                    21300597.684
                        36.800
 123077417.112 6  95904393.12053  23420828.164                    23420832.820
        39.200          19.300
                  93517589.257 5  22532337.258                    22532339.676
                        32.200
 108145165.045 8  84268854.94646  20579340.352                    20579343.656
        50.800          37.600
 118116865.013 7  92039171.88745  22476898.578                    22476904.578
        46.200          33.300
 119398656.468 7  93037816.72345  22720779.055                    22720785.395
        47.200          33.700
 123584190.096 8  96299379.11945  23517288.273                    23517292.145
        48.000          34.600
 129146635.582 5                  24575805.063
        34.200
 116939767.338 7  91121947.41044  22252908.828                    22252911.883
        45.800          28.900
 18  3 13 15 19 18.0000000  0 17R01G19G22G25R10R09R17R18R19G31R02G12
                                G06G03G17G02G14
                  86399122.279 4  20780679.148                    20780681.098
                        29.700
 115936722.171 7  90340305.84744  22062024.789                    22062025.816
        42.000          28.900
 122832474.881 7  95713774.16143  23374279.797                    23374279.328
        42.000          20.100
 115391357.337 7  89915284.42745  21958224.867                    21958230.680
        47.300          31.100
                  85249409.680 4  20561875.719                    20561877.777
                        27.700
                  81940386.847 6  19729031.586                    19729031.480
                        39.800
                  93720062.070 6  22517784.477                    22517786.051
                        37.200
                  82787332.104 6  19940005.570                    19940006.504
                        38.600
                  88620541.030 6  21300009.477                    21300009.000
                        37.000
 123074612.608 6  95902207.78943  23420294.258                    23420298.988
        38.100          19.000
                  93515039.167 5  22531723.266                    22531725.320
                        33.900
 108145768.973 8  84269325.54646  20579455.336                    20579458.484
        50.800          37.300
 118115173.966 7  92037854.18845  22476576.523                    22476583.023
        47.000          35.400
 119398741.941 7  93037883.32445  22720795.461                    22720801.004
        47.900          34.400
 123587524.783 7  96301977.57444  23517923.352                    23517926.742
        44.100          26.100
 129143830.576 5                  24575270.820
        35.000
 116940233.506 7  91122310.62044  22252997.016                    22253000.574
        44.900          28.500
 18  3 13 15 19 19.0000000  0 18R01G19G22G25R10R09R17R18R19G31R02G12
                                G06G03G32G17G02G14
                  86399966.407 4  20780881.805                    20780884.355
                        28.300
 115939436.016 6  90342420.54744  22062541.000                    22062542.453
        41.300          27.000
 122833943.746 7  95714918.71343  23374559.398                    23374558.852
        43.000          19.300
 115389165.142 8  89913576.22945  21957807.680                    21957813.727
        48.400          33.300
                  85247458.738 5  20561405.125                    20561407.023
                        31.600
                  81941893.669 6  19729394.031                    19729394.113
                        39.900
                  93723544.777 5  22518621.242                    22518623.063
                        33.600
                  82788187.216 6  19940211.102                    19940212.953
                        39.300
                  88618093.007 5  21299420.703                    21299420.734
                        35.900
 123071808.428 6  95900022.69243  23419760.594                    23419765.609
        38.300          18.600
                  93512489.521 5  22531108.172                    22531111.121
                        32.600
 108146373.652 8  84269796.72746  20579570.734                    20579573.289
        51.800          37.500
 118113483.562 7  92036536.99946  22476255.141                    22476261.133
        46.500          36.600
 119398828.189 7  93037950.54445  22720811.508                    22720817.910
        47.600          34.900
 119377219.44516                  22716736.656
        40.500
 123590859.911 7  96304576.37744  23518557.164                    23518561.305
        46.500          29.100
 129141025.855 5                  24574737.313
        33.900
 116940700.407 7  91122674.38444  22253086.250                    22253089.684
        43.700          24.700
 18  3 13 15 19 20.0000000  0 18R01G19G22G25R10R09R17R18R19G31R02G12
                                G06G03G32G17G02G14
                  86400811.296 5  20781085.102                    20781087.617
                        31.100
 115942150.469 7  90344535.70645  22063057.469                    22063058.715
        42.900          30.000
 122835413.268 7  95716063.81243  23374838.977                    23374838.449
        42.800          19.600
 115386973.437 7  89911868.41145  21957390.477                    21957396.570
        47.300          32.100
                  85245508.198 5  20560933.422                    20560936.621
                        32.800
                  81943401.102 6  19729757.320                    19729757.328
                        39.800
                  93727027.838 5  22519459.453                    22519459.926
                        35.800
                  82789042.992 6  19940417.625                    19940418.918
                        39.000
                  88615645.425 6  21298833.445                    21298832.344
                        36.200
 123069004.627 5  95897837.88642  23419227.516                    23419231.453
        35.800          17.800
                  93509940.256 5  22530495.195                    22530496.457
                        33.400
 108146979.019 8  84270268.42946  20579685.852                    20579688.793
        50.800          36.300
 118111793.679 7  92035220.21546  22475933.242                    22475939.730
        46.800          36.600
 119398915.156 7  93038018.31745  22720827.984                    22720834.520
        47.500          35.000
 119379711.158 6                  22717210.711
        40.300
 123594195.378 7  96307175.41844  23519192.313                    23519195.977
        45.400          27.500
 129138221.281 5                  24574203.813
        33.200
 116941167.957 6  91123038.64743  22253175.773                    22253178.617
        40.100          20.600
 18  3 13 15 19 21.0000000  0 19R01G19G22G25R10R09R16R17R18R19G31R02
                                G12G06G03G32G17G02G14
                  86401656.906 4  20781288.695                    20781291.699
                        28.300
 115944865.471 7  90346651.29344  22063574.461                    22063575.758
        42.400          28.500
 122836883.400 7  95717209.37443  23375119.000                    23375118.492
        42.500          19.600
 115384782.218 7  89910160.99645  21956973.344                    21956979.719
        46.800          32.100
                  85243558.151 5  20560464.156                    20560466.156
                        31.400
                  81944909.146 6  19730120.227                    19730120.043
                        39.500
                                  23266703.242

                  93730511.223 6  22520295.375                    22520296.570
                        36.500
                  82789899.482 6  19940623.719                    19940625.438
                        39.000
                  88613198.280 6  21298245.773                    21298243.957
                        36.300
 123066201.145 5  95895653.48342  23418695.102                    23418698.180
        35.600          15.600
                  93507391.350 5  22529881.063                    22529882.668
                        33.500
 108147585.092 8  84270740.68346  20579801.133                    20579803.984
        50.800          37.100
 118110104.363 7  92033903.86746  22475612.031                    22475618.094
        47.800          37.300
 119399002.773 7  93038086.59145  22720845.148                    22720851.168
        47.600          34.900
 119382203.326 6                  22717684.875
        40.400
 123597531.173 7  96309774.71944  23519827.859                    23519830.672
        45.800          25.800
 129135416.956 5                  24573669.242
        32.400
 116941636.159 6  91123403.45043  22253264.359                    22253267.910
        40.400          20.400
 18  3 13 15 19 22.0000000  0 19R01G19G22G25R10R09R16R17R18R19G31R02
                                G12G06G03G32G17G02G14
                  86402503.240 4  20781493.133                    20781494.957
                        28.300
 115947581.124 7  90348767.37844  22064090.961                    22064092.387
        42.300          27.600
 122838354.059 7  95718355.30643  23375399.078                    23375398.176
        42.400          19.300
 115382591.496 7  89908453.93745  21956556.500                    21956562.367
        47.100          31.800
                  85241608.513 5  20559993.672                    20559996.199
                        30.300
                  81946417.803 6  19730483.617                    19730483.426
                        39.300
                                  23267625.125

                  93733994.908 5  22521131.359                    22521133.926
                        33.900
                  82790756.682 6  19940830.469                    19940831.852
                        38.600
                  88610751.553 5  21297656.266                    21297655.887
                        35.900
 123063398.056 6  95893469.27042  23418160.930                    23418165.172
        37.300          16.300
                  93504842.835 5  22529266.492                    22529268.398
                        32.900
 108148191.873 8  84271213.50346  20579916.766                    20579919.395
        50.800          37.100
 118108415.653 7  92032587.98445  22475290.445                    22475297.027
        46.700          35.600
 119399091.093 8  93038155.40545  22720861.867                    22720867.961
        48.000          35.400
 119384696.156 6                  22718159.734
        37.200
 123600867.341 7  96312374.31144  23520462.242                    23520465.320
        47.100          28.600
 129132612.778 5                  24573136.227
        32.300
 116942105.004 7  91123768.74143  22253353.750                    22253356.594
        43.700          22.000
 18  3 13 15 19 23.0000000  0 19R01G19G22G25R10R09R16R17R18R19G31R02
                                G12G06G03G32G17G02G14
                  86403350.304 4  20781695.938                    20781698.859
                        28.000
 115950297.363 7  90350883.92144  22064607.563                    22064609.043
        42.200          27.300
 122839825.387 7  95719501.78943  23375678.750                    23375678.207
        42.200          20.100
 115380401.322 7  89906747.29045  21956139.797                    21956146.027
        47.200          31.500
                  85239659.464 4  20559522.922                    20559526.152
                        29.300
                  81947927.129 6  19730847.195                    19730847.047
                        39.200
                                  23268546.008

                  93737478.919 5  22521967.680                    22521970.621
                        34.300
                  82791614.610 6  19941036.891                    19941038.508
                        38.100
                  88608305.340 6  21297068.703                    21297068.074
                        36.400
 123060595.324 6  95891285.35442  23417626.836                    23417631.254
        37.100          15.600
                  93502294.687 5  22528652.836                    22528654.254
                        33.300
 108148799.377 8  84271686.89046  20580032.297                    20580035.215
        50.700          36.400
 118106727.514 7  92031272.54146  22474969.234                    22474975.340
        46.800          36.100
 119399180.150 8  93038224.79445  22720878.609                    22720884.938
        48.400          35.100
 119387189.541 6                  22718633.734
        36.900
 123604203.902 7  96314974.22444  23521096.734                    23521100.188
        46.800          29.300
 129129808.878 5                  24572602.422
        32.000
 116942574.595 7  91124134.63644  22253443.719                    22253446.223
        43.800          25.300
 18  3 13 15 19 24.0000000  0 19R01G19G22G25R10R09R16R17R18R19G31R02
                                G12G06G03G32G17G02G14
                  86404198.150 4  20781899.617                    20781902.625
                        28.400
 115953014.231 6  90353000.95744  22065124.828                    22065126.121
        41.700          27.400
 122841297.329 6  95720648.75343  23375958.508                    23375958.020
        41.800          19.000
 115378211.703 7  89905041.08845  21955723.188                    21955729.121
        47.700          31.500
                  85237710.891 5  20559053.180                    20559056.531
                        30.600
                  81949437.087 6  19731210.500                    19731210.273
                        39.400
                                  23269467.992

                  93740963.235 5  22522805.109                    22522808.063
                        35.500
                  82792473.253 6  19941244.250                    19941245.637
                        38.100
                  88605859.589 6  21296481.609                    21296479.594
                        36.700
 123057792.958 6  95889101.65042  23417093.375                    23417097.855
        37.700          16.300
                  93499746.971 5  22528038.586                    22528040.277
                        33.300
 108149407.611 8  84272160.84246  20580148.094                    20580150.609
        50.700          36.900
 118105039.982 7  92029957.57445  22474648.102                    22474654.625
        47.300          35.900
 119399269.950 7  93038294.76145  22720895.742                    22720902.594
        47.900          34.700
 119389683.534 6                  22719108.086
        36.500
 123607540.822 7  96317574.42244  23521732.094                    23521735.520
        47.200          29.200
 129127005.150 5                  24572068.641
        31.300
 116943044.855 7  91124501.06043  22253532.836                    22253536.238
        43.900          22.300
 18  3 13 15 19 25.0000000  0 19R01G19G22G25R10R09R16R17R18R19G31R02
                                G12G06G03G32G17G02G14
                  86405046.727 4  20782103.539                    20782106.168
                        27.500
 115955731.676 6  90355118.44444  22065641.563                    22065643.465
        41.500          29.200
 122842769.864 6  95721796.17542  23376239.000                    23376237.816
        41.000          17.800
 115376022.548 7  89903335.24645  21955306.477                    21955312.449
        47.600          31.200
                  85235762.825 5  20558583.484                    20558586.234
                        31.000
                  81950947.678 6  19731574.258                    19731574.512
                        39.200
                                  23270388.297

                  93744447.808 5  22523643.008                    22523645.469
                        34.700
                  82793332.583 6  19941450.391                    19941452.797
                        38.200
                  88603414.256 5  21295894.023                    21295892.758
                        35.800
 123054990.886 6  95886918.18942  23416560.508                    23416565.117
        38.300          16.900
                  93497199.647 5  22527424.648                    22527426.457
                        33.000
 108150016.530 8  84272635.32346  20580263.836                    20580266.520
        51.000          36.900
 118103353.004 7  92028643.03746  22474327.477                    22474333.543
        47.300          36.300
 119399360.403 7  93038365.24145  22720912.898                    22720918.789
        47.800          34.700
 119392178.037 6                  22719582.977
        37.500
 123610878.059 7  96320174.89744  23522367.156                    23522370.793
        46.300          29.200
 129124201.649 5                  24571535.445
        32.400
 116943515.778 7  91124868.01843  22253622.602                    22253625.789
        43.700          22.300
 18  3 13 15 19 26.0000000  0 19R01G19G22G25R10R09R16R17R18R19G31R02
                                G12G06G03G32G17G02G14
                  86405896.003 4  20782308.133                    20782310.992
                        28.400
 115958449.737 6  90357236.40944  22066158.797                    22066160.602
        41.700          28.900
 122844243.022 7  95722944.07743  23376519.266                    23376518.355
        42.100          18.300
 115373833.966 7  89901629.86445  21954890.266                    21954896.082
        47.800          32.700
                  85233815.206 5  20558112.883                    20558115.961
                        30.500
                  81952458.891 6  19731937.883                    19731937.699
                        39.600
                                  23271310.961

                  93747932.683 5  22524480.891                    22524482.152
                        35.100
                  82794192.673 6  19941658.016                    19941659.371
                        38.400
                  88600969.377 6  21295306.172                    21295304.574
                        36.200
 123052189.175 6  95884735.04242  23416026.688                    23416031.668
        39.500          16.300
                  93494652.743 5  22526809.945                    22526813.395
                        34.100
 108150626.180 8  84273110.37146  20580379.914                    20580382.527
        50.800          37.300
 118101666.615 7  92027328.96546  22474006.523                    22474012.641
        47.300          36.000
 119399451.602 8  93038436.30945  22720930.539                    22720936.762
        48.000          35.000
 119394673.172 6                  22720057.008
        36.000
 123614215.709 7  96322775.69244  23523002.203                    23523005.492
        46.700          28.700
 129121398.265 5                  24571002.508
        33.200
 116943987.409 7  91125235.50643  22253712.031                    22253715.488
        43.600          22.800
