     2.11           OBSERVATION DATA    M (MIXED)           RINEX VERSION / TYPE
teqc  2018Mar15                         20180319 14:17:33UTCPGM / RUN BY / DATE
Linux 2.6.32-573.12.1.x86_64|x86_64|gcc -static|Linux 64|=+ COMMENT
END OF STATIC MODE OBSERVATION                              COMMENT
BIT 2 OF LLI FLAGS DATA COLLECTED UNDER A/S CONDITION       COMMENT
-Unknown-                                                   MARKER NAME
4625                                                        MARKER NUMBER
-Unknown-           -Unknown-                               OBSERVER / AGENCY
5127468778          TRIMBLE             4.63                REC # / TYPE / VERS
47477114                            NONE                    ANT # / TYPE
  3551784.4499      237.3020  5279922.1500                  APPROX POSITION XYZ
        0.0000        0.0000        0.0000                  ANTENNA: DELTA H/E/N
     1     1                                                WAVELENGTH FACT L1/2
     7    L1    L2    C1    P1    P2    S1    S2            # / TYPES OF OBSERV
    18                                                      LEAP SECONDS
 SNR is mapped to RINEX snr flag value [0-9]                COMMENT
  L1 & L2: min(max(int(snr_dBHz/6), 0), 9)                  COMMENT
  2018     3    15     9    50   11.0000000     GPS         TIME OF FIRST OBS
                                                            END OF HEADER
 18  3 15  9 50 11.0000000  0 16R07R15R16R06R23R24G30R17G21G07G08G27
                                G15G20G13G28
                  82541030.202 7  19824889.844                    19824892.051
                        42.700
                  91744009.257 5  22073968.836                    22073971.781
                        33.100
                  81271103.752 6  19561012.828                    19561014.508
                        40.200
                  90987374.059 3  21922707.609                    21922709.535
                        22.700
                  93360662.360 6  22439301.141                    22439306.512
                        38.700
                  86605401.360 5  20822972.828                    20822973.941
                        32.400
 111641316.844 8  86993228.11546  21244627.406                    21244633.078
        52.300          38.900
                  92369296.382 6  22193238.375                    22193242.676
                        41.600
 124766743.298 7  97220849.06045  23742320.898                    23742323.230
        43.800          31.200
 117614088.831 8  91647325.00445  22381216.766                    22381219.316
        48.100          34.000
 119365307.219 7  93012056.14545  22714488.922                    22714495.426
        43.800          32.800
 118386364.410 7  92249126.53145  22528175.711                    22528180.684
        44.200          34.300
 117633611.653 7  91662603.75644  22384940.164                    22384943.715
        45.500          29.100
 114383313.035 7  89129907.77844  21766429.938                    21766433.543
        44.300          29.800
 110946202.023 8  86451591.78645  21112358.234                    21112360.656
        48.700          34.800
 120694325.319 7  94047563.86045  22967371.781                    22967375.043
        46.300          30.000
 18  3 15  9 50 12.0000000  0 16R07R15R16R06R23R24G30R17G21G07G08G27
                                G15G20G13G28
                  82541540.992 7  19825013.188                    19825014.520
                        42.900
                  91747315.600 5  22074763.852                    22074766.516
                        35.000
                  81270872.011 6  19560957.836                    19560958.676
                        40.000
                  90990732.100 3  21923516.563                    21923518.934
                        22.800
                  93363757.707 6  22440045.852                    22440050.426
                        38.500
                  86605805.703 5  20823070.750                    20823071.707
                        32.800
 111642671.968 8  86994284.05546  21244885.461                    21244890.879
        52.800          39.200
                  92366759.980 6  22192629.156                    22192632.746
                        40.900
 124768333.451 7  97222088.15345  23742623.180                    23742625.785
        43.700          30.600
 117616917.067 8  91649528.82245  22381754.219                    22381757.285
        48.200          34.000
 119364061.537 7  93011085.45645  22714252.719                    22714258.027
        43.800          33.600
 118387883.577 7  92250310.29145  22528464.359                    22528469.973
        44.300          34.800
 117631306.884 7  91660807.82145  22384500.859                    22384505.297
        46.200          30.200
 114383939.664 7  89130396.06644  21766548.742                    21766552.449
        44.300          29.700
 110945426.214 8  86450987.25845  21112210.969                    21112213.066
        48.800          34.400
 120691854.272 7  94045638.37044  22966901.148                    22966904.633
        46.600          29.300
 18  3 15  9 50 13.0000000  0 16R07R15R16R06R23R24G30R17G21G07G08G27
                                G15G20G13G28
                  82542052.388 7  19825136.008                    19825137.488
                        42.300
                  91750622.130 6  22075559.609                    22075562.031
                        36.400
                  81270640.867 6  19560902.180                    19560902.965
                        40.400
                  90994090.398 3  21924326.859                    21924327.555
                        22.500
                  93366853.381 6  22440790.578                    22440795.020
                        39.600
                  86606210.739 5  20823167.367                    20823168.766
                        32.600
 111644027.568 8  86995340.36646  21245143.430                    21245149.016
        53.200          39.200
                  92364223.956 6  22192019.906                    22192023.441
                        40.700
 124769923.999 7  97223327.53745  23742926.094                    23742928.406
        44.100          31.300
 117619745.582 8  91651732.85245  22382293.039                    22382295.988
        48.500          33.900
 119362816.372 7  93010115.15845  22714014.977                    22714020.980
        44.300          33.600
 118389403.338 7  92251494.52245  22528753.438                    22528759.367
        44.500          34.300
 117629002.500 7  91659012.19444  22384062.133                    22384066.473
        45.900          28.900
 114384566.887 7  89130884.82045  21766667.922                    21766671.859
        43.900          30.200
 110944650.948 8  86450383.15545  21112063.453                    21112065.957
        48.800          34.800
 120689383.502 7  94043713.09244  22966430.953                    22966434.227
        46.100          29.000
 18  3 15  9 50 14.0000000  0 16R07R15R16R06R23R24G30R17G21G07G08G27
                                G15G20G13G28
                  82542564.393 7  19825258.938                    19825260.398
                        42.200
                  91753928.828 6  22076356.023                    22076358.156
                        38.100
                  81270410.312 6  19560845.750                    19560847.516
                        40.400
                  90997448.899 3  21925137.188                    21925136.699
                        22.100
                  93369949.360 6  22441536.086                    22441539.918
                        40.300
                  86606616.430 5  20823264.422                    20823265.816
                        31.500
 111645383.697 8  86996397.08746  21245401.414                    21245407.004
        52.800          39.200
                  92361688.337 6  22191410.711                    22191413.324
                        40.000
 124771514.938 7  97224567.21945  23743228.781                    23743231.484
        43.700          31.000
 117622574.449 8  91653937.16245  22382831.445                    22382833.758
        48.600          34.500
 119361571.788 7  93009145.31745  22713778.281                    22713784.293
        43.900          33.600
 118390923.640 7  92252679.17645  22529042.953                    22529048.648
        44.100          34.900
 117626698.533 7  91657216.88844  22383625.648                    22383628.262
        46.500          29.400
 114385194.668 7  89131374.00745  21766788.563                    21766791.855
        44.300          30.200
 110943876.227 8  86449779.47845  21111915.711                    21111918.398
        48.900          35.100
 120686912.986 7  94041788.00644  22965960.820                    22965964.105
        46.000          27.600
 18  3 15  9 50 15.0000000  0 16R07R15R16R06R23R24G30R17G21G07G08G27
                                G15G20G13G28
                  82543077.047 7  19825381.836                    19825383.297
                        42.000
                  91757235.672 6  22077152.781                    22077154.738
                        38.600
                  81270180.394 6  19560790.445                    19560792.281
                        40.600
                  91000807.688 3  21925945.484                    21925946.223
                        22.700
                  93373045.656 6  22442278.773                    22442284.340
                        40.500
                  86607022.792 5  20823362.000                    20823363.633
                        32.400
 111646740.393 8  86997454.24846  21245659.680                    21245665.340
        52.700          39.000
                  92359153.132 6  22190801.844                    22190802.867
                        39.900
 124773106.265 7  97225807.21045  23743532.273                    23743534.180
        44.200          31.200
 117625403.714 8  91656141.77745  22383369.875                    22383372.559
        49.100          34.200
 119360327.721 7  93008175.89345  22713541.297                    22713547.676
        44.300          32.600
 118392444.573 7  92253864.30745  22529332.453                    22529338.313
        44.900          35.300
 117624394.993 7  91655421.91044  22383186.719                    22383189.707
        46.600          29.700
 114385823.061 7  89131863.67044  21766907.953                    21766910.777
        44.100          29.000
 110943102.094 8  86449176.25545  21111768.375                    21111770.926
        48.900          34.500
 120684442.771 7  94039863.14544  22965489.961                    22965493.785
        45.800          27.300
 18  3 15  9 50 16.0000000  0 16R07R15R16R06R23R24G30R17G21G07G08G27
                                G15G20G13G28
                  82543590.348 7  19825504.492                    19825507.066
                        42.000
                  91760542.775 6  22077948.313                    22077951.066
                        38.600
                  81269951.098 6  19560735.227                    19560736.852
                        40.600
                  91004166.690 3  21926753.500                    21926755.918
                        22.500
                  93376142.381 6  22443023.750                    22443029.461
                        40.500
                  86607429.876 5  20823459.648                    20823461.516
                        33.200
 111648097.611 8  86998511.82646  21245917.727                    21245923.488
        52.200          38.900
                  92356618.315 6  22190193.680                    22190193.762
                        39.500
 124774698.084 7  97227047.59645  23743834.578                    23743836.855
        44.600          31.300
 117628233.321 8  91658346.66945  22383907.820                    22383911.137
        49.400          34.400
 119359084.249 7  93007206.93845  22713304.984                    22713311.211
        44.100          33.200
 118393966.109 7  92255049.91945  22529622.266                    22529627.711
        45.000          34.700
 117622091.876 7  91653627.25144  22382746.750                    22382751.500
        46.100          29.400
 114386452.082 7  89132353.81344  21767027.344                    21767030.473
        44.600          29.900
 110942328.543 8  86448573.49245  21111621.070                    21111623.680
        48.300          34.300
 120681972.862 7  94037938.53144  22965020.102                    22965023.426
        45.200          27.100
 18  3 15  9 50 17.0000000  0 16R07R15R16R06R23R24G30R17G21G07G08G27
                                G15G20G13G28
                  82544104.291 7  19825628.414                    19825630.328
                        42.300
                  91763850.159 6  22078743.547                    22078747.992
                        39.200
                  81269722.460 6  19560681.055                    19560682.293
                        40.200
                  91007525.969 3  21927562.578                    21927564.863
                        23.500
                  93379239.455 6  22443766.219                    22443773.750
                        40.500
                  86607837.676 5  20823557.734                    20823559.348
                        33.100
 111649455.415 8  86999569.85146  21246176.016                    21246181.930
        52.100          39.000
                  92354083.864 6  22189585.484                    22189583.711
                        40.000
 124776290.312 7  97228288.30645  23744138.414                    23744139.805
        45.100          30.600
 117631063.294 8  91660551.85145  22384447.047                    22384449.496
        48.800          34.400
 119357841.347 7  93006238.44845  22713068.594                    22713075.078
        44.100          32.800
 118395488.259 7  92256236.01045  22529911.711                    22529917.980
        45.300          35.200
 117619789.208 7  91651832.95344  22382308.609                    22382313.441
        46.300          29.700
 114387081.730 7  89132844.44244  21767146.773                    21767150.598
        43.900          29.800
 110941555.601 8  86447971.20045  21111474.313                    21111476.754
        48.500          34.300
 120679503.291 7  94036014.17944  22964550.781                    22964552.898
        45.200          26.700
 18  3 15  9 50 18.0000000  0 16R07R15R16R06R23R24G30R17G21G07G08G27
                                G15G20G13G28
                  82544618.831 7  19825752.055                    19825754.457
                        42.100
                  91767157.763 6  22079537.258                    22079543.297
                        38.500
                  81269494.429 6  19560626.078                    19560627.574
                        40.200
                  91010885.554 4  21928373.000                    21928374.066
                        24.400
                  93382336.920 6  22444510.094                    22444518.723
                        40.400
                  86608246.169 5  20823656.594                    20823657.922
                        31.600
 111650813.751 8  87000628.29246  21246434.969                    21246440.406
        51.900          39.000
                  92351549.801 6  22188977.078                    22188975.082
                        39.900
 124777882.957 7  97229529.33745  23744440.820                    23744443.340
        45.000          31.700
 117633893.667 8  91662757.33945  22384984.641                    22384987.770
        48.200          34.300
 119356599.027 7  93005270.41845  22712832.375                    22712838.625
        44.200          33.100
 118397011.010 7  92257422.56845  22530201.539                    22530207.484
        46.000          35.100
 117617486.938 7  91650038.97744  22381871.797                    22381875.344
        46.100          29.100
 114387712.033 7  89133335.57745  21767267.047                    21767270.957
        43.400          30.100
 110940783.234 8  86447369.35545  21111327.328                    21111329.707
        48.100          34.300
 120677033.988 7  94034090.03244  22964080.898                    22964083.098
        45.100          27.200
 18  3 15  9 50 19.0000000  0 16R07R15R16R06R23R24G30R17G21G07G08G27
                                G15G20G13G28
                  82545134.025 7  19825876.211                    19825877.773
                        42.300
                  91770465.618 6  22080332.109                    22080339.289
                        37.700
                  81269266.987 6  19560570.578                    19560572.402
                        40.600
                  91014245.363 3  21929181.055                    21929184.484
                        22.300
                  93385434.730 6  22445255.078                    22445263.148
                        39.700
                  86608655.377 5  20823754.828                    20823756.324
                        32.900
 111652172.615 8  87001687.14646  21246693.313                    21246698.539
        52.100          38.900
                  92349016.149 6  22188367.156                    22188366.242
                        40.100
 124779476.012 7  97230770.68045  23744743.961                    23744746.316
        45.200          31.200
 117636724.356 8  91664963.07445  22385523.547                    22385526.754
        48.000          34.100
 119355357.281 7  93004302.84745  22712596.195                    22712601.902
        44.100          33.400
 118398534.339 7  92258609.57345  22530491.563                    22530497.641
        46.000          34.900
 117615185.067 7  91648245.30444  22381433.750                    22381437.660
        46.100          29.200
 114388342.943 7  89133827.19945  21767386.398                    21767390.363
        43.100          30.200
 110940011.440 8  86446767.95745  21111180.328                    21111183.117
        48.500          34.400
 120674564.960 7  94032166.09944  22963610.656                    22963613.238
        45.200          28.600
 18  3 15  9 50 20.0000000  0 16R07R15R16R06R23R24G30R17G21G07G08G27
                                G15G20G13G28
                  82545649.846 7  19825999.695                    19826001.508
                        42.100
                  91773773.703 6  22081128.836                    22081135.277
                        37.100
                  81269040.147 6  19560516.094                    19560518.020
                        40.300
                  91017605.396 3  21929992.086                    21929993.457
                        22.800
                  93388532.834 6  22445999.508                    22446007.254
                        39.100
                  86609065.247 5  20823854.492                    20823855.102
                        32.400
 111653532.008 8  87002746.41346  21246952.313                    21246957.266
        52.500          39.000
                  92346482.890 6  22187760.359                    22187758.191
                        40.900
 124781069.447 7  97232012.31145  23745047.563                    23745049.516
        45.400          30.900
 117639555.396 8  91667169.07745  22386062.125                    22386064.949
        48.200          34.200
 119354116.075 7  93003335.69745  22712359.211                    22712366.008
        44.400          32.600
 118400058.264 7  92259797.04645  22530781.469                    22530787.492
        46.600          34.700
 117612883.596 7  91646451.94744  22380995.109                    22380999.262
        45.800          28.500
 114388974.458 7  89134319.29344  21767507.563                    21767510.664
        43.700          29.900
 110939240.214 8  86446166.99845  21111033.711                    21111036.207
        48.600          34.100
 120672096.240 7  94030242.41244  22963141.188                    22963143.789
        45.800          29.700
 18  3 15  9 50 21.0000000  0 16R07R15R16R06R23R24G30R17G21G07G08G27
                                G15G20G13G28
                  82546166.299 7  19826124.555                    19826125.414
                        42.300
                  91777082.000 6  22081925.852                    22081930.453
                        36.900
                  81268813.953 6  19560462.156                    19560463.313
                        40.700
                  91020965.704 3  21930802.172                    21930803.387
                        23.000
                  93391631.329 6  22446744.609                    22446751.641
                        39.100
                  86609475.789 5  20823953.320                    20823953.734
                        32.400
 111654891.944 8  87003806.10046  21247210.961                    21247216.320
        52.100          39.100
                  92343949.989 6  22187151.375                    22187150.391
                        41.900
 124782663.273 7  97233254.24645  23745350.727                    23745352.750
        45.700          30.900
 117642386.775 8  91669375.34545  22386601.172                    22386604.336
        48.700          34.200
 119352875.428 7  93002369.00845  22712123.039                    22712129.980
        44.000          33.300
 118401582.796 7  92260984.99345  22531071.563                    22531077.781
        47.000          34.500
 117610582.600 7  91644658.95444  22380557.664                    22380561.465
        45.700          28.100
 114389606.553 7  89134811.83945  21767627.359                    21767630.922
        44.000          30.100
 110938469.553 8  86445566.47945  21110887.234                    21110889.770
        48.200          34.500
 120669627.796 7  94028318.95645  22962671.711                    22962674.016
        45.900          30.400
 18  3 15  9 50 22.0000000  0 16R07R15R16R06R23R24G30R17G21G07G08G27
                                G15G20G13G28
                  82546683.371 7  19826247.875                    19826250.113
                        42.100
                  91780390.460 5  22082723.352                    22082726.316
                        35.800
                  81268588.378 6  19560407.906                    19560409.160
                        40.200
                  91024326.286 3  21931612.609                    21931613.172
                        23.300
                  93394730.172 6  22447489.672                    22447495.883
                        38.800
                  86609887.009 5  20824052.180                    20824052.863
                        32.500
 111656252.418 8  87004866.21146  21247469.648                    21247475.324
        52.200          38.900
                  92341417.466 7  22186544.055                    22186543.430
                        42.400
 124784257.536 7  97234496.52145  23745654.164                    23745655.918
        45.700          31.100
 117645218.528 8  91671581.89845  22387140.648                    22387143.324
        49.200          34.100
 119351635.294 7  93001402.71445  22711887.250                    22711894.113
        43.300          33.100
 118403107.931 7  92262173.42145  22531362.242                    22531367.957
        47.200          34.500
 117608282.021 7  91642866.28844  22380120.367                    22380123.871
        45.600          29.800
 114390239.289 7  89135304.88544  21767747.734                    21767750.887
        44.200          28.800
 110937699.488 8  86444966.42345  21110740.797                    21110743.270
        48.400          34.600
 120667159.650 7  94026395.73945  22962202.250                    22962205.105
        46.200          31.400
 18  3 15  9 50 23.0000000  0 16R07R15R16R06R23R24G30R17G21G07G08G27
                                G15G20G13G28
                  82547201.041 7  19826371.898                    19826373.945
                        42.300
                  91783699.156 5  22083520.688                    22083522.195
                        35.500
                  81268363.382 6  19560354.250                    19560354.895
                        40.400
                  91027687.028 3  21932421.500                    21932422.594
                        22.500
                  93397829.341 6  22448234.375                    22448240.852
                        38.500
                  86610298.921 5  20824151.242                    20824151.070
                        32.200
 111657613.390 8  87005926.70146  21247728.727                    21247734.129
        51.900          39.200
                  92338885.252 7  22185933.180                    22185935.180
                        43.400
 124785852.208 7  97235739.10145  23745957.367                    23745959.711
        45.800          31.100
 117648050.587 8  91673788.69745  22387678.609                    22387682.211
        48.800          34.200
 119350395.709 7  93000436.82145  22711651.102                    22711657.676
        43.000          33.000
 118404633.564 7  92263362.23645  22531652.070                    22531658.113
        47.300          34.900
 117605981.813 7  91641073.92345  22379682.117                    22379686.324
        45.200          30.100
 114390872.562 7  89135798.35444  21767868.594                    21767871.789
        44.300          29.400
 110936929.968 8  86444366.79845  21110594.039                    21110596.813
        48.400          34.200
 120664691.775 7  94024472.74045  22961732.531                    22961736.008
        46.500          31.500
 18  3 15  9 50 24.0000000  0 16R07R15R16R06R23R24G30R17G21G07G08G27
                                G15G20G13G28
                  82547719.348 7  19826497.266                    19826498.949
                        42.200
                  91787008.106 5  22084316.344                    22084317.898
                        34.900
                  81268139.003 6  19560299.570                    19560300.574
                        40.200
                  91031048.018 3  21933230.852                    21933232.676
                        22.500
                  93400928.860 6  22448980.461                    22448985.539
                        38.100
                  86610711.520 5  20824251.273                    20824250.934
                        32.800
 111658974.921 8  87006987.63346  21247987.742                    21247993.531
        52.200          39.100
                  92336353.422 7  22185324.375                    22185327.770
                        42.900
 124787447.293 7  97236982.02345  23746260.914                    23746262.953
        45.900          30.400
 117650883.033 8  91675995.80145  22388218.055                    22388220.953
        48.200          34.100
 119349156.606 7  92999471.28945  22711415.547                    22711422.359
        42.900          33.100
 118406159.852 7  92264551.55245  22531942.531                    22531948.699
        47.300          35.100
 117603682.052 7  91639281.90344  22379243.602                    22379248.352
        45.300          28.400
 114391506.506 7  89136292.33444  21767988.789                    21767992.660
        44.300          28.200
 110936161.021 8  86443767.62045  21110447.422                    21110450.348
        48.500          34.600
 120662224.203 7  94022549.97245  22961263.211                    22961266.906
        46.900          31.900
 18  3 15  9 50 25.0000000  0 16R07R15R16R06R23R24G30R17G21G07G08G27
                                G15G20G13G28
                  82548238.275 7  19826621.375                    19826623.141
                        42.300
                  91790317.311 5  22085111.977                    22085113.898
                        35.600
                  81267915.247 6  19560246.094                    19560247.258
                        40.600
                  91034409.340 3  21934040.188                    21934042.383
                        21.600
                  93404028.725 6  22449725.391                    22449729.734
                        37.800
                  86611124.817 5  20824350.578                    20824350.570
                        32.600
 111660336.981 8  87008048.98046  21248247.250                    21248252.832
        52.400          39.000
                  92333822.005 7  22184716.125                    22184720.180
                        43.300
 124789042.800 7  97238225.27445  23746564.914                    23746566.879
        46.500          30.100
 117653715.829 8  91678203.17645  22388757.047                    22388760.195
        48.000          34.000
 119347918.074 7  92998506.18745  22711180.055                    22711186.637
        43.600          33.400
 118407686.723 7  92265741.31445  22532232.609                    22532238.777
        47.600          33.900
 117601382.682 7  91637490.19444  22378806.922                    22378810.824
        46.000          29.900
 114392141.061 7  89136786.78944  21768109.078                    21768113.094
        44.300          29.600
 110935392.646 8  86443168.89045  21110301.156                    21110304.168
        48.600          34.800
 120659756.938 7  94020627.44145  22960793.313                    22960797.602
        46.700          31.900
 18  3 15  9 50 26.0000000  0 16R07R15R16R06R23R24G30R17G21G07G08G27
                                G15G20G13G28
                  82548757.784 7  19826746.656                    19826748.664
                        42.400
                  91793626.733 6  22085906.164                    22085909.926
                        36.200
                  81267692.063 6  19560191.297                    19560193.316
                        40.100
                  91037770.822 3  21934852.500                    21934852.418
                        22.500
                  93407128.889 6  22450470.430                    22450474.703
                        37.400
                  86611538.764 5  20824449.328                    20824450.313
                        32.800
 111661699.549 8  87009110.72346  21248506.461                    21248512.195
        52.700          39.200
                  92331290.951 7  22184107.703                    22184112.270
                        43.400
 124790638.671 7  97239468.81545  23746868.039                    23746870.188
        46.500          31.200
 117656548.938 8  91680410.78945  22389296.094                    22389299.281
        48.300          34.000
 119346680.010 7  92997541.43945  22710944.648                    22710950.793
        44.100          33.000
 118409214.172 7  92266931.52845  22532523.539                    22532528.953
        47.200          34.400
 117599083.710 7  91635698.78844  22378370.422                    22378373.488
        46.500          29.700
 114392776.153 7  89137281.67644  21768230.219                    21768233.961
        43.800          28.400
 110934624.810 8  86442570.57645  21110155.117                    21110158.141
        48.900          34.500
 120657289.900 7  94018705.09145  22960323.789                    22960328.180
        46.700          31.900
 18  3 15  9 50 27.0000000  0 16R07R15R16R06R23R24G30R17G21G07G08G27
                                G15G20G13G28
                  82549277.955 7  19826870.953                    19826872.984
                        42.400
                  91796936.384 6  22086701.336                    22086705.582
                        36.400
                  81267469.507 6  19560138.953                    19560139.711
                        40.400
                  91041132.589 3  21935661.375                    21935662.684
                        22.100
                  93410229.386 6  22451216.516                    22451219.695
                        36.800
                  86611953.366 5  20824549.406                    20824549.500
                        32.600
 111663062.623 8  87010172.85446  21248765.883                    21248771.523
        52.900          39.500
                  92328760.226 7  22183500.070                    22183503.820
                        43.500
 124792234.931 7  97240712.65545  23747171.688                    23747174.078
        46.000          30.500
 117659382.366 8  91682618.65645  22389835.813                    22389838.586
        48.100          34.100
 119345442.484 7  92996577.09245  22710708.977                    22710715.012
        44.800          33.100
 118410742.197 7  92268122.19945  22532814.195                    22532820.023
        47.100          34.000
 117596785.122 7  91633907.67444  22377932.781                    22377936.102
        46.300          29.400
 114393411.846 7  89137777.00944  21768351.453                    21768355.012
        44.100          28.500
 110933857.531 8  86441972.70245  21110009.383                    21110012.113
        49.100          34.300
 120654823.147 7  94016782.95645  22959854.344                    22959858.859
        47.000          30.500
 18  3 15  9 50 28.0000000  0 16R07R15R16R06R23R24G30R17G21G07G08G27
                                G15G20G13G28
                  82549798.737 7  19826996.344                    19826998.883
                        42.200
                  91800246.261 6  22087498.102                    22087502.699
                        36.600
                  81267247.572 6  19560084.859                    19560086.090
                        40.200
                  91044494.523 3  21936470.602                    21936472.867
                        21.100
                  93413330.248 6  22451961.977                    22451964.629
                        36.600
                  86612368.661 5  20824649.656                    20824648.793
                        32.400
 111664426.239 8  87011235.41546  21249025.547                    21249030.824
        52.500          38.900
                  92326229.873 7  22182891.648                    22182895.965
                        43.300
 124793831.629 7  97241956.83045  23747475.844                    23747478.371
        46.000          30.800
 117662216.170 8  91684826.80845  22390374.359                    22390377.773
        48.400          34.000
 119344205.505 7  92995613.17645  22710473.766                    22710479.758
        45.200          33.700
 118412270.782 7  92269313.30545  22533105.125                    22533110.891
        47.300          33.500
 117594486.970 7  91632116.89244  22377494.305                    22377498.711
        45.800          29.100
 114394048.197 7  89138272.85844  21768473.000                    21768475.828
        45.000          29.600
 110933090.834 8  86441375.27445  21109863.383                    21109866.398
        49.400          34.400
 120652356.690 7  94014861.05545  22959385.367                    22959389.207
        46.400          30.500
 18  3 15  9 50 29.0000000  0 16R07R15R16R06R23R24G30R17G21G07G08G27
                                G15G20G13G28
                  82550320.161 7  19827121.961                    19827123.727
                        42.300
                  91803556.335 6  22088295.539                    22088298.895
                        36.900
                  81267026.218 6  19560031.141                    19560033.004
                        40.000
                                  21937282.086

                  93416431.478 6  22452707.086                    22452709.457
                        36.700
                  86612784.672 5  20824750.227                    20824749.543
                        32.600
 111665790.424 8  87012298.41146  21249285.078                    21249290.605
        52.700          39.200
                  92323699.899 7  22182283.984                    22182287.660
                        43.100
 124795428.733 7  97243201.32145  23747779.938                    23747782.063
        46.000          31.600
 117665050.339 7  91687035.25545  22390913.656                    22390916.992
        47.600          33.900
 119342969.059 7  92994649.67045  22710238.938                    22710244.316
        45.400          32.900
 118413800.020 7  92270504.92245  22533396.320                    22533401.586
        47.700          33.400
 117592189.264 7  91630326.46744  22377056.633                    22377061.359
        46.300          29.800
 114394685.128 7  89138769.17344  21768593.977                    21768597.102
        44.900          29.700
 110932324.741 8  86440778.31745  21109717.859                    21109720.480
        49.700          34.600
 120649890.554 7  94012939.39344  22958915.367                    22958919.789
        45.600          29.300
 18  3 15  9 50 30.0000000  0 16R07R15R16R06R23R24G30R17G21G07G08G27
                                G15G20G13G28
                  82550842.210 7  19827246.781                    19827248.570
                        42.400
                  91806866.612 6  22089092.367                    22089095.871
                        37.900
                  81266805.535 6  19559979.461                    19559980.211
                        40.000
                                  21938091.664

                  93419533.072 6  22453451.281                    22453454.590
                        36.900
                  86613201.419 5  20824849.344                    20824849.594
                        33.200
 111667155.157 8  87013361.84446  21249544.586                    21249550.008
        52.700          39.000
                  92321170.328 7  22181676.602                    22181680.750
                        43.100
 124797026.304 7  97244446.17445  23748083.203                    23748085.910
        46.000          31.400
 117667884.899 7  91689244.00445  22391453.609                    22391456.426
        47.900          34.100
 119341733.194 7  92993686.60945  22710003.320                    22710009.418
        45.400          33.400
 118415329.873 7  92271697.01945  22533687.430                    22533692.688
        47.500          33.200
 117589891.965 7  91628536.38144  22376619.438                    22376624.305
        46.000          28.500
 114395322.737 7  89139266.02144  21768715.164                    21768718.238
        44.500          29.600
 110931559.229 8  86440181.81445  21109572.180                    21109574.738
        49.700          34.600
 120647424.705 7  94011017.95844  22958446.047                    22958450.215
        45.700          27.500
 18  3 15  9 50 31.0000000  0 16R07R15R16R06R23R24G30R17G21G07G08G27
                                G15G20G13G28
                  82551364.915 7  19827372.469                    19827374.277
                        42.100
                  91810177.170 6  22089888.516                    22089893.301
                        38.300
                  81266585.462 6  19559925.281                    19559926.629
                        40.200
                                  21938902.852

                  93422635.019 6  22454196.156                    22454199.855
                        37.600
                  86613618.853 5  20824948.953                    20824949.695
                        32.600
 111668520.452 8  87014425.71046  21249804.250                    21249809.781
        52.300          39.000
                  92318641.158 7  22181069.008                    22181072.609
                        42.700
 124798624.299 7  97245691.35745  23748387.523                    23748390.063
        45.800          30.400
 117670719.799 7  91691453.01845  22391992.664                    22391995.648
        47.000          34.900
 119340497.921 7  92992724.00045  22709768.117                    22709774.359
        45.800          33.800
 118416860.322 7  92272889.58545  22533978.156                    22533983.746
        47.500          33.600
 117587595.116 7  91626746.64444  22376183.234                    22376186.754
        47.100          29.200
 114395960.929 7  89139763.32244  21768836.219                    21768840.258
        44.200          29.600
 110930794.312 8  86439585.77345  21109426.313                    21109429.090
        50.000          34.200
 120644959.191 7  94009096.77944  22957977.297                    22957980.980
        46.300          27.100
 18  3 15  9 50 32.0000000  0 16R07R15R16R06R23R24G30R17G21G07G08G27
                                G15G20G13G28
                  82551888.269 7  19827498.406                    19827499.863
                        42.500
                  91813487.947 6  22090684.766                    22090689.660
                        38.300
                  81266366.043 6  19559872.820                    19559873.902
                        40.400
                                  21939712.578

                  93425737.312 6  22454941.133                    22454945.691
                        37.900
                  86614036.957 5  20825049.789                    20825050.586
                        33.300
 111669886.304 8  87015490.00146  21250064.289                    21250070.051
        52.500          38.800
                  92316112.414 7  22180462.406                    22180464.738
                        42.200
 124800222.763 7  97246936.91145  23748691.875                    23748694.250
        45.800          31.300
 117673555.096 7  91693662.34245  22392532.789                    22392535.230
        47.200          34.200
 119339263.207 7  92991761.83345  22709533.695                    22709539.480
        46.600          33.600
 118418391.360 7  92274082.60545  22534269.703                    22534274.727
        47.000          33.100
 117585298.682 7  91624957.21444  22375746.555                    22375750.199
        47.200          29.900
 114396599.779 7  89140261.12044  21768957.742                    21768961.348
        43.800          28.800
 110930030.006 8  86438990.20845  21109280.766                    21109283.754
        49.500          34.700
 120642493.991 7  94007175.82144  22957508.211                    22957511.047
        46.000          26.000
 18  3 15  9 50 33.0000000  0 16R07R15R16R06R23R24G30R17G21G07G08G27
                                G15G20G13G28
                  82552412.208 7  19827623.695                    19827626.059
                        42.700
                  91816798.946 6  22091481.180                    22091487.492
                        38.600
                  81266147.192 6  19559820.320                    19559821.438
                        40.800
                                  21940523.039

                  93428839.890 6  22455688.023                    22455691.809
                        38.600
                  86614455.738 5  20825150.914                    20825151.414
                        32.800
 111671252.611 8  87016554.65746  21250324.141                    21250329.473
        52.300          39.400
                  92313584.008 6  22179855.477                    22179856.125
                        41.600
 124801821.559 7  97248182.73945  23748995.875                    23748998.453
        45.600          31.300
 117676390.679 7  91695871.89045  22393071.672                    22393074.879
        46.900          34.300
 119338029.083 7  92990800.15045  22709298.844                    22709304.695
        47.000          33.000
 118419922.965 7  92275276.05845  22534561.742                    22534565.930
        46.700          33.200
 117583002.601 7  91623168.05145  22375309.219                    22375313.473
        46.900          30.000
 114397239.164 7  89140759.33144  21769079.992                    21769083.004
        43.900          29.600
 110929266.192 8  86438395.02545  21109135.008                    21109138.473
        49.700          34.700
 120640028.987 7  94005255.01944  22957039.320                    22957041.523
        45.800          26.500
 18  3 15  9 50 34.0000000  0 16R07R15R16R06R23R24G30R17G21G07G08G27
                                G15G20G13G28
                  82552936.761 7  19827750.273                    19827752.160
                        42.600
                  91820110.126 6  22092277.781                    22092283.934
                        37.700
                  81265928.931 6  19559767.719                    19559768.980
                        40.400
                                  21941333.672

                  93431942.771 6  22456433.617                    22456437.910
                        38.800
                  86614875.184 5  20825250.648                    20825251.527
                        32.800
 111672619.470 8  87017619.73846  21250584.063                    21250589.672
        52.400          39.100
                  92311055.994 6  22179250.086                    22179247.934
                        40.800
 124803420.761 7  97249428.88945  23749300.547                    23749302.840
        45.900          31.200
 117679226.577 7  91698081.67945  22393611.500                    22393614.398
        47.500          34.300
 119336795.464 7  92989838.90245  22709064.031                    22709070.168
        46.600          34.100
 118421455.118 7  92276469.93545  22534853.125                    22534857.313
        46.800          33.000
 117580706.940 7  91621379.21744  22374872.438                    22374876.426
        46.600          28.600
 114397879.173 7  89141258.04044  21769201.516                    21769204.730
        44.100          28.700
 110928502.952 8  86437800.29545  21108990.211                    21108993.125
        49.000          34.400
 120637564.261 7  94003334.43144  22956570.047                    22956572.160
        45.100          26.800
 18  3 15  9 50 35.0000000  0 16R07R15R16R06R23R24G30R17G21G07G08G27
                                G15G20G13G28
                  82553461.933 7  19827876.414                    19827878.313
                        42.600
                  91823421.482 6  22093075.383                    22093080.125
                        36.900
                  81265711.263 6  19559714.789                    19559716.734
                        40.200
                                  21942144.242

                  93435046.010 6  22457179.461                    22457184.676
                        39.600
                  86615295.299 5  20825352.547                    20825352.762
                        32.800
 111673986.835 8  87018685.22046  21250844.117                    21250850.023
        52.400          39.400
                  92308528.373 6  22178643.547                    22178639.680
                        39.700
 124805020.372 7  97250675.35145  23749604.938                    23749607.172
        46.300          31.000
 117682062.838 7  91700291.75645  22394151.750                    22394154.488
        47.400          34.600
 119335562.389 7  92988878.07945  22708829.430                    22708835.328
        46.900          33.500
 118422987.910 7  92277664.30745  22535145.063                    22535149.234
        47.500          33.900
 117578411.674 7  91619590.69344  22374435.875                    22374439.469
        46.700          29.700
 114398519.777 7  89141757.21244  21769323.992                    21769326.949
        44.100          28.500
 110927740.257 8  86437205.98245  21108844.930                    21108848.160
        49.100          34.900
 120635099.830 7  94001414.07644  22956100.969                    22956102.668
        45.800          27.600
 18  3 15  9 50 36.0000000  0 16R07R15R16R06R23R24G30R17G21G07G08G27
                                G15G20G13G28
                  82553987.745 7  19828002.469                    19828003.918
                        42.400
                  91826733.115 5  22093873.586                    22093877.109
                        35.600
                  81265494.245 6  19559663.563                    19559664.082
                        40.700
                                  21942953.352

                  93438149.609 6  22457926.000                    22457930.398
                        39.300
                  86615716.138 5  20825453.555                    20825454.281
                        32.400
 111675354.766 8  87019751.13546  21251104.977                    21251110.309
        52.300          39.000
                  92306001.084 6  22178038.125                    22178031.953
                        39.000
 124806620.375 7  97251922.11045  23749908.961                    23749911.508
        46.000          30.800
 117684899.471 7  91702502.12345  22394691.203                    22394694.121
        47.300          34.500
 119334329.922 7  92987917.73945  22708594.609                    22708601.055
        47.500          34.200
 118424521.266 7  92278859.13345  22535436.688                    22535440.590
        47.300          33.300
 117576116.839 7  91617802.49944  22373998.602                    22374002.980
        45.900          29.800
 114399160.983 7  89142256.85744  21769445.625                    21769449.125
        44.300          29.700
 110926978.171 8  86436612.15445  21108700.117                    21108703.141
        49.200          35.200
 120632635.710 7  93999493.96844  22955632.297                    22955633.883
        45.800          27.500
 18  3 15  9 50 37.0000000  0 16R07R15R16R06R23R24G30R17G21G07G08G27
                                G15G20G13G28
                  82554514.152 7  19828128.594                    19828131.535
                        42.300
                  91830044.944 5  22094672.156                    22094673.961
                        33.700
                  81265277.814 6  19559610.586                    19559612.121
                        40.200
                  91074777.15513  21943764.563                    21943766.277
                        22.100
                  93441253.560 6  22458671.852                    22458677.137
                        39.900
                  86616137.609 5  20825554.797                    20825555.590
                        32.800
 111676723.188 8  87020817.43846  21251365.211                    21251370.762
        52.600          39.400
                  92303474.092 6  22177432.633                    22177424.063
                        38.300
 124808220.803 7  97253169.20645  23750213.805                    23750216.012
        45.600          31.200
 117687736.434 7  91704712.73845  22395231.195                    22395233.891
        47.800          34.400
 119333098.006 7  92986957.83045  22708360.203                    22708366.473
        47.200          33.500
 118426055.222 7  92280054.42345  22535728.867                    22535732.523
        47.500          33.500
 117573822.406 7  91616014.60944  22373561.180                    22373566.172
        45.700          28.700
 114399802.774 7  89142756.96144  21769567.945                    21769570.855
        44.600          29.300
 110926216.629 8  86436018.74345  21108555.141                    21108558.313
        49.400          34.800
 120630171.843 7  93997574.06344  22955163.688                    22955165.098
        45.500          29.100
 18  3 15  9 50 38.0000000  0 15R07R15R16R06R23R24G30G21G07G08G27G15
                                G20G13G28
                  82555041.186 7  19828255.492                    19828257.063
                        42.300
                  91833357.067 5  22095468.703                    22095469.285
                        33.700
                  81265062.013 6  19559559.445                    19559560.289
                        40.400
                  91078141.69113  21944574.555                    21944578.012
                        21.100
                  93444357.851 6  22459418.344                    22459424.168
                        40.000
                  86616559.766 5  20825656.656                    20825656.914
                        32.500
 111678092.163 8  87021884.16546  21251626.000                    21251631.344
        52.800          39.200
 124809821.610 7  97254416.58445  23750518.313                    23750520.742
        45.000          31.800
 117690573.700 8  91706923.59845  22395771.758                    22395774.051
        48.700          34.100
 119331866.646 7  92985998.37345  22708126.383                    22708132.512
        47.500          33.500
 118427589.739 7  92281250.15845  22536020.750                    22536024.250
        47.200          33.500
 117571528.366 7  91614227.04044  22373125.203                    22373129.453
        46.200          28.200
 114400445.174 7  89143257.52544  21769690.125                    21769693.359
        44.300          29.300
 110925455.662 8  86435425.78645  21108410.258                    21108413.910
        48.800          34.600
 120627708.281 7  93995654.40244  22954694.938                    22954697.531
        45.000          29.900
 18  3 15  9 50 39.0000000  0 15R07R15R16R06R23R24G30G21G07G08G27G15
                                G20G13G28
                  82555568.829 7  19828381.195                    19828384.129
                        42.500
                  91836669.387 5  22096264.922                    22096265.750
                        34.500
                  81264846.791 6  19559506.859                    19559508.188
                        40.000
                                  21945385.016

                  93447462.483 6  22460165.641                    22460170.250
                        40.500
                  86616982.549 5  20825758.984                    20825758.738
                        32.100
 111679461.622 8  87022951.27946  21251886.289                    21251891.891
        52.900          39.000
 124811422.794 7  97255664.25345  23750822.773                    23750825.352
        45.300          31.500
 117693411.330 7  91709134.73345  22396310.055                    22396313.895
        47.500          34.200
 119330635.784 7  92985039.30345  22707891.734                    22707898.203
        47.600          32.500
 118429124.836 7  92282446.34345  22536312.406                    22536316.648
        47.000          33.500
 117569234.746 7  91612439.80644  22372689.727                    22372693.285
        46.400          29.200
 114401088.156 7  89143758.55244  21769812.227                    21769815.613
        44.200          29.300
 110924695.231 8  86434833.23945  21108265.641                    21108268.824
        48.600          34.900
 120625244.972 7  93993734.96045  22954225.898                    22954228.586
        45.400          30.400
 18  3 15  9 50 40.0000000  0 15R07R15R16R06R23R24G30G21G07G08G27G15
                                G20G13G28
                  82556097.093 7  19828509.391                    19828510.762
                        42.600
                  91839981.934 6  22097059.945                    22097062.867
                        36.700
                  81264632.193 6  19559455.273                    19559456.949
                        40.400
                                  21946196.406

                  93450567.445 6  22460910.977                    22460916.473
                        40.000
                  86617406.018 5  20825860.805                    20825860.133
                        32.200
 111680831.617 8  87024018.81246  21252147.133                    21252152.891
        52.800          38.800
 124813024.443 7  97256912.28345  23751128.227                    23751130.043
        46.000          31.100
 117696249.282 7  91711346.12145  22396851.469                    22396854.102
        47.500          33.900
 119329405.455 8  92984080.63845  22707657.586                    22707663.918
        48.000          34.100
 118430660.503 7  92283642.96445  22536604.867                    22536608.578
        47.200          32.700
 117566941.522 7  91610652.87244  22372253.109                    22372257.207
        45.900          27.400
 114401731.746 7  89144260.04544  21769934.523                    21769938.133
        44.400          28.600
 110923935.366 8  86434241.14045  21108121.297                    21108123.797
        48.700          34.900
 120622781.962 7  93991815.75645  22953757.180                    22953760.316
        46.500          31.400
 18  3 15  9 50 41.0000000  0 16R07R15R16R06R23R24G30R17G21G07G08G27
                                G15G20G13G28
                  82556625.974 7  19828636.203                    19828637.672
                        42.800
                  91843294.663 6  22097856.031                    22097860.434
                        38.200
                  81264418.184 6  19559403.734                    19559405.145
                        40.700
                                  21947007.234

                  93453672.754 6  22461657.484                    22461664.387
                        39.900
                  86617830.148 5  20825962.141                    20825962.430
                        33.100
 111682202.134 8  87025086.74546  21252407.969                    21252413.023
        53.000          39.000
                  92293370.02316  22174995.367                    22174997.215
                        41.400
 124814626.421 7  97258160.58245  23751433.125                    23751435.207
        45.900          30.800
 117699087.577 7  91713557.78545  22397390.820                    22397393.824
        47.200          33.800
 119328175.658 7  92983122.39245  22707423.656                    22707430.250
        47.800          33.700
 118432196.759 7  92284840.05045  22536896.906                    22536900.828
        47.100          34.200
 117564648.689 7  91608866.23444  22371815.734                    22371820.277
        44.900          28.900
 114402375.950 7  89144762.01144  21770057.219                    21770060.555
        43.900          28.600
 110923176.074 8  86433649.48745  21107976.461                    21107979.703
        48.900          34.600
 120620319.220 7  93989896.75345  22953288.586                    22953292.246
        46.600          31.600
 18  3 15  9 50 42.0000000  0 16R07R15R16R06R23R24G30R17G21G07G08G27
                                G15G20G13G28
                  82557155.479 7  19828763.578                    19828764.516
                        42.400
                  91846607.601 6  22098651.445                    22098658.457
                        38.600
                  81264204.795 6  19559352.555                    19559353.883
                        40.200
                                  21947817.859

                  93456778.407 6  22462404.352                    22462410.313
                        39.600
                  86618255.033 5  20826064.906                    20826064.406
                        32.800
 111683573.180 8  87026155.09046  21252668.766                    21252674.313
        52.800          39.200
                  92290844.869 7  22174389.383                    22174392.008
                        42.100
 124816228.841 7  97259409.22045  23751738.102                    23751740.004
        45.700          30.800
 117701926.231 7  91715769.72845  22397931.141                    22397934.320
        47.200          34.000
 119326946.373 7  92982164.53145  22707189.563                    22707196.223
        47.400          33.500
 118433733.616 7  92286037.60545  22537189.109                    22537193.582
        47.500          33.400
 117562356.307 7  91607079.95444  22371380.578                    22371384.230
        45.500          29.300
 114403020.764 7  89145264.45344  21770180.008                    21770183.293
        43.700          29.500
 110922417.364 8  86433058.28245  21107831.852                    21107835.016
        48.600          33.800
 120617856.775 7  93987977.98545  22952820.055                    22952824.211
        46.000          31.100
 18  3 15  9 50 43.0000000  0 16R07R15R16R06R23R24G30R17G21G07G08G27
                                G15G20G13G28
                  82557685.621 7  19828890.578                    19828892.316
                        42.600
                  91849920.778 6  22099449.742                    22099456.293
                        38.900
                  81263992.017 6  19559300.336                    19559302.609
                        40.500
                                  21948627.625

                  93459884.420 6  22463151.727                    22463156.855
                        39.200
                  86618680.624 5  20826166.914                    20826167.180
                        31.900
 111684944.799 8  87027223.88846  21252929.680                    21252935.281
        52.900          39.200
                  92288320.128 7  22173784.695                    22173785.559
                        43.400
 124817831.676 7  97260658.17845  23752042.992                    23752045.180
        45.200          31.500
 117704765.270 7  91717981.96545  22398471.289                    22398474.305
        47.300          33.700
 119325717.728 7  92981207.16545  22706955.734                    22706962.227
        47.000          33.400
 118435271.082 7  92287235.62845  22537481.953                    22537485.859
        47.600          33.200
 117560064.358 7  91605294.02744  22370944.680                    22370947.910
        45.700          29.400
 114403666.204 7  89145767.39344  21770302.922                    21770305.836
        43.200          29.100
 110921659.250 8  86432467.54545  21107688.133                    21107690.660
        49.000          34.500
 120615394.649 7  93986059.45445  22952351.680                    22952356.039
        46.300          31.900
 18  3 15  9 50 44.0000000  0 15R07R15R16R23R24G30R17G21G07G08G27G15
                                G20G13G28
                  82558216.396 7  19829018.188                    19829019.980
                        42.600
                  91853234.211 6  22100248.773                    22100253.566
                        39.300
                  81263779.899 6  19559249.984                    19559251.695
                        40.200
                  93462990.775 6  22463898.820                    22463902.555
                        39.000
                  86619106.932 5  20826270.203                    20826269.652
                        32.200
 111686316.985 8  87028293.12646  21253190.648                    21253196.270
        52.700          39.200
                  92285795.817 7  22173177.531                    22173180.520
                        44.200
 124819434.938 7  97261907.46345  23752348.328                    23752350.031
        45.600          31.200
 117707604.674 7  91720194.48545  22399012.219                    22399014.754
        47.800          33.600
 119324489.630 7  92980250.23045  22706722.273                    22706728.266
        47.100          33.300
 118436809.151 7  92288434.12245  22537774.805                    22537778.566
        47.800          33.300
 117557772.878 7  91603508.45944  22370507.875                    22370512.461
        45.200          29.000
 114404312.307 7  89146270.84844  21770425.602                    21770428.988
        42.900          29.100
 110920901.725 8  86431877.26445  21107543.734                    21107546.789
        49.100          34.900
 120612932.864 7  93984141.18845  22951882.742                    22951887.535
        45.800          31.400
 18  3 15  9 50 45.0000000  0 15R07R15R16R23R24G30R17G21G07G08G27G15
                                G20G13G28
                  82558747.802 7  19829145.602                    19829147.660
                        42.400
                  91856547.828 6  22101046.625                    22101050.930
                        38.700
                  81263568.350 6  19559199.078                    19559200.395
                        40.400
                  93466097.425 6  22464645.523                    22464649.180
                        39.000
                  86619533.894 5  20826372.070                    20826372.426
                        32.600
 111687689.661 8  87029362.74446  21253451.828                    21253457.988
        52.600          39.400
                  92283271.878 7  22172573.000                    22172575.176
                        44.200
 124821038.576 7  97263157.02845  23752653.297                    23752654.828
        45.800          30.900
 117710444.414 8  91722407.27445  22399551.844                    22399555.137
        48.400          35.000
 119323262.022 7  92979293.66945  22706488.883                    22706494.309
        47.400          33.800
 118438347.773 7  92289633.04345  22538067.875                    22538071.391
        47.800          33.100
 117555481.743 7  91601723.16444  22370071.695                    22370076.102
        45.600          29.200
 114404959.006 7  89146774.78044  21770549.250                    21770552.066
        43.500          29.100
 110920144.729 8  86431287.39845  21107399.508                    21107402.719
        49.000          34.200
 120610471.290 7  93982223.09145  22951414.078                    22951419.125
        45.300          30.500
 18  3 15  9 50 46.0000000  0 15R07R15R16R23R24G30R17G21G07G08G27G15
                                G20G13G28
                  82559279.857 7  19829273.188                    19829275.227
                        42.600
                  91859861.657 6  22101844.773                    22101848.469
                        37.000
                  81263357.441 6  19559148.211                    19559149.918
                        40.300
                  93469204.446 6  22465391.242                    22465395.648
                        38.200
                  86619961.557 5  20826474.820                    20826475.344
                        33.400
 111689062.890 8  87030432.78646  21253713.438                    21253718.871
        52.700          38.900
                  92280748.334 7  22171967.484                    22171969.293
                        43.800
 124822642.621 7  97264406.91445  23752958.117                    23752960.418
        45.800          31.200
 117713284.489 8  91724620.31745  22400093.086                    22400095.547
        48.400          34.500
 119322034.973 7  92978337.53245  22706255.094                    22706261.219
        46.200          33.300
 118439887.027 7  92290832.45645  22538360.734                    22538364.355
        47.900          34.000
 117553191.062 7  91599938.23044  22369636.531                    22369640.297
        46.000          29.400
 114405606.286 7  89147279.17345  21770672.422                    21770675.574
        44.100          30.400
 110919388.328 8  86430697.98945  21107255.117                    21107258.508
        48.900          34.000
 120608010.035 7  93980305.23644  22950946.070                    22950950.527
        45.000          29.600
 18  3 15  9 50 47.0000000  0 15R07R15R16R23R24G30R17G21G07G08G27G15
                                G20G13G28
                  82559812.523 7  19829401.672                    19829403.090
                        42.600
                  91863175.712 6  22102643.438                    22102645.836
                        36.500
                  81263147.129 6  19559098.242                    19559099.398
                        40.400
                  93472311.823 6  22466136.773                    22466142.852
                        38.200
                  86620389.876 5  20826578.469                    20826578.469
                        33.200
 111690436.610 8  87031503.21746  21253975.086                    21253980.055
        52.300          39.000
                  92278225.150 7  22171362.750                    22171362.984
                        44.200
 124824247.054 7  97265657.10145  23753263.703                    23753265.844
        45.600          31.900
 117716124.893 7  91726833.61445  22400632.789                    22400635.996
        47.900          33.900
 119320808.424 7  92977381.77545  22706021.781                    22706027.754
        46.300          32.600
 118441426.854 7  92292032.32945  22538653.289                    22538657.586
        47.300          33.500
 117550900.756 7  91598153.58244  22369200.961                    22369204.680
        46.300          29.600
 114406254.148 7  89147784.01644  21770795.477                    21770798.457
        44.300          29.800
 110918632.479 8  86430109.01845  21107111.875                    21107115.016
        48.200          34.700
 120605549.027 7  93978387.58444  22950477.539                    22950482.094
        44.900          27.700
 18  3 15  9 50 48.0000000  0 15R07R15R16R23R24G30R17G21G07G08G27G15
                                G20G13G28
                  82560345.794 7  19829529.469                    19829531.516
                        42.200
                  91866490.020 5  22103440.633                    22103443.223
                        34.800
                  81262937.420 6  19559047.469                    19559049.195
                        40.200
                  93475419.495 6  22466884.000                    22466889.590
                        38.300
                  86620818.880 5  20826681.297                    20826681.637
                        32.200
 111691810.867 8  87032574.06446  21254236.469                    21254241.527
        52.700          39.200
                  92275702.357 7  22170756.570                    22170756.793
                        43.800
 124825851.899 7  97266907.61245  23753568.914                    23753571.430
        45.500          31.700
 117718965.646 8  91729047.19145  22401173.484                    22401176.563
        48.000          33.900
 119319582.416 7  92976426.44245  22705788.875                    22705794.559
        46.500          32.900
 118442967.259 7  92293232.65845  22538946.672                    22538950.629
        47.400          33.100
 117548610.847 7  91596369.23144  22368764.273                    22368768.801
        45.900          28.300
 114406902.581 7  89148289.29545  21770918.789                    21770922.188
        44.800          30.000
 110917877.203 8  86429520.48745  21106968.852                    21106971.348
        48.500          34.800
 120603088.300 7  93976470.13444  22950009.180                    22950013.074
        45.200          28.200
 18  3 15  9 50 49.0000000  0 15R07R15R16R23R24G30R17G21G07G08G27G15
                                G20G13G28
                  82560879.659 7  19829657.383                    19829659.422
                        42.400
                  91869804.566 5  22104238.109                    22104239.250
                        33.700
                  81262728.351 6  19558996.789                    19558998.633
                        40.100
                  93478527.540 6  22467630.383                    22467636.230
                        38.100
                  86621248.547 5  20826785.570                    20826784.934
                        33.100
 111693185.631 8  87033645.31346  21254498.234                    21254503.637
        52.600          38.700
                  92273179.902 7  22170151.234                    22170150.527
                        43.700
 124827457.129 7  97268158.42545  23753874.195                    23753876.988
        45.500          31.400
 117721806.723 8  91731261.01345  22401714.352                    22401717.176
        48.300          33.500
 119318356.963 7  92975471.54245  22705555.039                    22705561.059
        45.700          32.400
 118444508.248 7  92294433.45045  22539239.492                    22539244.320
        47.800          33.700
 117546321.346 7  91594585.20844  22368328.297                    22368332.746
        46.200          29.100
 114407551.613 7  89148795.02244  21771042.070                    21771044.820
        45.000          29.900
 110917122.465 8  86428932.38245  21106824.656                    21106827.391
        48.800          34.700
 120600627.850 7  93974552.89844  22949541.547                    22949544.676
        44.500          26.900
 18  3 15  9 50 50.0000000  0 15R07R15R16R23R24G30R17G21G07G08G27G15
                                G20G13G28
                  82561414.142 7  19829786.195                    19829787.730
                        42.300
                  91873119.328 5  22105034.078                    22105036.359
                        34.700
                  81262519.851 6  19558946.078                    19558948.684
                        39.800
                  93481635.883 6  22468377.875                    22468383.164
                        37.700
                  86621678.915 5  20826887.359                    20826888.082
                        33.400
 111694560.945 8  87034716.98046  21254759.945                    21254765.250
        52.800          38.900
                  92270657.830 7  22169544.008                    22169544.398
                        43.500
 124829062.730 7  97269409.51045  23754179.969                    23754182.504
        45.500          30.600
 117724648.156 7  91733475.11345  22402255.117                    22402258.160
        47.900          33.900
 119317132.044 7  92974517.05745  22705321.586                    22705327.738
        45.100          32.800
 118446049.784 7  92295634.65845  22539532.789                    22539537.824
        47.500          33.600
 117544032.240 7  91592801.49344  22367894.156                    22367897.555
        47.100          29.500
 114408201.271 7  89149301.24144  21771166.156                    21771169.250
        44.700          28.800
 110916368.314 8  86428344.73745  21106681.164                    21106683.699
        49.200          34.400
 120598167.714 7  93972635.90344  22949073.094                    22949075.887
        45.500          28.100
 18  3 15  9 50 51.0000000  0 15R07R15R16R23R24G30R17G21G07G08G27G15
                                G20G13G28
                  82561949.269 7  19829914.406                    19829916.461
                        42.100
                  91876434.328 6  22105830.602                    22105833.777
                        36.000
                  81262312.003 6  19558897.719                    19558898.715
                        40.100
                  93484744.561 6  22469124.344                    22469129.535
                        37.100
                  86622109.945 5  20826991.266                    20826991.863
                        33.400
 111695936.774 8  87035789.05046  21255021.625                    21255026.785
        53.000          39.000
                  92268136.130 7  22168938.328                    22168937.875
                        43.100
 124830668.832 7  97270660.97945  23754485.281                    23754487.922
        45.400          31.800
 117727489.930 8  91735689.48345  22402795.602                    22402798.566
        48.100          33.600
 119315907.655 7  92973562.99145  22705088.320                    22705095.520
        44.900          32.700
 118447591.938 7  92296836.34445  22539826.719                    22539831.414
        47.600          34.200
 117541743.598 7  91591018.14144  22367458.602                    22367462.098
        47.200          29.400
 114408851.545 7  89149807.93744  21771289.070                    21771293.074
        44.500          28.900
 110915614.730 8  86427757.52445  21106537.664                    21106541.000
        49.300          35.100
 120595707.875 7  93970719.12244  22948604.789                    22948607.324
        45.900          27.300
 18  3 15  9 50 52.0000000  0 15R07R15R16R23R24G30R17G21G07G08G27G15
                                G20G13G28
                  82562484.996 7  19830043.180                    19830045.102
                        42.300
                  91879749.516 6  22106627.438                    22106631.551
                        37.300
                  81262104.721 6  19558846.844                    19558848.059
                        40.400
                  93487853.582 6  22469873.047                    22469876.203
                        37.300
                  86622541.639 5  20827095.188                    20827095.777
                        33.100
 111697313.095 8  87036861.50646  21255283.617                    21255289.063
        52.800          39.200
                  92265614.751 7  22168330.578                    22168331.668
                        43.100
 124832275.324 7  97271912.78645  23754791.305                    23754793.723
        45.300          31.800
 117730332.022 8  91737904.09945  22403336.852                    22403339.625
        48.100          34.100
 119314683.802 7  92972609.34345  22704856.180                    22704861.918
        45.300          32.800
 118449134.609 7  92298038.41445  22540120.367                    22540125.793
        47.500          34.300
 117539455.326 7  91589235.07944  22367022.492                    22367026.824
        47.000          29.300
 114409502.387 7  89150315.08744  21771413.086                    21771416.742
        44.100          29.600
 110914861.675 8  86427170.72945  21106393.773                    21106397.453
        49.100          34.700
 120593248.270 7  93968802.51944  22948137.063                    22948138.723
        46.700          27.600
 18  3 15  9 50 53.0000000  0 15R07R15R16R23R24G30R17G21G07G08G27G15
                                G20G13G28
                  82563021.380 7  19830172.117                    19830173.820
                        42.500
                  91883064.926 6  22107423.828                    22107430.004
                        38.900
                  81261898.052 6  19558797.266                    19558798.691
                        40.900
                  93490962.955 6  22470621.586                    22470623.488
                        36.800
                  86622974.041 5  20827198.367                    20827199.766
                        33.300
 111698689.967 8  87037934.40246  21255545.656                    21255550.988
        52.500          39.500
                  92263093.880 7  22167722.758                    22167724.813
                        42.100
 124833882.256 7  97273164.95645  23755096.836                    23755099.473
        44.900          32.100
 117733174.475 8  91740118.99645  22403877.602                    22403880.039
        48.300          34.100
 119313460.509 7  92971656.12645  22704623.328                    22704629.586
        44.700          32.400
 118450677.898 7  92299240.96445  22540413.797                    22540419.145
        47.600          34.200
 117537167.473 7  91587452.33044  22366586.930                    22366590.738
        46.800          28.300
 114410153.878 7  89150822.75444  21771536.758                    21771540.398
        43.800          28.800
 110914109.216 8  86426584.40445  21106251.281                    21106254.199
        48.300          34.600
 120590788.990 7  93966886.17644  22947669.352                    22947670.730
        47.500          29.000
 18  3 15  9 50 54.0000000  0 15R07R15R16R23R24G30R17G21G07G08G27G15
                                G20G13G28
                  82563558.412 7  19830301.391                    19830303.203
                        42.200
                  91886380.546 6  22108220.461                    22108228.328
                        38.900
                  81261692.023 6  19558747.359                    19558748.977
                        40.700
                  93494072.713 6  22471367.922                    22471370.711
                        36.800
                  86623407.128 5  20827302.492                    20827303.668
                        32.100
 111700067.427 8  87039007.75346  21255807.570                    21255813.168
        52.400          39.600
                  92260573.414 6  22167118.586                    22167118.414
                        40.900
 124835489.643 7  97274417.48645  23755402.797                    23755405.355
        44.900          31.100
 117736017.314 7  91742334.19845  22404417.758                    22404422.039
        47.100          33.600
 119312237.797 7  92970703.37945  22704390.172                    22704396.508
        44.200          32.400
 118452221.807 7  92300443.98845  22540707.688                    22540713.082
        47.700          34.600
 117534880.079 7  91585669.93944  22366152.352                    22366155.477
        46.900          29.000
 114410805.985 7  89151330.90844  21771661.531                    21771664.508
        44.100          29.300
 110913357.354 7  86425998.53345  21106108.414                    21106111.004
        47.800          34.800
 120588330.016 7  93964970.06844  22947201.031                    22947202.910
        47.600          29.900
 18  3 15  9 50 55.0000000  0 15R07R15R16R23R24G30R17G21G07G08G27G15
                                G20G13G28
                  82564096.063 7  19830430.359                    19830431.789
                        42.400
                  91889696.362 6  22109018.383                    22109026.480
                        39.300
                  81261486.569 6  19558698.063                    19558699.641
                        40.500
                  93497182.800 6  22472115.313                    22472117.957
                        36.600
                  86623840.855 5  20827407.148                    20827408.438
                        31.900
 111701445.372 8  87040081.47746  21256069.680                    21256074.996
        52.700          39.200
                  92258053.313 6  22166511.953                    22166512.977
                        39.300
 124837097.390 7  97275670.30445  23755709.078                    23755711.555
        44.600          31.200
 117738860.475 7  91744549.64345  22404959.594                    22404962.273
        47.500          34.200
 119311015.612 7  92969751.03445  22704157.531                    22704164.000
        43.800          32.100
 118453766.293 8  92301647.47745  22541001.352                    22541006.957
        48.100          35.000
 117532593.037 7  91583887.81644  22365717.219                    22365720.504
        46.900          29.500
 114411458.697 7  89151839.52044  21771786.766                    21771788.750
        44.200          28.500
 110912606.063 8  86425413.10945  21105965.180                    21105968.387
        48.100          34.800
 120585871.350 7  93963054.21444  22946733.422                    22946735.473
        47.200          29.400
 18  3 15  9 50 56.0000000  0 15R07R15R16R23R24G30R17G21G07G08G27G15
                                G20G13G28
                  82564634.316 7  19830559.297                    19830561.164
                        42.200
                  91893012.358 6  22109819.641                    22109824.430
                        38.900
                  81261281.726 6  19558648.734                    19558650.020
                        40.000
                  93500293.229 6  22472863.586                    22472866.199
                        36.400
                  86624275.276 5  20827512.266                    20827512.859
                        31.300
 111702823.861 8  87041155.62446  21256331.695                    21256337.469
        52.800          38.800
                  92255533.532 6  22165905.719                    22165905.996
                        38.500
 124838705.593 7  97276923.47945  23756015.172                    23756017.027
        44.700          31.200
 117741703.955 7  91746765.33545  22405500.688                    22405503.918
        47.600          33.100
 119309793.948 7  92968799.09845  22703924.945                    22703931.598
        42.900          32.000
 118455311.420 8  92302851.47545  22541295.445                    22541301.504
        48.300          35.800
 117530306.405 7  91582106.01444  22365282.266                    22365285.117
        46.800          28.900
 114412112.021 7  89152348.62244  21771910.000                    21771913.004
        43.600          28.900
 110911855.318 8  86424828.11745  21105822.523                    21105824.984
        48.000          35.100
 120583412.929 7  93961138.56245  22946265.602                    22946268.316
        46.600          30.400
 18  3 15  9 50 57.0000000  0 15R07R15R16R23R24G30R17G21G07G08G27G15
                                G20G13G28
                  82565173.188 7  19830689.281                    19830691.129
                        42.200
                  91896328.521 6  22110619.719                    22110622.086
                        38.300
                  81261077.529 6  19558599.859                    19558600.848
                        39.900
                  93503404.000 6  22473609.867                    22473613.219
                        37.600
                  86624710.412 5  20827617.836                    20827617.457
                        31.900
 111704202.872 8  87042230.18346  21256593.953                    21256599.902
        52.500          39.200
                  92253014.094 6  22165300.570                    22165298.703
                        37.600
 124840314.186 7  97278176.94745  23756320.914                    23756323.508
        45.100          31.800
 117744547.810 8  91748981.32245  22406042.102                    22406044.617
        48.400          33.300
 119308572.854 6  92967847.60445  22703692.438                    22703699.270
        41.600          31.700
 118456857.097 7  92304055.91445  22541589.078                    22541595.801
        47.900          35.200
 117528020.214 7  91580324.54944  22364846.125                    22364849.988
        46.500          29.900
 114412765.968 7  89152858.20844  21772033.867                    21772037.250
        43.900          28.300
 110911105.154 8  86424243.57245  21105680.086                    21105682.590
        48.500          34.900
 120580954.809 7  93959223.15245  22945797.867                    22945801.020
        46.600          31.300
 18  3 15  9 50 58.0000000  0 15R07R15R16R23R24G30R17G21G07G08G27G15
                                G20G13G28
                  82565712.606 7  19830818.109                    19830819.738
                        42.400
                  91899644.876 6  22111418.500                    22111420.195
                        36.900
                  81260873.878 6  19558550.969                    19558552.051
                        40.200
                  93506515.050 6  22474357.695                    22474361.602
                        38.300
                  86625146.174 5  20827721.734                    20827721.512
                        31.500
 111705582.366 8  87043305.10546  21256856.711                    21256862.207
        52.900          39.400
                  92250494.936 6  22164695.063                    22164692.824
                        38.000
 124841923.126 7  97279430.69245  23756627.516                    23756629.512
        45.300          31.400
 117747391.929 8  91751197.51745  22406582.391                    22406586.301
        48.100          33.600
 119307352.179 6  92966896.43845  22703460.180                    22703466.848
        40.600          31.900
 118458403.324 8  92305260.78145  22541883.828                    22541890.070
        48.100          35.500
 117525734.342 7  91578543.33344  22364411.047                    22364415.523
        46.000          28.900
 114413420.443 7  89153368.19644  21772158.742                    21772162.137
        43.600          29.600
 110910355.496 8  86423659.42245  21105537.266                    21105539.816
        48.500          34.800
 120578496.910 7  93957307.91445  22945329.719                    22945333.090
        46.000          30.700
 18  3 15  9 50 59.0000000  0 15R07R15R16R23R24G30R17G21G07G08G27G15
                                G20G13G28
                  82566252.707 7  19830948.117                    19830950.504
                        42.200
                  91902961.528 6  22112217.438                    22112218.262
                        36.400
                  81260670.837 6  19558501.703                    19558503.254
                        40.100
                  93509626.415 6  22475106.203                    22475109.254
                        38.600
                  86625582.636 5  20827826.531                    20827826.777
                        32.300
 111706962.396 8  87044380.45246  21257119.469                    21257124.723
        53.200          39.100
                  92247976.146 6  22164088.891                    22164087.703
                        39.600
 124843532.438 7  97280684.71745  23756934.055                    23756935.965
        45.400          31.600
 117750236.425 8  91753414.01145  22407124.766                    22407127.285
        48.500          33.300
 119306132.089 6  92965945.72745  22703228.516                    22703234.750
        40.900          32.200
 118459950.135 8  92306466.10945  22542178.195                    22542184.793
        48.400          35.700
 117523448.895 7  91576762.45444  22363976.672                    22363980.199
        46.000          29.400
 114414075.479 7  89153878.60344  21772283.773                    21772286.605
        43.900          29.500
 110909606.412 8  86423075.71245  21105394.211                    21105397.418
        48.600          34.300
 120576039.324 7  93955392.92045  22944862.094                    22944866.484
        45.700          30.700
 18  3 15  9 51  0.0000000  0 15R07R15R16R23R24G30R17G21G07G08G27G15
                                G20G13G28
                  82566793.420 7  19831077.797                    19831080.176
                        42.100
                  91906278.432 5  22113013.828                    22113016.508
                        34.500
                  81260468.443 6  19558453.297                    19558454.227
                        40.300
                  93512738.112 6  22475853.617                    22475857.820
                        38.800
                  86626019.820 5  20827931.328                    20827932.664
                        31.200
 111708342.942 8  87045456.20246  21257382.320                    21257387.512
        52.900          39.100
                  92245457.792 6  22163485.477                    22163484.191
                        40.400
 124845142.187 7  97281939.06545  23757240.398                    23757242.633
        45.600          31.800
 117753081.275 8  91755630.77845  22407665.438                    22407668.789
        48.100          33.500
 119304912.524 6  92964995.42645  22702996.055                    22703002.590
        40.500          33.000
 118461497.539 7  92307671.89145  22542472.328                    22542479.625
        47.800          35.000
 117521163.895 7  91574981.92844  22363542.516                    22363545.727
        45.800          29.400
 114414731.215 7  89154389.56744  21772408.961                    21772411.543
        44.400          28.500
 110908857.931 8  86422492.48545  21105251.781                    21105255.012
        48.500          34.900
 120573582.014 7  93953478.14645  22944393.922                    22944399.184
        44.800          30.500
 18  3 15  9 51  1.0000000  0 15R07R15R16R23R24G30R17G21G07G08G27G15
                                G20G13G28
                  82567334.767 7  19831208.234                    19831209.996
                        42.000
                  91909595.593 5  22113811.109                    22113813.887
                        34.500
                  81260266.603 6  19558405.031                    19558405.668
                        39.800
                  93515850.134 6  22476601.953                    22476606.223
                        39.400
                  86626457.698 5  20828036.070                    20828037.004
                        32.100
 111709724.038 8  87046532.37646  21257645.500                    21257650.324
        52.900          39.400
                  92242939.858 6  22162881.422                    22162881.363
                        41.200
 124846752.322 7  97283193.71945  23757546.609                    23757548.516
        45.300          31.800
 117755926.472 8  91757847.80145  22408207.086                    22408209.910
        48.800          34.200
 119303693.511 6  92964045.55245  22702763.773                    22702770.520
        39.200          32.700
 118463045.527 7  92308878.12345  22542767.063                    22542774.082
        47.400          34.800
 117518879.312 7  91573201.72844  22363106.891                    22363111.254
        45.900          29.300
 114415387.477 7  89154900.94344  21772533.398                    21772536.582
        44.100          29.400
 110908109.995 8  86421909.67745  21105109.023                    21105112.574
        48.900          35.200
 120571124.992 7  93951563.60845  22943926.695                    22943931.801
        44.600          30.500
 18  3 15  9 51  2.0000000  0 15R07R15R16R23R24G30R17G21G07G08G27G15
                                G20G13G28
                  82567876.753 7  19831338.086                    19831340.051
                        42.100
                  91912912.993 5  22114607.617                    22114611.570
                        34.500
                  81260065.438 6  19558356.000                    19558357.750
                        40.000
                  93518962.529 6  22477350.992                    22477355.098
                        39.500
                  86626896.276 5  20828140.852                    20828142.328
                        30.800
 111711105.701 8  87047608.99146  21257908.258                    21257913.520
        53.000          39.200
                  92240422.320 7  22162275.914                    22162277.531
                        42.300
 124848362.904 7  97284448.71245  23757853.008                    23757855.164
        45.800          31.700
 117758772.023 8  91760065.11245  22408748.453                    22408751.492
        48.300          34.200
 119302475.093 6  92963096.15845  22702532.688                    22702538.734
        39.400          32.700
 118464594.132 7  92310084.83645  22543061.617                    22543068.660
        47.100          34.700
 117516595.168 7  91571421.87745  22362671.992                    22362676.363
        46.200          30.100
 114416044.412 7  89155412.84844  21772657.945                    21772661.578
        44.300          29.400
 110907362.685 8  86421327.35945  21104966.844                    21104970.750
        48.600          35.300
 120568668.274 7  93949649.31645  22943459.008                    22943463.898
        44.300          30.200
 18  3 15  9 51  3.0000000  0 15R07R15R16R23R24G30R17G21G07G08G27G15
                                G20G13G28
                  82568419.329 6  19831467.945                    19831470.414
                        41.900
                  91916230.582 5  22115404.836                    22115408.910
                        35.100
                  81259864.858 6  19558307.648                    19558309.230
                        39.900
                  93522075.238 6  22478100.289                    22478104.230
                        39.500
                  86627335.525 5  20828247.234                    20828248.777
                        31.000
 111712487.870 8  87048686.00746  21258171.422                    21258175.969
        52.800          39.400
                  92237905.162 7  22161671.563                    22161674.625
                        43.000
 124849973.859 7  97285703.99945  23758159.391                    23758161.594
        45.700          31.400
 117761617.908 8  91762282.67845  22409290.633                    22409293.188
        48.800          34.400
 119301257.222 6  92962147.18845  22702301.664                    22702307.059
        39.800          32.700
 118466143.272 7  92311291.95245  22543356.469                    22543363.816
        47.300          34.400
 117514311.433 7  91569642.34745  22362238.164                    22362241.832
        46.900          30.800
 114416701.950 7  89155925.22044  21772782.883                    21772786.422
        44.100          28.200
 110906615.910 8  86420745.45345  21104825.336                    21104828.398
        48.800          35.100
 120566211.829 7  93947735.22444  22942991.625                    22942996.777
        44.300          28.700
 18  3 15  9 51  4.0000000  0 15R07R15R16R23R24G30R17G21G07G08G27G15
                                G20G13G28
                  82568962.553 7  19831599.289                    19831600.961
                        42.600
                  91919548.386 6  22116202.742                    22116207.348
                        36.900
                  81259664.908 6  19558259.547                    19558261.180
                        40.000
                  93525188.284 6  22478847.031                    22478852.277
                        40.400
                  86627775.467 5  20828352.688                    20828354.324
                        32.000
 111713870.576 8  87049763.43446  21258434.453                    21258439.551
        53.200          39.200
                  92235388.404 7  22161066.672                    22161070.207
                        44.000
 124851585.251 7  97286959.62145  23758465.523                    23758468.324
        45.800          30.400
 117764464.152 8  91764500.53245  22409831.922                    22409834.703
        48.600          33.500
 119300039.892 6  92961198.64145  22702070.977                    22702075.230
        39.700          31.900
 118467693.034 7  92312499.54445  22543651.352                    22543658.773
        47.300          34.700
 117512028.132 7  91567863.16044  22361803.781                    22361807.145
        47.500          29.500
 114417360.085 7  89156438.06244  21772908.758                    21772911.684
        44.600          28.800
 110905869.725 8  86420164.01545  21104683.461                    21104686.145
        49.200          35.100
 120563755.718 7  93945821.39444  22942525.148                    22942528.871
        45.700          28.200
 18  3 15  9 51  5.0000000  0 15R07R15R16R23R24G30R17G21G07G08G27G15
                                G20G13G28
                  82569506.387 7  19831729.117                    19831731.930
                        42.100
                  91922866.385 6  22117000.008                    22117005.910
                        37.600
                  81259465.577 6  19558212.156                    19558212.914
                        40.200
                  93528301.664 6  22479594.852                    22479600.891
                        40.500
                  86628216.094 5  20828459.047                    20828460.070
                        31.400
 111715253.812 8  87050841.28446  21258697.664                    21258702.973
        53.000          39.000
                  92232872.018 7  22160463.359                    22160465.703
                        44.000
 124853197.093 7  97288215.60245  23758772.094                    23758775.160
        45.600          31.100
 117767310.740 8  91766718.64845  22410374.352                    22410376.488
        48.500          34.400
 119298823.133 6  92960250.53645  22701839.227                    22701844.043
        40.000          32.000
 118469243.401 7  92313707.60445  22543946.641                    22543953.813
        47.500          34.200
 117509745.234 7  91566084.28044  22361368.516                    22361372.922
        47.000          28.400
 114418018.817 7  89156951.36044  21773034.656                    21773037.066
        44.900          29.800
 110905124.105 8  86419583.00945  21104541.656                    21104544.371
        48.800          34.400
 120561299.886 7  93943907.77044  22942057.484                    22942061.727
        46.000          27.800
 18  3 15  9 51  6.0000000  0 15R07R15R16R23R24G30R17G21G07G08G27G15
                                G20G13G28
                  82570050.846 7  19831860.367                    19831862.113
                        42.400
                  91926184.582 6  22117799.750                    22117804.488
                        37.800
                  81259266.856 6  19558164.320                    19558165.070
                        40.100
                  93531415.394 6  22480342.359                    22480349.594
                        39.800
                  86628657.369 5  20828565.719                    20828566.578
                        32.400
 111716637.560 8  87051919.53046  21258961.008                    21258966.328
        52.900          39.200
                  92230355.990 7  22159859.586                    22159861.316
                        44.600
 124854809.325 7  97289471.90245  23759079.008                    23759081.629
        45.100          30.800
 117770157.665 8  91768937.04345  22410914.648                    22410918.078
        48.500          34.300
 119297606.886 6  92959302.81545  22701607.609                    22701612.660
        40.400          32.400
 118470794.343 7  92314916.11945  22544241.594                    22544248.734
        46.900          34.300
 117507462.772 7  91564305.73844  22360934.211                    22360938.508
        46.600          29.100
 114418678.153 7  89157465.12744  21773159.844                    21773162.262
        44.400          28.400
 110904379.060 8  86419002.45745  21104399.914                    21104402.813
        49.000          34.700
 120558844.326 7  93941994.34844  22941590.055                    22941594.227
        46.500          28.700
 18  3 15  9 51  7.0000000  0 15R07R15R16R23R24G30R17G21G07G08G27G15
                                G20G13G28
                  82570595.934 7  19831990.883                    19831993.352
                        42.300
                  91929503.039 6  22118598.938                    22118603.348
                        38.100
                  81259068.720 6  19558116.938                    19558118.133
                        40.500
                  93534529.456 6  22481089.289                    22481097.262
                        39.300
                  86629099.308 5  20828672.000                    20828672.262
                        32.000
 111718021.846 8  87052998.19346  21259224.195                    21259229.578
        52.800          39.400
                  92227840.361 7  22159255.563                    22159255.926
                        43.800
 124856421.931 7  97290728.50845  23759386.344                    23759388.961
        45.100          30.700
 117773004.930 8  91771155.69545  22411457.180                    22411460.012
        48.700          33.600
 119296391.213 6  92958355.54245  22701376.547                    22701380.781
        41.000          32.400
 118472345.875 7  92316125.10445  22544537.328                    22544544.063
        46.600          34.200
 117505180.736 7  91562527.52745  22360500.539                    22360504.328
        46.800          30.200
 114419338.105 7  89157979.37744  21773285.375                    21773288.094
        44.600          29.400
 110903634.580 8  86418422.33845  21104257.891                    21104260.746
        48.800          35.000
 120556389.079 7  93940081.15344  22941123.281                    22941126.414
        47.200          28.100
 18  3 15  9 51  8.0000000  0 15R07R15R16R23R24G30R17G21G07G08G27G15
                                G20G13G28
                  82571141.667 7  19832121.945                    19832124.426
                        42.400
                  91932821.685 6  22119397.945                    22119402.059
                        38.600
                  81258871.222 6  19558068.664                    19558070.207
                        40.400
                  93537643.900 6  22481838.242                    22481845.953
                        39.200
                  86629541.932 5  20828778.117                    20828778.840
                        32.900
 111719406.674 8  87054077.28146  21259487.516                    21259493.090
        52.700          39.300
                  92225325.092 7  22158651.914                    22158651.941
                        43.200
 124858034.957 7  97291985.42745  23759692.992                    23759695.512
        45.000          30.600
 117775852.545 8  91773374.61845  22411998.398                    22412001.836
        48.400          33.600
 119295176.099 6  92957408.70345  22701145.203                    22701149.703
        41.300          32.500
 118473897.968 7  92317334.53645  22544832.281                    22544839.520
        46.300          34.200
 117502899.076 7  91560749.62944  22360065.578                    22360070.023
        46.900          29.100
 114419998.641 7  89158494.08344  21773410.469                    21773413.957
        44.300          29.300
 110902890.674 8  86417842.67345  21104116.180                    21104119.418
        48.500          34.800
 120553934.123 7  93938168.16844  22940656.328                    22940658.766
        47.300          28.000
 18  3 15  9 51  9.0000000  0 15R07R15R16R23R24G30R17G21G07G08G27G15
                                G20G13G28
                  82571687.990 7  19832253.445                    19832255.133
                        42.400
                  91936140.596 6  22120198.477                    22120201.438
                        38.500
                  81258674.305 6  19558021.438                    19558022.586
                        40.700
                  93540758.658 6  22482587.938                    22482594.398
                        39.300
                  86629985.218 5  20828884.875                    20828885.082
                        32.600
 111720791.987 8  87055156.74846  21259751.133                    21259757.027
        52.900          39.200
                  92222810.146 7  22158046.703                    22158048.523
                        42.500
 124859648.360 7  97293242.63645  23760000.383                    23760002.305
        45.300          31.200
 117778700.481 8  91775593.78545  22412540.820                    22412543.828
        48.200          33.800
 119293961.474 7  92956462.26045  22700914.445                    22700918.863
        42.200          32.700
 118475450.647 7  92318544.42045  22545128.109                    22545135.078
        46.000          34.000
 117500617.788 7  91558972.01145  22359631.891                    22359636.332
        46.800          30.400
 114420659.770 7  89159009.24944  21773536.539                    21773539.758
        44.400          29.100
 110902147.312 8  86417263.43345  21103974.820                    21103978.215
        48.900          35.200
 120551479.443 7  93936255.39844  22940189.102                    22940191.191
        47.600          28.100
 18  3 15  9 51 10.0000000  0 15R07R15R16R23R24G30R17G21G07G08G27G15
                                G20G13G28
                  82572234.902 7  19832384.820                    19832387.207
                        42.100
                  91939459.687 6  22120997.609                    22120999.941
                        38.000
                  81258478.022 6  19557974.188                    19557975.227
                        40.200
                  93543873.744 6  22483337.289                    22483343.074
                        38.500
                  86630429.176 5  20828992.695                    20828992.598
                        33.100
 111722177.837 8  87056236.63346  21260015.109                    21260020.602
        52.700          38.900
                  92220295.550 6  22157435.609                    22157442.504
                        41.900
 124861262.195 7  97294500.17445  23760307.031                    23760309.656
        44.700          31.200
 117781548.779 8  91777813.22845  22413082.406                    22413085.656
        48.200          33.900
 119292747.392 7  92955516.23845  22700683.563                    22700687.793
        43.400          32.300
 118477003.934 7  92319754.77745  22545423.586                    22545430.242
        45.900          33.600
 117498336.964 7  91557194.74344  22359198.461                    22359201.891
        46.600          29.600
 114421321.491 7  89159524.87144  21773662.898                    21773665.547
        43.900          28.600
 110901404.517 8  86416684.63345  21103833.367                    21103836.523
        48.600          34.800
 120549025.049 7  93934342.84344  22939721.992                    22939723.727
        47.800          29.100
 18  3 15  9 51 11.0000000  0 15R07R15R16R23R24G30R17G21G07G08G27G15
                                G20G13G28
                  82572782.440 7  19832517.086                    19832518.457
                        42.600
                  91942779.039 6  22121796.523                    22121798.938
                        37.500
                  81258282.364 6  19557926.555                    19557928.414
                        40.400
                  93546989.159 6  22484086.203                    22484092.129
                        38.100
                  86630873.833 5  20829099.320                    20829098.910
                        32.800
 111723564.217 8  87057316.92946  21260278.656                    21260284.324
        52.900          39.200
                  92217781.541 6  22156830.898                    22156837.855
                        41.000
 124862876.395 7  97295757.99345  23760614.711                    23760616.559
        44.900          30.400
 117784397.396 8  91780032.91845  22413625.930                    22413628.117
        48.700          33.700
 119291533.879 7  92954570.65845  22700451.984                    22700456.715
        44.500          33.600
 118478557.773 7  92320965.57045  22545719.211                    22545725.441
        46.100          33.500
 117496056.541 7  91555417.77644  22358764.695                    22358768.219
        47.000          29.900
 114421983.850 7  89160040.99145  21773788.516                    21773791.684
        44.700          30.200
 110900662.302 8  86416106.27945  21103691.688                    21103694.965
        48.200          35.500
 120546570.930 7  93932430.52144  22939254.875                    22939256.859
        47.400          29.700
 18  3 15  9 51 12.0000000  0 15R07R15R16R23R24G30R17G21G07G08G27G15
                                G20G13G28
                  82573330.603 7  19832647.695                    19832650.125
                        42.500
                  91946098.537 6  22122593.422                    22122597.859
                        36.800
                  81258087.273 6  19557879.766                    19557881.496
                        40.400
                  93550104.953 6  22484835.359                    22484840.625
                        38.200
                  86631319.154 5  20829206.250                    20829206.277
                        32.500
 111724951.103 8  87058397.61746  21260542.688                    21260548.230
        52.500          39.200
                  92215267.897 6  22156227.617                    22156232.664
                        40.400
 124864491.001 7  97297016.12745  23760922.281                    23760924.320
        45.000          31.700
 117787246.345 7  91782252.88245  22414166.172                    22414170.367
        47.600          33.300
 119290320.868 7  92953625.45945  22700220.695                    22700225.883
        43.600          33.100
 118480112.163 7  92322176.78245  22546015.070                    22546021.313
        46.100          33.300
 117493776.540 7  91553641.14644  22358329.805                    22358334.125
        46.000          29.400
 114422646.770 7  89160557.54444  21773914.891                    21773917.695
        44.700          29.300
 110899920.669 7  86415528.38145  21103550.672                    21103554.098
        46.900          34.900
 120544117.089 7  93930518.42244  22938787.891                    22938790.273
        46.800          29.700
 18  3 15  9 51 13.0000000  0 15R07R15R16R23R24G30R17G21G07G08G27G15
                                G20G13G28
                  82573879.437 7  19832780.070                    19832782.375
                        42.500
                  91949418.265 6  22123390.820                    22123396.129
                        36.700
                  81257892.845 6  19557833.156                    19557834.078
                        40.600
                  93553221.097 6  22485584.656                    22485588.582
                        37.900
                  86631765.198 5  20829313.906                    20829313.227
                        32.500
 111726338.538 8  87059478.73046  21260806.930                    21260812.313
        52.700          39.000
                  92212754.562 6  22155625.813                    22155628.043
                        40.500
 124866106.024 7  97298274.58845  23761229.313                    23761231.219
        45.200          31.200
 117790095.659 8  91784473.13745  22414709.258                    22414712.477
        48.100          33.400
 119289108.408 7  92952680.68545  22699989.039                    22699995.105
        43.900          33.700
 118481667.205 7  92323388.50145  22546310.875                    22546316.613
        46.200          33.600
 117491496.952 7  91551864.85444  22357896.164                    22357900.383
        45.800          29.200
 114423310.294 7  89161074.57545  21774040.984                    21774044.168
        44.900          30.200
 110899179.624 7  86414950.93645  21103409.633                    21103412.883
        47.000          35.000
 120541663.541 7  93928606.56145  22938320.625                    22938323.656
        45.700          30.600
 18  3 15  9 51 14.0000000  0 15R07R15R16R23R24G30R17G21G07G08G27G15
                                G20G13G28
                  82574428.882 7  19832912.016                    19832914.098
                        42.600
                  91952738.212 5  22124188.688                    22124194.145
                        35.500
                  81257698.998 6  19557786.930                    19557788.133
                        40.200
                  93556337.558 6  22486334.320                    22486337.512
                        36.900
                  86632211.919 5  20829422.109                    20829420.828
                        32.800
 111727726.520 8  87060560.27146  21261070.961                    21261076.434
        53.100          39.200
                  92210241.566 6  22155023.578                    22155023.543
                        40.500
 124867721.453 7  97299533.34445  23761536.750                    23761539.012
        45.500          31.000
 117792945.336 8  91786693.66445  22415251.453                    22415254.457
        48.300          33.600
 119287896.521 7  92951736.34945  22699758.414                    22699764.555
        43.600          33.000
 118483222.790 7  92324600.64545  22546606.758                    22546612.699
        46.100          33.600
 117489217.760 7  91550088.86944  22357462.438                    22357466.625
        46.000          28.100
 114423974.449 7  89161592.08344  21774166.953                    21774170.125
        45.000          29.400
 110898439.131 7  86414373.92445  21103269.141                    21103272.113
        47.400          34.700
 120539210.291 7  93926694.94644  22937853.617                    22937856.848
        44.600          29.600
 18  3 15  9 51 15.0000000  0 15R07R15R16R23R24G30R17G21G07G08G27G15
                                G20G13G28
                  82574978.990 7  19833043.938                    19833046.223
                        42.600
                  91956058.451 5  22124986.438                    22124992.605
                        35.300
                  81257505.763 6  19557739.141                    19557741.539
                        40.700
                  93559454.369 6  22487083.953                    22487085.449
                        36.700
                  86632659.378 5  20829529.844                    20829528.445
                        32.800
 111729115.044 8  87061642.23446  21261335.078                    21261340.746
        53.100          39.400
                  92207728.963 6  22154421.039                    22154419.777
                        39.800
 124869337.311 7  97300792.44945  23761844.641                    23761846.730
        45.400          30.100
 117795795.345 7  91788914.45245  22415793.469                    22415796.988
        47.800          33.100
 119286685.228 7  92950792.47645  22699528.023                    22699534.078
        44.200          32.300
 118484779.017 7  92325813.28345  22546903.453                    22546908.746
        45.700          33.300
 117486939.039 7  91548313.26144  22357029.297                    22357032.695
        45.800          28.500
 114424639.259 7  89162110.11644  21774293.719                    21774296.828
        44.700          28.500
 110897699.263 7  86413797.41045  21103128.148                    21103131.547
        47.200          34.600
 120536757.335 7  93924783.58044  22937386.680                    22937390.676
        43.700          29.800
 18  3 15  9 51 16.0000000  0 15R07R15R16R23R24G30R17G21G07G08G27G15
                                G20G13G28
                  82575529.701 7  19833176.094                    19833178.539
                        42.600
                  91959378.935 5  22125784.938                    22125790.707
                        35.500
                  81257313.174 6  19557693.961                    19557695.438
                        40.300
                  93562571.511 6  22487833.680                    22487834.367
                        37.100
                  86633107.509 5  20829636.672                    20829635.691
                        33.100
 111730504.120 8  87062724.63046  21261599.656                    21261604.992
        53.300          38.900
                  92205216.742 6  22153819.883                    22153815.375
                        40.200
 124870953.631 7  97302051.91645  23762152.203                    23762153.578
        46.200          30.200
 117798645.725 8  91791135.51945  22416336.867                    22416339.063
        48.300          33.300
 119285474.507 7  92949849.05245  22699297.586                    22699303.336
        45.000          33.300
 118486335.812 7  92327026.35345  22547199.445                    22547204.555
        46.000          33.500
 117484660.729 7  91546537.96545  22356596.328                    22356599.305
        46.600          30.100
 114425304.625 7  89162628.57944  21774420.844                    21774423.328
        44.700          28.200
 110896959.961 7  86413221.32945  21102987.250                    21102990.770
        47.500          35.000
 120534304.661 7  93922872.43844  22936919.688                    22936923.871
        43.300          28.200
 18  3 15  9 51 17.0000000  0 15R07R15R16R23R24G30R17G21G07G08G27G15
                                G20G13G28
                  82576080.986 7  19833308.250                    19833310.836
                        42.700
                  91962699.614 5  22126585.250                    22126589.422
                        35.200
                  81257121.146 6  19557646.852                    19557648.813
                        40.100
                  93565688.914 6  22488582.328                    22488583.160
                        37.200
                  86633556.294 5  20829744.656                    20829743.641
                        33.500
 111731893.681 8  87063807.40546  21261864.156                    21261869.230
        53.400          38.900
                  92202704.869 6  22153217.969                    22153212.520
                        40.400
 124872570.293 7  97303311.66645  23762459.672                    23762461.688
        45.800          30.900
 117801496.412 7  91793356.83145  22416878.727                    22416882.246
        47.500          34.000
 119284264.263 7  92948906.00045  22699067.375                    22699073.078
        45.200          32.600
 118487893.180 7  92328239.87745  22547495.906                    22547500.582
        46.000          34.300
 117482382.790 7  91544762.95544  22356162.180                    22356165.770
        46.500          29.700
 114425970.558 7  89163147.47044  21774547.727                    21774550.352
        43.900          28.200
 110896221.182 8  86412645.65845  21102846.609                    21102850.047
        48.100          35.300
 120531852.261 7  93920961.51945  22936453.344                    22936457.566
        44.100          30.500
 18  3 15  9 51 18.0000000  0 15R07R15R16R23R24G30R17G21G07G08G27G15
                                G20G13G28
                  82576632.883 7  19833441.375                    19833443.922
                        42.200
                  91966020.470 6  22127386.164                    22127388.559
                        36.500
                  81256929.757 6  19557602.133                    19557602.410
                        39.900
                  93568806.701 6  22489331.383                    22489333.250
                        37.900
                  86634005.734 5  20829852.477                    20829851.918
                        32.000
 111733283.741 8  87064890.56946  21262128.539                    21262133.754
        53.200          38.800
                  92200193.381 6  22152615.922                    22152608.484
                        40.900
 124874187.354 7  97304571.74045  23762767.281                    23762769.059
        45.600          30.600
 117804347.452 7  91795578.41945  22417421.695                    22417424.273
        47.900          33.200
 119283054.547 7  92947963.36645  22698837.359                    22698843.063
        45.500          33.200
 118489451.090 7  92329453.83145  22547792.898                    22547797.383
        46.300          33.600
 117480105.260 7  91542988.25044  22355728.273                    22355732.387
        46.000          29.600
 114426637.097 7  89163666.83044  21774673.336                    21774677.289
        44.000          28.300
 110895482.946 8  86412070.41245  21102707.023                    21102709.746
        48.400          34.600
 120529400.126 7  93919050.80344  22935987.273                    22935990.691
        45.200          29.600
 18  3 15  9 51 19.0000000  0 15R07R15R16R23R24G30R17G21G07G08G27G15
                                G20G13G28
                  82577185.419 7  19833574.203                    19833576.012
                        42.600
                  91969341.484 6  22128185.648                    22128187.516
                        37.000
                  81256738.929 6  19557555.672                    19557556.496
                        39.800
                  93571924.789 6  22490080.234                    22490082.445
                        38.100
                  86634455.861 5  20829958.703                    20829960.016
                        32.900
 111734674.336 8  87065974.14846  21262392.992                    21262398.527
        53.700          39.000
                  92197682.278 6  22152013.266                    22152006.297
                        40.800
 124875804.787 7  97305832.09445  23763074.805                    23763076.969
        45.900          30.600
 117807198.782 7  91797800.23545  22417963.914                    22417967.055
        47.900          33.600
 119281845.365 7  92947021.14045  22698606.648                    22698612.770
        45.700          32.300
 118491009.616 7  92330668.26545  22548089.547                    22548093.629
        46.600          33.900
 117477828.118 7  91541213.85244  22355294.773                    22355299.313
        45.300          27.500
 114427304.263 7  89164186.69044  21774800.727                    21774804.273
        43.700          28.300
 110894745.291 8  86411495.61245  21102566.398                    21102569.590
        48.500          35.000
 120526948.287 7  93917140.30244  22935520.875                    22935524.078
        46.400          29.900
 18  3 15  9 51 20.0000000  0 15R07R15R16R23R24G30R17G21G07G08G27G15
                                G20G13G28
                  82577738.619 7  19833707.016                    19833709.262
                        42.400
                  91972662.743 6  22128985.266                    22128987.500
                        38.100
                  81256548.726 6  19557510.156                    19557511.258
                        39.900
                  93575043.208 6  22490828.836                    22490832.133
                        38.900
                  86634906.650 5  20830066.516                    20830068.141
                        33.100
 111736065.460 8  87067058.13846  21262657.367                    21262663.297
        53.200          38.900
                  92195171.535 6  22151409.203                    22151402.551
                        40.900
 124877422.638 7  97307092.76445  23763382.930                    23763384.953
        46.000          30.800
 117810050.472 8  91800022.32845  22418506.656                    22418509.473
        48.400          33.500
 119280636.748 7  92946079.35345  22698376.289                    22698382.922
        45.200          32.500
 118492568.710 7  92331883.15545  22548385.563                    22548389.871
        46.500          33.700
 117475551.381 7  91539439.76344  22354861.656                    22354865.797
        46.200          28.600
 114427971.989 7  89164706.98644  21774928.125                    21774931.223
        44.400          28.900
 110894008.195 8  86410921.25245  21102426.258                    21102429.434
        48.200          34.500
 120524496.759 7  93915230.03545  22935054.813                    22935057.574
        47.000          30.000
 18  3 15  9 51 21.0000000  0 15R07R15R16R23R24G30R17G21G07G08G27G15
                                G20G13G28
                  82578292.429 7  19833839.039                    19833841.777
                        42.700
                  91975984.216 6  22129784.688                    22129787.109
                        39.100
                  81256359.139 6  19557464.109                    19557465.684
                        40.200
                  93578161.996 6  22491578.281                    22491582.559
                        39.300
                  86635358.111 5  20830175.609                    20830176.211
                        33.100
 111737457.100 8  87068142.53146  21262922.547                    21262927.844
        53.000          38.900
                  92192661.181 6  22150805.969                    22150799.840
                        41.400
 124879040.869 7  97308353.71745  23763690.633                    23763692.754
        45.500          30.800
 117812902.525 8  91802244.71145  22419049.328                    22419052.262
        48.000          33.600
 119279428.689 7  92945138.00545  22698146.242                    22698153.352
        45.700          33.100
 118494128.413 7  92333098.51845  22548682.852                    22548686.668
        46.500          33.500
 117473275.068 7  91537666.02144  22354429.117                    22354432.574
        47.100          29.100
 114428640.339 7  89165227.76544  21775055.820                    21775058.195
        44.900          28.300
 110893271.665 8  86410347.33945  21102286.195                    21102289.297
        48.400          34.700
 120522045.516 7  93913319.97344  22934588.477                    22934591.164
        47.300          29.600
 18  3 15  9 51 22.0000000  0 15R07R15R16R23R24G30R17G21G07G08G27G15
                                G20G13G28
                  82578846.814 7  19833972.734                    19833974.801
                        42.500
                  91979305.900 6  22130582.406                    22130587.141
                        38.700
                  81256170.151 6  19557418.586                    19557419.715
                        40.300
                  93581281.100 6  22492327.781                    22492331.719
                        38.600
                  86635810.279 5  20830284.047                    20830285.582
                        32.900
 111738849.275 8  87069227.34946  21263187.836                    21263192.758
        53.100          38.900
                  92190151.175 7  22150202.672                    22150197.742
                        42.000
 124880659.524 7  97309614.99845  23763998.852                    23764000.887
        45.400          30.400
 117815754.896 8  91804467.33745  22419592.648                    22419594.879
        48.400          33.000
 119278221.154 7  92944197.08245  22697916.766                    22697923.641
        45.000          33.100
 118495688.694 7  92334314.33745  22548979.625                    22548983.520
        46.600          33.100
 117470999.165 7  91535892.59444  22353996.273                    22353999.328
        46.800          29.400
 114429309.278 7  89165749.00444  21775183.500                    21775185.555
        45.000          28.700
 110892535.717 8  86409773.87445  21102145.938                    21102148.723
        48.500          34.400
 120519594.575 7  93911410.12744  22934122.531                    22934124.531
        47.900          29.300
 18  3 15  9 51 23.0000000  0 15R07R15R16R23R24G30R17G21G07G08G27G15
                                G20G13G28
                  82579401.825 7  19834106.234                    19834108.508
                        42.600
                  91982627.854 6  22131381.359                    22131387.270
                        38.900
                  81255981.779 6  19557373.797                    19557374.883
                        40.300
                  93584400.507 6  22493077.305                    22493082.059
                        39.600
                  86636263.125 5  20830393.469                    20830394.320
                        33.600
 111740242.002 8  87070312.59146  21263452.875                    21263458.020
        53.700          39.400
                  92187641.557 7  22149599.656                    22149595.793
                        42.600
 124882278.570 7  97310876.59345  23764306.977                    23764308.934
        45.800          30.200
 117818607.628 7  91806690.24945  22420133.930                    22420138.375
        47.500          33.600
 119277014.193 7  92943256.60645  22697687.219                    22697693.938
        45.100          33.100
 118497249.555 7  92335530.60745  22549276.773                    22549280.273
        47.500          33.500
 117468723.707 7  91534119.50845  22353563.648                    22353566.363
        46.500          30.000
 114429978.879 7  89166270.77145  21775309.938                    21775312.938
        44.500          30.000
 110891800.350 8  86409200.86245  21102006.063                    21102008.684
        48.900          35.100
 120517143.940 7  93909500.50944  22933656.156                    22933657.996
        47.700          29.900
 18  3 15  9 51 24.0000000  0 15R07R15R16R23R24G30R17G21G07G08G27G15
                                G20G13G28
                  82579957.438 7  19834239.570                    19834241.676
                        42.900
                  91985949.961 6  22132180.422                    22132186.414
                        37.800
                  81255794.013 6  19557328.328                    19557328.973
                        40.200
                  93587520.239 6  22493827.211                    22493832.004
                        39.100
                  86636716.619 5  20830502.680                    20830503.828
                        33.800
 111741635.198 8  87071398.19646  21263717.836                    21263723.230
        53.800          39.100
                  92185132.267 7  22148992.852                    22148993.855
                        43.200
 124883898.016 7  97312138.48445  23764614.969                    23764616.973
        45.900          30.700
 117821460.675 8  91808913.40445  22420678.586                    22420680.535
        48.000          34.200
 119275807.756 7  92942316.53545  22697457.547                    22697464.156
        44.100          32.400
 118498810.979 7  92336747.30445  22549573.688                    22549576.816
        47.500          33.500
 117466448.629 7  91532346.71144  22353130.172                    22353133.594
        46.800          29.600
 114430649.062 7  89166792.99444  21775437.875                    21775440.699
        43.900          29.300
 110891065.511 8  86408628.25445  21101865.727                    21101868.953
        49.200          34.500
 120514693.552 7  93907591.08545  22933190.016                    22933191.516
        47.500          30.200
 18  3 15  9 51 25.0000000  0 15R07R15R16R23R24G30R17G21G07G08G27G15
                                G20G13G28
                  82580513.701 7  19834373.453                    19834375.281
                        42.600
                  91989272.331 6  22132980.320                    22132985.961
                        37.000
                  81255606.855 6  19557283.008                    19557284.586
                        40.600
                  93590640.343 6  22494575.984                    22494582.230
                        39.700
                  86637170.813 5  20830612.641                    20830612.824
                        32.600
 111743028.968 8  87072484.25246  21263982.906                    21263988.555
        53.400          39.100
                  92182623.431 7  22148385.719                    22148390.734
                        43.400
 124885517.874 7  97313400.70045  23764923.039                    23764925.305
        46.000          30.800
 117824314.097 7  91811136.85045  22421219.867                    22421223.805
        47.700          33.300
 119274601.880 7  92941376.90645  22697227.992                    22697234.531
        44.300          32.700
 118500373.009 7  92337964.48345  22549871.227                    22549873.934
        47.600          32.700
 117464173.960 7  91530574.23345  22352696.813                    22352700.961
        46.000          30.100
 114431319.857 7  89167315.71644  21775564.375                    21775568.148
        44.100          29.500
 110890331.262 8  86408056.10645  21101725.703                    21101729.270
        49.100          34.700
 120512243.479 7  93905681.90244  22932723.406                    22932724.871
        47.500          29.000
 18  3 15  9 51 26.0000000  0 15R07R15R16R23R24G30R17G21G07G08G27G15
                                G20G13G28
                  82581070.604 7  19834507.227                    19834508.996
                        42.600
                  91992594.881 5  22133779.820                    22133784.719
                        35.800
                  81255420.342 6  19557238.234                    19557239.512
                        40.400
                  93593760.793 6  22495326.625                    22495331.934
                        39.700
                  86637625.701 5  20830721.578                    20830722.031
                        32.500
 111744423.296 8  87073570.73746  21264247.945                    21264253.523
        52.800          39.200
                  92180115.040 7  22147784.305                    22147788.871
                        43.000
 124887138.143 7  97314663.23745  23765231.297                    23765233.461
        45.800          31.800
 117827167.879 8  91813360.56845  22421764.203                    22421766.816
        48.100          33.600
 119273396.556 7  92940437.70145  22696998.258                    22697005.094
        43.600          32.700
 118501935.607 7  92339182.10545  22550168.117                    22550170.836
        47.600          32.600
 117461899.696 7  91528802.07244  22352263.695                    22352268.012
        45.300          29.700
 114431991.219 7  89167838.86344  21775693.023                    21775695.680
        44.200          29.400
 110889597.606 8  86407484.42845  21101586.625                    21101589.590
        49.100          34.100
 120509793.770 7  93903773.00444  22932256.602                    22932258.434
        46.900          29.400
 18  3 15  9 51 27.0000000  0 15R07R15R16R23R24G30R17G21G07G08G27G15
                                G20G13G28
                  82581628.141 7  19834640.945                    19834643.066
                        42.300
                  91995917.637 5  22134579.195                    22134583.527
                        34.600
                  81255234.422 6  19557193.523                    19557195.031
                        40.600
                  93596881.601 6  22496078.367                    22496082.594
                        39.600
                  86638081.273 5  20830831.734                    20830832.113
                        32.800
 111745818.102 8  87074657.59746  21264513.375                    21264518.977
        52.800          39.300
                  92177607.031 7  22147181.281                    22147185.555
                        43.000
 124888758.806 7  97315926.10245  23765540.148                    23765541.863
        46.300          31.500
 117830021.948 8  91815584.51945  22422306.953                    22422310.195
        48.700          33.700
 119272191.750 7  92939498.88545  22696769.203                    22696776.145
        43.200          32.600
 118503498.808 7  92340400.19545  22550465.602                    22550468.688
        47.600          33.100
 117459625.877 7  91527030.27344  22351831.555                    22351834.977
        46.000          29.400
 114432663.242 7  89168362.51744  21775821.078                    21775823.891
        45.100          27.800
 110888864.498 8  86406913.16945  21101447.141                    21101450.160
        48.500          35.200
 120507344.245 7  93901864.26644  22931789.328                    22931792.246
        45.300          27.300
 18  3 15  9 51 28.0000000  0 15R07R15R16R23R24G30R17G21G07G08G27G15
                                G20G13G28
                  82582186.287 7  19834775.117                    19834777.367
                        42.300
                  91999240.684 5  22135377.617                    22135382.691
                        33.600
                  81255049.129 6  19557148.336                    19557150.422
                        40.400
                  93600002.727 6  22496828.258                    22496832.844
                        39.100
                  86638537.547 5  20830940.977                    20830941.285
                        32.500
 111747213.458 8  87075744.88746  21264779.023                    21264784.363
        52.800          39.300
                  92175099.404 7  22146579.078                    22146583.500
                        43.100
 124890379.913 7  97317189.30545  23765848.859                    23765850.637
        46.900          31.600
 117832876.419 8  91817808.78345  22422850.734                    22422853.000
        48.400          33.600
 119270987.514 7  92938560.51845  22696540.438                    22696546.895
        43.400          32.800
 118505062.602 7  92341618.73945  22550763.281                    22550766.461
        47.600          34.000
 117457352.530 7  91525258.85344  22351399.250                    22351402.832
        46.400          29.700
 114433335.867 7  89168886.63944  21775949.031                    21775951.547
        44.700          29.500
 110888131.998 8  86406342.39845  21101307.859                    21101310.500
        48.900          34.800
 120504894.995 7  93899955.75644  22931322.805                    22931326.344
        44.000          27.500
 18  3 15  9 51 29.0000000  0 15R07R15R16R23R24G30R17G21G07G08G27G15
                                G20G13G28
                  82582745.076 7  19834908.969                    19834911.641
                        42.400
                  92002563.998 5  22136176.648                    22136182.387
                        34.900
                  81254864.480 6  19557104.531                    19557106.035
                        40.400
                  93603124.189 6  22497579.102                    22497583.645
                        39.500
                  86638994.543 5  20831051.109                    20831050.965
                        32.400
 111748609.374 8  87076832.61046  21265045.000                    21265050.203
        52.800          39.400
                  92172592.141 7  22145976.891                    22145980.875
                        43.400
 124892001.447 7  97318452.82845  23766157.258                    23766158.867
        46.900          31.300
 117835731.233 8  91820033.31645  22423393.242                    22423396.641
        48.200          33.700
 119269783.873 7  92937622.61745  22696311.156                    22696318.066
        43.300          33.100
 118506627.016 8  92342837.76745  22551061.219                    22551064.242
        48.100          34.900
 117455079.643 7  91523487.79144  22350966.977                    22350970.211
        46.500          28.900
 114434009.105 7  89169411.23945  21776077.359                    21776079.723
        45.300          30.400
 110887400.088 8  86405772.07745  21101168.930                    21101171.609
        49.100          35.300
 120502446.106 7  93898047.55444  22930856.398                    22930860.305
        42.400          29.800
 18  3 15  9 51 30.0000000  0 15R07R15R16R23R24G30R17G21G07G08G27G15
                                G20G13G28
                  82583304.496 7  19835043.563                    19835045.824
                        42.100
                  92005887.557 5  22136976.297                    22136980.715
                        35.100
                  81254680.434 6  19557060.367                    19557061.488
                        40.000
                  93606245.980 6  22498328.578                    22498334.238
                        39.000
                  86639452.217 5  20831161.531                    20831161.059
                        32.600
 111750005.819 8  87077920.75046  21265310.438                    21265315.789
        52.600          39.200
                  92170085.242 7  22145375.555                    22145379.141
                        43.100
 124893623.411 7  97319716.68445  23766465.820                    23766467.539
        47.300          31.400
 117838586.416 8  91822258.13645  22423937.031                    22423939.770
        48.300          34.000
 119268580.731 7  92936685.11145  22696082.164                    22696089.203
        42.300          33.200
 118508192.028 8  92344057.26245  22551358.633                    22551361.934
        48.200          34.000
 117452807.154 7  91521717.02544  22350534.070                    22350537.891
        46.800          29.800
 114434682.974 7  89169936.31345  21776205.195                    21776208.219
        45.100          30.400
 110886668.751 8  86405202.20345  21101029.539                    21101032.344
        48.900          34.900
 120499997.481 6  93896139.57344  22930390.422                    22930394.301
        41.900          28.500
 18  3 15  9 51 31.0000000  0 15R07R15R16R23R24G30R17G21G07G08G27G15
                                G20G13G28
                  82583864.544 7  19835177.938                    19835180.000
                        42.400
                  92009211.277 6  22137776.945                    22137780.820
                        36.400
                  81254497.001 6  19557015.414                    19557017.090
                        40.200
                  93609368.122 6  22499078.531                    22499084.793
                        39.300
                  86639910.576 5  20831271.008                    20831270.801
                        32.800
 111751402.822 8  87079009.32946  21265576.758                    21265581.926
        52.800          39.600
                  92167578.714 7  22144774.055                    22144775.844
                        42.900
 124895245.762 7  97320980.84545  23766774.594                    23766776.328
        47.200          31.800
 117841441.949 7  91824483.22745  22424479.188                    22424482.746
        47.900          33.500
 119267378.142 7  92935748.03845  22695853.422                    22695859.992
        42.300          32.800
 118509757.600 7  92345277.19145  22551656.398                    22551659.754
        47.900          34.900
 117450535.036 7  91519946.54244  22350101.469                    22350105.516
        46.500          29.600
 114435357.429 7  89170461.85345  21776333.445                    21776336.668
        44.700          30.600
 110885937.996 8  86404632.78245  21100890.531                    21100893.199
        48.600          35.500
 120497549.146 7  93894231.82244  22929925.836                    22929928.855
        43.300          29.700
 18  3 15  9 51 32.0000000  0 15R07R15R16R23R24G30R17G21G07G08G27G15
                                G20G13G28
                  82584425.238 7  19835312.734                    19835314.789
                        42.400
                  92012535.218 6  22138578.672                    22138580.855
                        36.900
                  81254314.189 6  19556972.070                    19556973.395
                        40.200
                  93612490.613 6  22499829.539                    22499834.957
                        38.400
                  86640369.613 5  20831382.055                    20831381.102
                        32.200
 111752800.339 8  87080098.29746  21265842.727                    21265847.629
        52.800          39.200
                  92165072.583 6  22144174.289                    22144172.961
                        41.900
 124896868.515 7  97322245.32645  23767082.969                    23767085.254
        47.200          31.200
 117844297.830 8  91826708.58645  22425023.891                    22425026.617
        48.500          33.900
 119266176.133 6  92934811.42245  22695624.922                    22695631.539
        41.600          32.900
 118511323.766 7  92346497.58045  22551954.891                    22551958.105
        47.900          34.700
 117448263.350 7  91518176.39344  22349669.266                    22349673.594
        46.800          29.700
 114436032.493 7  89170987.86244  21776461.688                    21776464.984
        44.900          29.900
 110885207.813 8  86404063.81045  21100751.227                    21100754.313
        49.000          35.500
 120495101.184 7  93892324.35045  22929460.648                    22929463.320
        45.100          31.000
 18  3 15  9 51 33.0000000  0 15R07R15R16R23R24G30R17G21G07G08G27G15
                                G20G13G28
                  82584986.544 7  19835448.148                    19835449.449
                        42.300
                  92015859.367 6  22139379.344                    22139381.777
                        37.400
                  81254132.018 6  19556928.336                    19556929.480
                        40.200
                  93615613.455 6  22500581.109                    22500584.840
                        38.400
                  86640829.366 5  20831492.320                    20831491.742
                        32.700
 111754198.408 8  87081187.70246  21266108.531                    21266113.836
        52.100          38.900
                  92162566.818 6  22143573.258                    22143570.125
                        41.200
 124898491.693 7  97323510.13945  23767391.930                    23767394.152
        46.800          30.700
 117847154.059 8  91828934.21345  22425566.570                    22425570.164
        48.400          33.600
 119264974.663 6  92933875.23745  22695396.398                    22695402.863
        41.400          32.400
 118512890.534 7  92347718.44845  22552252.672                    22552256.340
        47.600          34.600
 117445992.116 7  91516406.61345  22349237.164                    22349241.027
        47.100          30.000
 114436708.211 7  89171514.39144  21776590.703                    21776593.609
        44.900          29.500
 110884478.213 8  86403495.29045  21100612.477                    21100615.410
        48.500          35.500
 120492653.497 7  93890417.08745  22928995.328                    22928997.809
        46.300          30.500
 18  3 15  9 51 34.0000000  0 15R07R15R16R23R24G30R17G21G07G08G27G15
                                G20G13G28
                  82585548.491 7  19835582.992                    19835584.527
                        42.500
                  92019183.751 6  22140178.188                    22140181.324
                        38.400
                  81253950.437 6  19556884.953                    19556885.949
                        40.400
                  93618736.606 6  22501332.031                    22501335.141
                        38.200
                  86641289.768 5  20831603.414                    20831602.531
                        33.000
 111755596.999 8  87082277.51346  21266374.609                    21266380.121
        52.500          39.200
                  92160061.439 6  22142973.734                    22142967.480
                        40.900
 124900115.288 7  97324775.27145  23767701.242                    23767703.188
        46.800          30.000
 117850010.629 8  91831160.10045  22426111.250                    22426113.945
        48.600          33.500
 119263773.739 7  92932939.46545  22695168.102                    22695173.816
        42.300          32.700
 118514457.869 7  92348939.74945  22552550.836                    22552554.617
        47.500          34.800
 117443721.350 7  91514637.20345  22348805.039                    22348809.309
        47.000          30.000
 114437384.511 7  89172041.37544  21776719.141                    21776722.453
        44.000          28.900
 110883749.193 8  86402927.21945  21100473.953                    21100476.699
        48.400          35.000
 120490206.110 7  93888510.03944  22928530.281                    22928532.047
        47.300          29.900
 18  3 15  9 51 35.0000000  0 15R07R15R16R23R24G30R17G21G07G08G27G15
                                G20G13G28
                  82586111.079 7  19835716.938                    19835719.895
                        42.600
                  92022508.362 6  22140977.680                    22140981.828
                        38.200
                  81253769.483 6  19556840.836                    19556842.078
                        40.000
                  93621860.076 6  22502082.961                    22502085.711
                        37.500
                  86641750.876 5  20831713.766                    20831713.574
                        33.200
 111756996.155 8  87083367.76146  21266640.844                    21266646.387
        51.900          38.900
                  92157556.426 6  22142372.828                    22142364.875
                        41.000
 124901739.293 7  97326040.73245  23768010.227                    23768012.262
        47.100          30.700
 117852867.575 8  91833386.30245  22426653.867                    22426657.234
        48.300          33.600
 119262573.395 7  92932004.13345  22694939.586                    22694945.668
        42.000          32.500
 118516025.802 7  92350161.50945  22552849.539                    22552853.473
        47.600          34.800
 117441450.965 7  91512868.08944  22348373.289                    22348377.215
        46.900          29.100
 114438061.408 7  89172568.82844  21776847.898                    21776850.754
        43.900          28.900
 110883020.770 8  86402359.61645  21100335.102                    21100338.160
        48.300          34.900
 120487759.035 7  93886603.21345  22928063.930                    22928066.371
        47.900          30.500
 18  3 15  9 51 36.0000000  0 15R07R15R16R23R24G30R17G21G07G08G27G15
                                G20G13G28
                  82586674.241 7  19835852.375                    19835855.109
                        43.100
                  92025833.158 6  22141776.383                    22141782.621
                        37.800
                  81253589.094 6  19556797.367                    19556798.902
                        40.200
                  93624983.859 6  22502833.078                    22502836.754
                        37.300
                  86642212.595 5  20831824.570                    20831824.938
                        33.300
 111758395.737 8  87084458.34546  21266907.180                    21266912.602
        51.700          39.200
                  92155051.746 6  22141770.336                    22141763.363
                        41.100
 124903363.663 7  97327306.47745  23768319.133                    23768321.012
        46.700          30.800
 117855724.771 8  91835612.69045  22427198.734                    22427201.207
        48.500          34.200
 119261373.565 6  92931069.20245  22694711.711                    22694717.172
        41.600          33.300
 118517594.287 8  92351383.70345  22553147.727                    22553152.398
        48.000          35.200
 117439180.967 7  91511099.28444  22347941.492                    22347945.039
        46.700          29.300
 114438738.888 7  89173096.72244  21776977.695                    21776979.609
        43.800          29.500
 110882292.838 8  86401792.39545  21100196.500                    21100199.805
        48.000          35.100
 120485312.183 8  93884696.55145  22927598.563                    22927600.504
        48.000          31.100
 18  3 15  9 51 37.0000000  0 15R07R15R16R23R24G30R17G21G07G08G27G15
                                G20G13G28
                  82587238.059 7  19835988.875                    19835990.238
                        42.900
                  92029158.205 6  22142574.289                    22142582.152
                        37.900
                  81253409.352 6  19556753.563                    19556755.664
                        40.500
                  93628108.012 6  22503584.180                    22503588.063
                        37.500
                  86642675.000 5  20831935.953                    20831936.574
                        32.900
 111759795.914 8  87085549.39746  21267173.688                    21267179.133
        52.300          39.300
                  92152547.479 6  22141171.766                    22141162.066
                        41.600
 124904988.465 7  97328572.55345  23768628.266                    23768630.492
        46.200          30.300
 117858582.326 8  91837839.35745  22427742.031                    22427744.863
        48.400          33.800
 119260174.318 7  92930134.73445  22694483.547                    22694488.980
        42.300          33.300
 118519163.351 7  92352606.34745  22553446.203                    22553450.898
        47.500          35.500
 117436911.388 7  91509330.77944  22347509.180                    22347512.883
        46.100          29.400
 114439416.973 7  89173625.10444  21777105.734                    21777108.730
        43.200          28.900
 110881565.503 8  86401225.64245  21100058.445                    21100061.020
        48.100          34.300
 120482865.646 8  93882790.13245  22927132.984                    22927135.063
        48.000          30.200
 18  3 15  9 51 38.0000000  0 15R07R15R16R23R24G30R17G21G07G08G27G15
                                G20G13G28
                  82587802.479 7  19836123.672                    19836126.246
                        42.700
                  92032483.496 6  22143373.445                    22143381.836
                        37.100
                  81253230.211 6  19556711.750                    19556712.410
                        40.500
                  93631232.515 6  22504333.938                    22504338.449
                        37.100
                  86643138.062 5  20832047.406                    20832047.668
                        32.400
 111761196.599 8  87086640.84646  21267440.156                    21267445.441
        52.100          38.900
                  92150043.602 7  22140571.359                    22140559.488
                        42.300
 124906613.662 7  97329838.93845  23768937.930                    23768939.375
        46.300          31.100
 117861440.233 8  91840066.29845  22428285.594                    22428288.934
        48.400          34.200
 119258975.561 7  92929200.65345  22694255.500                    22694261.238
        42.400          33.100
 118520733.005 7  92353829.44045  22553744.492                    22553749.945
        47.400          34.700
 117434642.218 7  91507562.60244  22347076.750                    22347081.191
        46.600          29.300
 114440095.703 7  89174153.98944  21777235.211                    21777237.938
        42.800          29.100
 110880838.756 7  86400659.34445  21099919.516                    21099922.656
        47.900          34.400
 120480419.405 7  93880883.95144  22926667.250                    22926669.664
        47.500          29.800
 18  3 15  9 51 39.0000000  0 14R07R15R16R23R24G30G21G07G08G27G15G20
                                G13G28
                  82588367.494 7  19836258.914                    19836261.301
                        42.700
                  92035808.972 5  22144174.477                    22144181.965
                        35.800
                  81253051.690 6  19556668.148                    19556669.063
                        40.900
                  93634357.339 6  22505084.609                    22505089.488
                        37.000
                  86643601.814 5  20832158.320                    20832159.074
                        33.400
 111762597.796 8  87087732.68946  21267706.547                    21267712.227
        52.200          39.200
 124908239.231 7  97331105.60845  23769247.117                    23769249.051
        47.000          31.000
 117864298.485 7  91842293.50345  22428829.742                    22428832.570
        47.900          33.700
 119257777.344 7  92928266.98745  22694027.250                    22694032.984
        43.000          32.500
 118522303.230 8  92355052.98345  22554043.391                    22554048.859
        48.000          35.400
 117432373.418 7  91505794.71245  22346645.164                    22346649.543
        46.400          30.200
 114440775.026 7  89174683.34044  21777363.859                    21777367.176
        43.200          28.500
 110880112.552 8  86400093.47745  21099781.641                    21099784.715
        48.200          34.500
 120477973.417 7  93878977.96744  22926201.281                    22926203.797
        47.000          29.700
 18  3 15  9 51 40.0000000  0 14R07R15R16R23R24G30G21G07G08G27G15G20
                                G13G28
                  82588933.131 7  19836395.047                    19836398.184
                        42.800
                  92039134.692 5  22144977.281                    22144981.059
                        35.000
                  81252873.787 6  19556625.094                    19556626.602
                        40.500
                  93637482.484 6  22505836.359                    22505839.770
                        37.600
                  86644066.254 5  20832271.484                    20832270.617
                        33.100
 111763999.523 8  87088824.94246  21267973.219                    21267978.723
        52.100          38.900
 124909865.174 7  97332372.56745  23769556.547                    23769558.723
        47.000          30.700
 117867157.070 8  91844520.96545  22429374.297                    22429376.746
        48.600          34.900
 119256579.686 7  92927333.74845  22693799.469                    22693804.555
        43.600          33.800
 118523874.030 7  92356276.97445  22554342.398                    22554348.059
        47.300          35.200
 117430105.036 7  91504027.13844  22346214.070                    22346217.660
        47.100          29.100
 114441454.939 7  89175213.15544  21777493.719                    21777496.762
        43.800          28.900
 110879386.923 8  86399528.05145  21099643.672                    21099646.590
        48.900          34.800
 120475527.747 7  93877072.23644  22925735.078                    22925738.406
        45.800          28.300
 18  3 15  9 51 41.0000000  0 14R07R15R16R23R24G30G21G07G08G27G15G20
                                G13G28
                  82589499.383 7  19836531.070                    19836533.359
                        43.100
                  92042460.615 5  22145778.750                    22145781.523
                        35.300
                  81252696.436 6  19556581.977                    19556583.641
                        40.800
                  93640607.971 6  22506587.445                    22506591.043
                        37.700
                  86644531.400 5  20832382.219                    20832382.617
                        33.100
 111765401.765 8  87089917.59846  21268239.906                    21268245.516
        52.500          39.000
 124911491.515 7  97333639.81345  23769865.648                    23769867.813
        46.800          30.700
 117870016.001 7  91846748.70545  22429917.336                    22429920.430
        47.800          34.000
 119255382.563 7  92926400.92245  22693571.875                    22693577.461
        44.300          33.500
 118525445.408 7  92357501.41545  22554641.422                    22554647.465
        47.300          35.100
 117427837.104 7  91502259.92444  22345782.781                    22345786.016
        47.600          28.900
 114442135.447 7  89175743.43844  21777623.688                    21777626.137
        43.500          29.000
 110878661.845 8  86398963.05645  21099505.758                    21099508.527
        49.300          34.700
 120473082.320 7  93875166.71344  22925268.586                    22925272.730
        45.000          28.200
 18  3 15  9 51 42.0000000  0 15R07R15R16R23R24G30R17G21G07G08G27G15
                                G20G13G28
                  82590066.277 7  19836667.680                    19836669.539
                        42.700
                  92045786.737 5  22146578.484                    22146580.969
                        35.200
                  81252519.703 6  19556539.883                    19556541.363
                        40.300
                  93643733.793 6  22507339.164                    22507342.035
                        37.800
                  86644997.248 5  20832494.422                    20832494.773
                        33.300
 111766804.541 8  87091010.66946  21268507.313                    21268512.730
        52.300          39.100
                  92140029.89816  22138151.539                    22138154.570
                        39.800
 124913118.298 7  97334907.41545  23770174.859                    23770177.418
        47.000          31.500
 117872875.247 8  91848976.68645  22430461.891                    22430464.969
        48.200          34.000
 119254186.007 7  92925468.54245  22693343.953                    22693349.438
        44.400          33.000
 118527017.387 7  92358726.32445  22554940.445                    22554946.840
        47.200          35.100
 117425569.592 7  91500493.02945  22345351.141                    22345354.973
        47.800          30.200
 114442816.593 7  89176274.21744  21777753.102                    21777755.762
        43.600          28.900
 110877937.362 8  86398398.52345  21099367.680                    21099370.652
        49.000          34.600
 120470637.191 7  93873261.42744  22924803.672                    22924807.676
        43.900          28.200
 18  3 15  9 51 43.0000000  0 15R07R15R16R23R24G30R17G21G07G08G27G15
                                G20G13G28
                  82590633.820 7  19836804.000                    19836805.750
                        42.700
                  92049113.104 5  22147378.844                    22147380.570
                        35.600
                  81252343.610 6  19556497.719                    19556498.445
                        40.300
                  93646859.897 6  22508090.898                    22508093.348
                        38.400
                  86645463.795 5  20832606.609                    20832607.176
                        33.300
 111768207.856 8  87092104.15946  21268774.273                    21268779.820
        52.100          39.000
                  92137527.925 6  22137552.273                    22137554.117
                        40.700
 124914745.507 7  97336175.35445  23770485.031                    23770487.176
        47.000          30.600
 117875734.873 8  91851204.96745  22431006.164                    22431008.801
        48.500          34.000
 119252990.011 7  92924536.60945  22693116.195                    22693122.055
        43.900          32.600
 118528589.965 7  92359951.69245  22555239.578                    22555246.152
        47.300          34.800
 117423302.487 7  91498726.45844  22344919.367                    22344923.480
        46.800          28.500
 114443498.325 7  89176805.45544  21777883.156                    21777885.586
        43.600          28.600
 110877213.438 8  86397834.43045  21099230.141                    21099232.875
        48.700          34.900
 120468192.361 7  93871356.38744  22924338.344                    22924342.363
        43.400          28.900
 18  3 15  9 51 44.0000000  0 15R07R15R16R23R24G30R17G21G07G08G27G15
                                G20G13G28
                  82591201.987 7  19836939.664                    19836942.152
                        42.900
                  92052439.647 6  22148179.547                    22148181.578
                        36.700
                  81252168.137 6  19556455.461                    19556456.688
                        40.600
                  93649986.357 6  22508842.320                    22508845.289
                        38.700
                  86645930.998 5  20832718.227                    20832719.422
                        33.800
 111769611.707 8  87093198.06646  21269041.563                    21269046.684
        52.400          38.900
                  92135026.344 6  22136952.500                    22136953.715
                        41.800
 124916373.137 7  97337443.63545  23770795.016                    23770796.711
        46.300          31.100
 117878594.828 8  91853433.50845  22431549.539                    22431553.551
        48.000          33.700
 119251794.556 7  92923605.10245  22692887.984                    22692894.332
        43.700          32.400
 118530163.099 7  92361177.50345  22555539.031                    22555545.629
        46.600          34.400
 117421035.854 7  91496960.26345  22344487.547                    22344492.078
        46.300          30.500
 114444180.653 7  89177337.14944  21778012.695                    21778014.891
        43.500          28.800
 110876490.112 8  86397270.79945  21099092.617                    21099095.398
        48.800          34.800
 120465747.812 7  93869451.57744  22923874.375                    22923877.039
        44.100          29.600
 18  3 15  9 51 45.0000000  0 15R07R15R16R23R24G30R17G21G07G08G27G15
                                G20G13G28
                  82591770.743 7  19837076.758                    19837079.367
                        42.400
                  92055766.388 6  22148978.984                    22148981.879
                        37.700
                  81251993.259 6  19556413.500                    19556414.594
                        40.700
                  93653113.111 6  22509593.125                    22509596.344
                        38.600
                  86646398.843 5  20832831.336                    20832831.750
                        33.200
 111771016.050 8  87094292.36046  21269308.969                    21269313.895
        52.500          39.400
                  92132525.146 7  22136352.711                    22136353.570
                        42.600
 124918001.153 7  97338712.23545  23771104.438                    23771106.633
        46.700          31.300
 117881455.095 8  91855662.28645  22432095.086                    22432097.184
        48.400          33.100
 119250599.638 7  92922674.00945  22692661.078                    22692666.855
        43.800          33.500
 118531736.823 7  92362403.76645  22555838.000                    22555845.320
        46.200          34.400
 117418769.576 7  91495194.35444  22344055.953                    22344060.906
        45.500          29.300
 114444863.549 7  89177869.27444  21778142.547                    21778145.344
        43.400          28.700
 110875767.328 8  86396707.58545  21098954.867                    21098957.941
        48.800          34.800
 120463303.550 7  93867546.97844  22923409.305                    22923411.832
        45.000          29.300
 18  3 15  9 51 46.0000000  0 15R07R15R16R23R24G30R17G21G07G08G27G15
                                G20G13G28
                  82592340.105 7  19837213.570                    19837215.727
                        42.700
                  92059093.301 6  22149778.352                    22149783.148
                        38.600
                  81251819.015 6  19556371.422                    19556372.969
                        40.800
                  93656240.222 6  22510344.609                    22510349.004
                        38.100
                  86646867.364 5  20832943.344                    20832944.438
                        32.600
 111772420.936 8  87095387.07246  21269576.281                    21269581.141
        52.500          39.600
                  92130024.365 7  22135752.414                    22135753.664
                        43.800
 124919629.543 7  97339981.12445  23771414.398                    23771416.473
        46.300          31.400
 117884315.689 7  91857891.32445  22432638.672                    22432642.234
        47.900          33.700
 119249405.240 7  92921743.32545  22692433.766                    22692439.777
        43.900          32.700
 118533311.137 7  92363630.48745  22556137.836                    22556144.852
        46.000          34.100
 117416503.694 7  91493428.76544  22343625.422                    22343629.305
        45.100          28.200
 114445547.047 7  89178401.86144  21778272.664                    21778275.254
        43.900          28.100
 110875045.111 8  86396144.81845  21098817.906                    21098820.680
        49.300          34.600
 120460859.605 7  93865642.62044  22922944.859                    22922946.949
        45.600          29.200
 18  3 15  9 51 47.0000000  0 15R07R15R16R23R24G30R17G21G07G08G27G15
                                G20G13G28
                  82592910.136 7  19837350.750                    19837352.773
                        42.400
                  92062420.423 6  22150579.266                    22150584.711
                        38.700
                  81251645.359 6  19556330.063                    19556330.898
                        40.700
                  93659367.685 6  22511096.234                    22511100.727
                        38.600
                  86647336.579 5  20833056.328                    20833056.840
                        32.600
 111773826.357 8  87096482.20846  21269843.445                    21269849.047
        52.300          39.200
                  92127523.962 7  22135151.969                    22135153.723
                        44.100
 124921258.387 7  97341250.36245  23771724.172                    23771726.488
        46.100          31.300
 117887176.676 7  91860120.66745  22433183.273                    22433185.922
        47.800          33.500
 119248211.397 7  92920813.07145  22692206.945                    22692212.828
        44.300          33.600
 118534886.032 7  92364857.67445  22556437.453                    22556444.746
        45.900          33.900
 117414238.260 7  91491663.51044  22343194.852                    22343198.375
        45.800          29.800
 114446231.151 7  89178934.91544  21778403.281                    21778405.684
        44.600          28.500
 110874323.483 8  86395582.51445  21098680.602                    21098683.188
        49.100          35.100
 120458415.965 7  93863738.49145  22922480.203                    22922481.723
        46.700          30.600
 18  3 15  9 51 48.0000000  0 15R07R15R16R23R24G30R17G21G07G08G27G15
                                G20G13G28
                  82593480.786 7  19837487.617                    19837490.145
                        42.600
                  92065747.775 6  22151379.938                    22151385.523
                        39.300
                  81251472.365 6  19556288.164                    19556288.855
                        40.900
                  93662495.519 6  22511847.727                    22511852.609
                        39.000
                  86647806.472 5  20833169.414                    20833169.789
                        33.100
 111775232.324 8  87097577.76946  21270111.102                    21270116.547
        52.600          39.000
                  92125023.978 7  22134551.820                    22134552.574
                        44.200
 124922887.637 7  97342519.91045  23772034.242                    23772036.582
        45.500          31.200
 117890038.010 8  91862350.27345  22433727.898                    22433730.742
        48.000          34.200
 119247018.131 7  92919883.25845  22691979.758                    22691985.477
        44.100          33.400
 118536461.553 7  92366085.34245  22556737.648                    22556744.570
        45.700          33.900
 117411973.292 7  91489898.59844  22342763.758                    22342767.133
        45.500          29.400
 114446915.915 7  89179468.47744  21778533.609                    21778535.930
        44.400          28.500
 110873602.451 8  86395020.67145  21098543.328                    21098545.832
        48.800          34.900
 120455972.632 7  93861834.58845  22922015.430                    22922016.609
        47.300          30.600
 18  3 15  9 51 49.0000000  0 15R07R15R16R23R24G30R17G21G07G08G27G15
                                G20G13G28
                  82594052.080 7  19837624.734                    19837626.973
                        42.700
                  92069075.328 6  22152179.734                    22152186.961
                        38.900
                  81251299.934 6  19556247.070                    19556248.156
                        40.900
                  93665623.687 6  22512599.734                    22512604.914
                        39.100
                  86648277.095 5  20833283.313                    20833283.375
                        32.600
 111776638.819 8  87098673.74046  21270378.500                    21270384.008
        52.500          39.200
                  92122524.374 7  22133951.625                    22133952.332
                        44.000
 124924517.326 7  97343789.80045  23772344.320                    23772346.617
        45.900          31.800
 117892899.675 8  91864580.14045  22434272.695                    22434274.914
        48.100          33.900
 119245825.412 7  92918953.85445  22691752.578                    22691758.352
        44.500          33.300
 118538037.672 7  92367313.48145  22557037.125                    22557044.438
        45.600          34.600
 117409708.744 7  91488134.01444  22342332.672                    22342336.246
        45.000          29.100
 114447601.319 7  89180002.55344  21778663.445                    21778666.180
        43.900          28.300
 110872882.014 8  86394459.28245  21098405.398                    21098408.949
        48.900          35.100
 120453529.589 7  93859930.90145  22921550.156                    22921551.996
        47.500          30.300
 18  3 15  9 51 50.0000000  0 15R07R15R16R23R24G30R17G21G07G08G27G15
                                G20G13G28
                  82594623.968 7  19837762.008                    19837764.746
                        42.400
                  92072403.126 6  22152980.211                    22152987.605
                        38.700
                  81251128.132 6  19556205.469                    19556206.293
                        40.600
                  93668752.184 6  22513351.289                    22513356.445
                        39.300
                  86648748.366 5  20833396.773                    20833396.328
                        33.300
 111778045.822 8  87099770.10546  21270646.375                    21270651.895
        52.100          39.200
                  92120025.176 7  22133351.547                    22133352.227
                        43.900
 124926147.378 7  97345059.96745  23772654.398                    23772656.742
        46.100          32.400
 117895761.707 7  91866810.29645  22434815.797                    22434819.813
        47.500          33.900
 119244633.240 7  92918024.87445  22691525.734                    22691531.738
        45.300          33.700
 118539614.342 7  92368542.04745  22557337.422                    22557344.457
        45.400          34.400
 117407444.554 7  91486369.70544  22341900.883                    22341905.438
        44.900          29.400
 114448287.285 7  89180537.07944  21778793.859                    21778796.801
        43.900          29.100
 110872162.106 8  86393898.31845  21098268.383                    21098271.586
        48.200          34.800
 120451086.853 7  93858027.45245  22921085.578                    22921087.012
        46.800          30.200
 18  3 15  9 51 51.0000000  0 15R07R15R16R23R24G30R17G21G07G08G27G15
                                G20G13G28
                  82595196.479 7  19837899.234                    19837901.707
                        42.300
                  92075731.151 6  22153782.484                    22153788.148
                        37.000
                  81250956.949 6  19556163.492                    19556165.137
                        40.800
                  93671880.978 6  22514103.773                    22514108.453
                        39.300
                  86649220.354 5  20833510.953                    20833510.098
                        32.900
 111779453.396 8  87100866.91746  21270914.336                    21270919.535
        52.200          39.100
                  92117526.300 7  22132748.586                    22132751.945
                        43.800
 124927777.839 7  97346330.45645  23772964.969                    23772967.340
        46.000          31.800
 117898624.055 8  91869040.69245  22435362.242                    22435364.457
        48.000          34.100
 119243441.670 7  92917096.36145  22691298.477                    22691305.188
        45.700          33.800
 118541191.648 7  92369771.10545  22557637.867                    22557644.254
        45.300          34.300
 117405180.810 7  91484605.75444  22341471.055                    22341474.594
        45.100          29.700
 114448973.838 7  89181072.06544  21778924.844                    21778927.574
        43.700          28.200
 110871442.787 8  86393337.80245  21098131.500                    21098135.195
        48.300          34.900
 120448644.413 7  93856124.23744  22920620.742                    22920622.043
        46.500          29.300
 18  3 15  9 51 52.0000000  0 15R07R15R16R23R24G30R17G21G07G08G27G15
                                G20G13G28
                  82595769.655 7  19838037.758                    19838039.973
                        42.400
                  92079059.359 5  22154583.531                    22154588.629
                        35.400
                  81250786.394 6  19556122.906                    19556124.383
                        40.500
                  93675010.173 6  22514857.125                    22514860.527
                        39.800
                  86649693.063 5  20833624.672                    20833623.930
                        33.300
 111780861.502 8  87101964.14146  21271181.883                    21271187.125
        52.600          38.900
                  92115027.923 7  22132147.570                    22132150.570
                        43.600
 124929408.795 7  97347601.34145  23773275.164                    23773277.574
        46.000          30.900
 117901486.787 7  91871271.39545  22435905.430                    22435909.625
        47.600          34.000
 119242250.623 7  92916168.26145  22691072.281                    22691078.238
        45.600          33.900
 118542769.521 7  92371000.60245  22557937.898                    22557944.805
        45.200          33.600
 117402917.556 7  91482842.19045  22341040.938                    22341043.816
        45.800          30.100
 114449661.059 7  89181607.56344  21779055.422                    21779058.215
        43.600          28.600
 110870724.087 8  86392777.77645  21097994.750                    21097998.055
        48.400          35.400
 120446202.287 7  93854221.27244  22920155.203                    22920157.246
        46.200          29.600
 18  3 15  9 51 53.0000000  0 15R07R15R16R23R24G30R17G21G07G08G27G15
                                G20G13G28
                  82596343.455 7  19838175.297                    19838177.734
                        42.900
                  92082387.816 5  22155386.063                    22155389.344
                        34.000
                  81250616.465 6  19556081.477                    19556083.566
                        41.000
                  93678139.643 6  22515608.945                    22515613.430
                        39.600
                  86650166.435 5  20833738.719                    20833737.980
                        33.000
 111782270.150 8  87103061.78746  21271450.078                    21271455.449
        52.700          38.800
                  92112529.969 7  22131547.250                    22131549.543
                        42.600
 124931040.112 7  97348872.50645  23773585.484                    23773587.910
        46.400          31.400
 117904349.872 8  91873502.36545  22436451.242                    22436454.234
        48.000          34.200
 119241060.123 7  92915240.59545  22690844.922                    22690851.594
        45.900          33.600
 118544348.017 7  92372230.58745  22558239.055                    22558245.418
        45.700          34.000
 117400654.693 7  91481078.93544  22340610.211                    22340613.566
        46.400          29.500
 114450348.826 7  89182143.47544  21779186.453                    21779188.941
        44.500          28.900
 110870005.952 8  86392218.19145  21097858.000                    21097861.684
        48.600          35.400
 120443760.452 7  93852318.53944  22919690.305                    22919692.613
        45.900          28.500
 18  3 15  9 51 54.0000000  0 15R07R15R16R23R24G30R17G21G07G08G27G15
                                G20G13G28
                  82596917.912 7  19838312.914                    19838315.152
                        42.800
                  92085716.599 5  22156187.180                    22156189.250
                        33.100
                  81250447.203 6  19556041.789                    19556042.926
                        40.500
                  93681269.515 6  22516362.008                    22516365.879
                        39.600
                  86650640.515 5  20833852.563                    20833852.172
                        33.200
 111783679.388 8  87104159.88946  21271718.617                    21271723.902
        52.200          38.800
                  92110032.383 6  22130947.406                    22130949.020
                        41.600
 124932671.877 7  97350144.02045  23773896.039                    23773898.395
        46.500          31.000
 117907213.325 8  91875733.63045  22436996.344                    22436999.367
        48.000          33.400
 119239870.238 7  92914313.41345  22690618.906                    22690625.625
        46.100          33.700
 118545927.139 7  92373461.05945  22558539.750                    22558545.867
        45.800          33.900
 117398392.319 7  91479316.06345  22340179.508                    22340183.141
        46.300          30.700
 114451037.293 7  89182679.92144  21779317.453                    21779319.906
        44.300          29.000
 110869288.437 8  86391659.09045  21097721.797                    21097725.031
        48.600          34.800
 120441318.981 7  93850416.08944  22919225.414                    22919228.113
        45.100          29.000
 18  3 15  9 51 55.0000000  0 15R07R15R16R23R24G30R17G21G07G08G27G15
                                G20G13G28
                  82597493.024 7  19838451.297                    19838453.445
                        42.700
                  92089045.669 5  22156987.422                    22156988.930
                        33.900
                  81250278.588 6  19556000.891                    19556001.801
                        40.400
                  93684399.702 6  22517113.961                    22517118.668
                        39.600
                  86651115.288 5  20833965.500                    20833966.129
                        34.000
 111785089.155 8  87105258.41546  21271986.938                    21271992.090
        52.500          39.000
                  92107535.187 6  22130347.773                    22130348.277
                        40.600
 124934304.059 7  97351415.84045  23774207.602                    23774209.305
        46.400          31.600
 117910077.153 8  91877965.17445  22437541.555                    22437544.262
        48.300          33.400
 119238680.950 7  92913386.69145  22690392.391                    22690399.031
        45.500          34.100
 118547506.841 7  92374691.98045  22558840.281                    22558846.605
        45.500          33.600
 117396130.381 7  91477553.52144  22339748.555                    22339752.473
        46.600          29.400
 114451726.347 7  89183216.82644  21779448.570                    21779450.836
        44.200          28.100
 110868571.539 8  86391100.46645  21097585.766                    21097588.828
        48.200          34.400
 120438877.786 7  93848513.85744  22918760.438                    22918764.023
        44.500          28.500
 18  3 15  9 51 56.0000000  0 15R07R15R16R23R24G30R17G21G07G08G27G15
                                G20G13G28
                  82598068.748 7  19838589.836                    19838592.168
                        43.100
                  92092374.981 5  22157787.117                    22157790.199
                        35.800
                  81250110.585 6  19555959.695                    19555961.879
                        40.200
                  93687530.240 6  22517866.617                    22517871.395
                        39.400
                  86651590.754 5  20834079.930                    20834080.145
                        33.800
 111786499.465 8  87106357.35846  21272255.273                    21272260.324
        53.100          39.000
                  92105038.315 6  22129747.813                    22129746.695
                        40.000
 124935936.609 7  97352687.93645  23774517.914                    23774520.141
        46.300          31.400
 117912941.339 8  91880197.00745  22438085.984                    22438089.520
        48.000          33.400
 119237492.156 7  92912460.37645  22690166.219                    22690173.047
        45.700          33.200
 118549087.155 7  92375923.37945  22559141.273                    22559147.113
        45.700          34.200
 117393868.900 7  91475791.34444  22339317.555                    22339322.320
        46.100          29.300
 114452416.000 7  89183754.18444  21779579.797                    21779582.230
        43.900          29.900
 110867855.193 8  86390542.27345  21097449.219                    21097452.418
        48.500          35.100
 120436436.927 7  93846611.90644  22918296.016                    22918299.457
        44.000          29.300
 18  3 15  9 51 57.0000000  0 15R07R15R16R23R24G30R17G21G07G08G27G15
                                G20G13G28
                  82598645.073 7  19838728.328                    19838730.238
                        42.800
                  92095704.479 6  22158586.898                    22158591.027
                        36.400
                  81249943.162 6  19555919.789                    19555921.453
                        39.900
                  93690661.118 6  22518619.148                    22518623.172
                        38.800
                  86652066.890 5  20834193.953                    20834195.074
                        34.200
 111787910.296 8  87107456.70446  21272523.508                    21272529.133
        53.300          39.200
                  92102541.764 6  22129149.195                    22129145.938
                        40.100
 124937569.622 7  97353960.38545  23774827.922                    23774830.363
        46.500          30.800
 117915805.822 7  91882429.07845  22438630.938                    22438633.883
        47.700          33.300
 119236303.943 7  92911534.49845  22689940.602                    22689946.375
        46.000          33.100
 118550668.015 7  92377155.20945  22559441.852                    22559447.313
        45.900          34.200
 117391607.818 7  91474029.49644  22338888.078                    22338891.746
        46.000          29.200
 114453106.233 7  89184291.99344  21779711.656                    21779713.828
        44.100          29.600
 110867139.413 8  86389984.52845  21097313.164                    21097316.484
        48.800          34.500
 120433996.321 7  93844710.14144  22917831.641                    22917835.035
        44.100          28.700
 18  3 15  9 51 58.0000000  0 16R09R07R15R16R23R24G30R17G21G07G08G27
                                G15G20G13G28
                  92636181.77916  22304292.000                    22304292.828
                        40.000
                  82599222.012 7  19838866.500                    19838868.535
                        42.100
                  92099034.151 6  22159386.977                    22159393.242
                        36.800
                  81249776.363 6  19555880.031                    19555881.273
                        40.200
                  93693792.319 6  22519369.914                    22519375.730
                        37.900
                  86652543.727 5  20834309.586                    20834309.672
                        33.100
 111789321.649 8  87108556.46046  21272792.320                    21272797.465
        52.900          38.500
                  92100045.567 6  22128549.641                    22128546.066
                        40.700
 124939203.011 7  97355233.14445  23775139.195                    23775141.172
        46.500          31.500
 117918670.701 7  91884661.44745  22439176.055                    22439178.992
        47.800          33.200
 119235116.270 7  92910609.04045  22689714.273                    22689720.348
        46.300          33.100
 118552249.483 7  92378387.50745  22559743.031                    22559748.375
        45.800          33.800
 117389347.135 7  91472267.96544  22338458.094                    22338461.887
        45.600          28.800
 114453797.165 7  89184830.35344  21779842.461                    21779844.797
        43.700          29.300
 110866424.222 8  86389427.23745  21097177.102                    21097180.152
        48.500          34.700
 120431556.001 7  93842808.61744  22917367.039                    22917370.793
        43.800          29.300
 18  3 15  9 51 59.0000000  0 16R09R07R15R16R23R24G30R17G21G07G08G27
                                G15G20G13G28
                  92633131.407 6  22303557.453                    22303558.543
                        39.800
                  82599799.589 7  19839005.016                    19839007.188
                        42.500
                  92102364.018 6  22160187.391                    22160194.824
                        38.000
                  81249610.157 6  19555839.359                    19555841.109
                        40.700
                  93696923.889 6  22520122.836                    22520128.059
                        38.500
                  86653021.249 5  20834424.031                    20834424.355
                        33.400
 111790733.517 8  87109656.61746  21273060.695                    21273066.402
        53.400          39.000
                  92097549.769 6  22127950.188                    22127946.547
                        41.700
 124940836.813 7  97356506.23445  23775449.641                    23775452.090
        46.100          31.300
 117921535.854 8  91886894.03445  22439721.875                    22439724.402
        48.400          33.500
 119233929.132 7  92909684.00745  22689488.047                    22689494.805
        46.100          33.700
 118553831.526 7  92379620.25945  22560043.633                    22560049.371
        45.900          33.900
 117387086.869 7  91470506.74844  22338027.344                    22338031.410
        46.000          29.800
 114454488.656 7  89185369.16044  21779973.883                    21779977.074
        43.500          28.200
 110865709.567 8  86388870.36445  21097041.258                    21097044.148
        48.800          34.800
 120429115.983 7  93840907.32944  22916903.430                    22916906.422
        44.100          28.900
 18  3 15  9 52  0.0000000  0 16R09R07R15R16R23R24G30R17G21G07G08G27
                                G15G20G13G28
                  92630081.237 6  22302823.047                    22302824.039
                        40.000
                  82600377.810 7  19839144.406                    19839145.949
                        42.500
                  92105694.125 6  22160991.008                    22160996.891
                        38.800
                  81249444.572 6  19555799.047                    19555801.012
                        40.800
                  93700055.845 6  22520875.289                    22520880.422
                        38.000
                  86653499.487 5  20834538.789                    20834539.543
                        33.400
 111792145.957 8  87110757.22246  21273329.578                    21273335.258
        53.200          39.100
                  92095054.445 6  22127351.016                    22127348.992
                        41.900
 124942471.100 7  97357779.71645  23775760.656                    23775763.141
        46.300          31.400
 117924401.426 8  91889126.94745  22440266.492                    22440269.785
        48.200          33.400
 119232742.580 7  92908759.42145  22689262.617                    22689268.945
        46.400          33.600
 118555414.222 7  92380853.52445  22560345.063                    22560350.477
        46.100          33.900
 117384827.023 7  91468745.84045  22337597.477                    22337601.137
        46.300          30.200
 114455180.836 7  89185908.52144  21780106.094                    21780108.652
        43.500          28.500
 110864995.561 8  86388313.99045  21096904.836                    21096908.344
        48.300          34.900
 120426676.306 7  93839006.29444  22916439.633                    22916442.484
        45.200          29.600
 18  3 15  9 52  1.0000000  0 16R09R07R15R16R23R24G30R17G21G07G08G27
                                G15G20G13G28
                  92627031.268 6  22302088.617                    22302089.234
                        40.200
                  82600956.698 7  19839282.773                    19839285.785
                        42.400
                  92109024.330 6  22161793.805                    22161798.242
                        38.900
                  81249279.661 6  19555760.961                    19555761.863
                        40.600
                  93703188.126 6  22521629.117                    22521632.336
                        38.000
                  86653978.410 5  20834653.141                    20834654.199
                        33.100
 111793558.919 8  87111858.22946  21273598.336                    21273604.020
        52.800          39.200
                  92092559.524 7  22126750.523                    22126751.336
                        42.600
 124944105.752 7  97359053.46945  23776072.109                    23776074.477
        46.000          31.100
 117927267.320 8  91891360.10645  22440812.320                    22440815.117
        48.800          34.400
 119231556.610 7  92907835.27945  22689037.180                    22689043.082
        46.400          33.900
 118556997.483 7  92382087.23545  22560646.875                    22560651.473
        46.400          34.300
 117382567.595 7  91466985.23444  22337168.117                    22337171.250
        46.400          29.900
 114455873.651 7  89186448.39344  21780238.055                    21780240.613
        43.700          28.500
 110864282.105 8  86387758.05645  21096769.063                    21096772.742
        48.400          35.100
 120424236.941 7  93837105.50144  22915975.898                    22915977.621
        45.500          29.300
 18  3 15  9 52  2.0000000  0 16R09R07R15R16R23R24G30R17G21G07G08G27
                                G15G20G13G28
                  92623981.492 6  22301355.313                    22301355.996
                        39.500
                  82601536.228 7  19839422.055                    19839424.559
                        42.300
                  92112354.764 6  22162596.594                    22162600.227
                        37.700
                  81249115.371 6  19555720.672                    19555721.809
                        40.400
                  93706320.758 6  22522381.180                    22522385.754
                        38.200
                  86654458.025 5  20834768.445                    20834769.953
                        33.400
 111794972.441 8  87112959.67746  21273867.320                    21273872.688
        52.500          38.700
                  92090065.007 7  22126150.484                    22126153.332
                        42.900
 124945740.816 7  97360327.55845  23776382.891                    23776385.203
        45.300          31.500
 117930133.597 8  91893593.56845  22441357.602                    22441360.422
        48.700          33.600
 119230371.166 7  92906911.55545  22688811.234                    22688817.418
        45.600          33.700
 118558581.302 7  92383321.37845  22560947.875                    22560952.941
        46.500          33.100
 117380308.587 7  91465224.94645  22336738.789                    22336741.582
        46.100          30.000
 114456567.022 7  89186988.70644  21780369.609                    21780372.422
        44.300          29.000
 110863569.254 8  86387202.58345  21096633.195                    21096636.770
        48.500          34.900
 120421797.878 7  93835204.92844  22915511.195                    22915513.895
        45.600          27.600
 18  3 15  9 52  3.0000000  0 16R09R07R15R16R23R24G30R17G21G07G08G27
                                G15G20G13G28
                  92620931.907 6  22300620.797                    22300621.375
                        39.700
                  82602116.377 7  19839561.547                    19839564.441
                        42.400
                  92115685.479 6  22163396.422                    22163401.957
                        36.800
                  81248951.713 6  19555681.195                    19555682.293
                        40.700
                  93709453.709 6  22523134.625                    22523138.352
                        38.200
                  86654938.334 5  20834883.305                    20834885.734
                        32.800
 111796386.477 8  87114061.52546  21274136.477                    21274141.895
        52.500          39.200
                  92087570.917 7  22125548.992                    22125553.777
                        43.400
 124947376.329 7  97361601.98145  23776694.313                    23776696.770
        45.800          31.200
 117933000.184 8  91895827.26845  22441903.516                    22441905.980
        48.800          34.000
 119229186.286 7  92905988.26545  22688585.906                    22688592.277
        45.200          34.100
 118560165.758 7  92384556.01045  22561249.617                    22561254.031
        46.400          34.500
 117378050.023 7  91463464.99144  22336308.070                    22336311.516
        45.800          29.400
 114457261.054 7  89187529.52444  21780502.281                    21780504.160
        43.900          28.000
 110862856.998 8  86386647.58045  21096497.664                    21096501.461
        48.500          34.400
 120419359.112 7  93833304.57844  22915047.563                    22915049.547
        46.300          28.900
 18  3 15  9 52  4.0000000  0 16R09R07R15R16R23R24G30R17G21G07G08G27
                                G15G20G13G28
                  92617882.483 6  22299886.539                    22299887.090
                        39.700
                  82602697.136 7  19839701.508                    19839703.305
                        42.400
                  92119016.491 5  22164197.445                    22164203.508
                        35.600
                  81248788.644 6  19555642.078                    19555643.594
                        40.800
                  93712586.981 6  22523886.945                    22523891.707
                        38.100
                  86655419.328 5  20834998.953                    20835001.219
                        33.100
 111797801.070 8  87115163.80746  21274405.813                    21274411.168
        52.300          39.000
                  92085077.323 7  22124950.469                    22124955.109
                        43.900
 124949012.229 7  97362876.69945  23777006.070                    23777008.176
        45.000          31.300
 117935867.155 8  91898061.26945  22442449.164                    22442451.473
        48.700          33.400
 119228001.997 7  92905065.42545  22688360.563                    22688366.984
        45.300          34.300
 118561750.805 7  92385791.10445  22561550.992                    22561555.809
        46.600          34.200
 117375791.881 7  91461705.37745  22335877.930                    22335881.805
        45.200          30.400
 114457955.713 7  89188070.82144  21780633.594                    21780636.895
        43.900          28.700
 110862145.301 8  86386093.00945  21096362.070                    21096365.879
        48.600          34.200
 120416920.654 7  93831404.47144  22914583.094                    22914585.141
        46.500          29.300
 18  3 15  9 52  5.0000000  0 16R09R07R15R16R23R24G30R17G21G07G08G27
                                G15G20G13G28
                  92614833.265 6  22299152.570                    22299152.582
                        40.300
                  82603278.478 7  19839841.391                    19839842.883
                        42.600
                  92122347.749 5  22164997.375                    22165005.383
                        33.400
                  81248626.156 6  19555603.453                    19555604.336
                        41.000
                  93715720.550 6  22524638.211                    22524644.836
                        38.000
                  86655900.993 5  20835114.508                    20835116.996
                        33.400
 111799216.149 8  87116266.46146  21274674.797                    21274680.063
        52.700          38.900
                  92082584.039 7  22124352.055                    22124356.258
                        44.000
 124950648.531 7  97364151.73045  23777317.125                    23777319.148
        45.500          31.500
 117938734.403 8  91900295.48545  22442995.016                    22442997.496
        48.500          34.000
 119226818.192 7  92904142.96745  22688134.852                    22688141.707
        45.000          34.300
 118563336.369 7  92387026.60345  22561852.273                    22561856.906
        46.300          33.600
 117373534.157 7  91459946.10544  22335448.164                    22335452.207
        45.200          29.400
 114458650.900 7  89188612.52944  21780765.836                    21780769.055
        43.400          28.600
 110861434.163 8  86385538.88445  21096226.984                    21096230.379
        48.600          33.600
 120414482.470 7  93829504.56344  22914119.438                    22914121.422
        46.500          28.500
 18  3 15  9 52  6.0000000  0 16R09R07R15R16R23R24G30R17G21G07G08G27
                                G15G20G13G28
                  92611784.235 6  22298418.094                    22298418.730
                        40.500
                  82603860.533 7  19839981.313                    19839983.344
                        42.900
                  92125679.289 5  22165798.766                    22165806.047
                        33.100
                  81248464.331 6  19555564.156                    19555565.184
                        40.700
                  93718854.510 6  22525392.797                    22525397.598
                        38.500
                  86656383.426 5  20835230.906                    20835233.445
                        33.200
 111800631.846 8  87117369.59946  21274944.313                    21274949.332
        52.900          39.000
                  92080091.188 7  22123753.258                    22123757.055
                        44.000
 124952285.284 7  97365427.12045  23777628.602                    23777630.699
        45.100          31.200
 117941602.104 7  91902530.05845  22443539.461                    22443543.211
        47.800          33.200
 119225635.004 7  92903220.98045  22687909.914                    22687916.668
        44.600          33.600
 118564922.629 7  92388262.63545  22562154.523                    22562159.109
        46.200          33.700
 117371276.919 7  91458187.23545  22335018.813                    22335022.746
        45.300          30.800
 114459346.772 7  89189154.76444  21780899.234                    21780901.426
        43.700          28.500
 110860723.657 8  86384985.24445  21096092.172                    21096094.672
        48.900          34.300
 120412044.654 7  93827604.94444  22913655.148                    22913656.574
        45.700          28.400
 18  3 15  9 52  7.0000000  0 16R09R07R15R16R23R24G30R17G21G07G08G27
                                G15G20G13G28
                  92608735.430 6  22297683.383                    22297684.598
                        40.800
                  82604443.215 7  19840121.133                    19840122.535
                        43.000
                  92129011.069 5  22166600.922                    22166605.762
                        33.600
                  81248303.111 6  19555525.328                    19555526.828
                        40.700
                  93721988.777 6  22526145.898                    22526150.730
                        38.400
                  86656866.565 5  20835347.227                    20835349.266
                        33.500
 111802048.079 8  87118473.15446  21275214.086                    21275219.313
        52.700          39.200
                  92077598.714 7  22123154.742                    22123158.176
                        43.600
 124953922.465 7  97366702.84445  23777940.125                    23777942.199
        44.900          31.500
 117944470.143 8  91904764.89045  22444086.109                    22444089.137
        48.200          34.100
 119224452.403 7  92902299.45945  22687684.648                    22687691.453
        44.300          33.700
 118566509.474 7  92389499.13245  22562456.250                    22562460.406
        46.400          33.200
 117369020.124 7  91456428.70945  22334589.797                    22334593.059
        45.800          30.200
 114460043.240 7  89189697.46045  21781031.289                    21781034.148
        44.100          30.000
 110860013.720 8  86384432.04445  21095957.391                    21095960.238
        49.300          34.400
 120409607.123 7  93825705.55144  22913191.359                    22913193.605
        45.600          28.600
 18  3 15  9 52  8.0000000  0 16R09R07R15R16R23R24G30R17G21G07G08G27
                                G15G20G13G28
                  92605686.796 6  22296950.023                    22296950.617
                        40.500
                  82605026.515 7  19840260.891                    19840262.715
                        42.700
                  92132342.975 5  22167404.609                    22167407.105
                        34.500
                  81248142.486 6  19555486.156                    19555488.074
                        40.900
                  93725123.372 6  22526900.391                    22526904.363
                        38.700
                  86657350.339 5  20835463.414                    20835465.656
                        33.400
 111803464.813 8  87119577.09846  21275483.523                    21275488.613
        52.400          38.700
                  92075106.621 7  22122557.141                    22122559.105
                        43.500
 124955560.056 7  97367978.89345  23778251.875                    23778253.746
        44.900          31.600
 117947338.493 7  91906999.96445  22444631.672                    22444634.820
        47.700          33.400
 119223270.335 7  92901378.36745  22687459.766                    22687466.355
        44.200          34.200
 118568096.865 7  92390736.05645  22562758.383                    22562762.516
        46.200          33.800
 117366763.751 7  91454670.51245  22334160.867                    22334163.781
        46.400          30.900
 114460740.359 7  89190240.65744  21781163.984                    21781166.453
        43.600          29.400
 110859304.392 8  86383879.32145  21095822.508                    21095825.129
        49.200          34.400
 120407169.878 7  93823806.38744  22912727.469                    22912729.637
        45.600          29.000
 18  3 15  9 52  9.0000000  0 16R09R07R15R16R23R24G30R17G21G07G08G27
                                G15G20G13G28
                  92602638.309 6  22296215.797                    22296216.531
                        40.400
                  82605610.374 7  19840401.148                    19840403.223
                        43.000
                  92135675.046 6  22168207.422                    22168208.371
                        36.100
                  81247982.480 6  19555447.945                    19555448.758
                        40.700
                  93728258.271 6  22527655.594                    22527658.273
                        38.900
                  86657834.768 5  20835579.680                    20835582.301
                        32.400
 111804882.059 8  87120681.44946  21275753.172                    21275758.730
        52.500          38.800
                  92072614.885 7  22121957.156                    22121960.523
                        42.800
 124957197.997 7  97369255.21245  23778563.617                    23778565.543
        45.100          31.300
 117950207.174 8  91909235.29345  22445177.695                    22445180.625
        48.200          33.300
 119222088.840 7  92900457.72845  22687235.156                    22687241.680
        44.200          34.400
 118569684.863 7  92391973.46045  22563060.555                    22563064.598
        45.800          33.400
 117364507.702 7  91452912.55745  22333730.922                    22333734.379
        45.900          30.500
 114461438.080 7  89190784.34644  21781297.078                    21781299.625
        43.300          29.700
 110858595.586 8  86383327.00745  21095687.484                    21095690.723
        48.700          34.200
 120404732.897 7  93821907.43844  22912263.039                    22912266.078
        45.300          28.400
 18  3 15  9 52 10.0000000  0 16R09R07R15R16R23R24G30R17G21G07G08G27
                                G15G20G13G28
                  92599590.041 6  22295481.781                    22295482.578
                        40.400
                  82606194.904 7  19840541.250                    19840543.867
                        42.700
                  92139007.323 6  22169007.594                    22169011.188
                        36.900
                  81247823.138 6  19555409.281                    19555410.410
                        40.700
                  93731393.505 6  22528408.414                    22528411.543
                        39.400
                  86658319.912 5  20835695.109                    20835698.594
                        32.700
 111806299.863 8  87121786.23446  21276022.734                    21276028.273
        52.100          39.200
                  92070123.545 7  22121359.422                    22121361.762
                        42.200
 124958836.378 7  97370531.86745  23778875.242                    23778877.406
        45.100          32.200
 117953076.234 8  91911470.92345  22445723.641                    22445726.590
        48.200          33.700
 119220907.924 7  92899537.56045  22687010.242                    22687017.133
        44.100          33.900
 118571273.482 7  92393211.35145  22563362.805                    22563366.547
        45.700          33.600
 117362252.095 7  91451154.91844  22333301.227                    22333305.434
        45.200          29.100
 114462136.381 7  89191328.49544  21781429.141                    21781432.316
        43.400          29.200
 110857887.375 7  86382775.15545  21095552.344                    21095555.754
        47.200          34.700
 120402296.252 7  93820008.77044  22911799.414                    22911802.699
        44.900          29.500
 18  3 15  9 52 11.0000000  0 16R09R07R15R16R23R24G30R17G21G07G08G27
                                G15G20G13G28
                  92596541.927 6  22294746.859                    22294748.820
                        40.800
                  82606780.053 7  19840681.539                    19840683.941
                        42.800
                  92142339.782 6  22169808.867                    22169813.020
                        37.100
                  81247664.412 6  19555371.547                    19555373.285
                        40.600
                  93734529.119 6  22529161.242                    22529165.617
                        39.000
                  86658805.727 5  20835812.094                    20835815.711
                        32.900
 111807718.169 8  87122891.40646  21276292.617                    21276298.324
        52.200          38.900
                  92067632.559 6  22120759.070                    22120762.289
                        41.700
 124960475.112 7  97371808.78745  23779187.578                    23779189.348
        45.000          31.600
 117955945.601 8  91913706.78845  22446269.641                    22446272.547
        48.600          34.200
 119219727.491 7  92898617.75945  22686786.305                    22686792.387
        44.600          33.500
 118572862.643 7  92394449.67345  22563665.414                    22563668.883
        45.700          33.200
 117359996.959 7  91449397.65245  22332872.383                    22332875.996
        46.000          30.000
 114462835.279 7  89191873.10044  21781562.836                    21781565.461
        43.700          29.300
 110857179.725 7  86382223.73545  21095417.492                    21095420.805
        46.700          34.400
 120399859.884 7  93818110.31144  22911336.039                    22911339.449
        44.400          29.900
 18  3 15  9 52 12.0000000  0 16R09R07R15R16R23R24G30R17G21G07G08G27
                                G15G20G13G28
                  92593494.080 6  22294013.750                    22294015.422
                        40.600
                  82607365.863 7  19840822.711                    19840824.879
                        42.900
                  92145672.518 6  22170608.758                    22170614.973
                        38.100
                  81247506.360 6  19555333.078                    19555334.863
                        40.700
                  93737665.029 6  22529915.852                    22529919.336
                        38.300
                  86659292.242 5  20835929.906                    20835932.723
                        33.100
 111809137.076 8  87123997.05546  21276562.898                    21276568.066
        52.500          39.200
                  92065142.042 6  22120160.586                    22120163.426
                        41.000
 124962114.343 7  97373086.09545  23779499.602                    23779501.316
        45.300          31.600
 117958815.411 8  91915943.01045  22446815.828                    22446819.000
        48.500          34.700
 119218547.658 7  92897698.42045  22686561.500                    22686567.754
        45.100          33.300
 118574452.428 7  92395688.48445  22563967.609                    22563971.551
        45.600          34.300
 117357742.251 7  91447640.73144  22332443.328                    22332447.180
        46.000          29.300
 114463534.788 7  89192418.16644  21781695.656                    21781698.469
        43.700          28.900
 110856472.706 7  86381672.80845  21095282.969                    21095286.160
        46.900          34.900
 120397423.879 7  93816212.15944  22910872.625                    22910875.996
        44.500          29.700
 18  3 15  9 52 13.0000000  0 16R09R07R15R16R23R24G30R17G21G07G08G27
                                G15G20G13G28
                  92590446.370 6  22293280.078                    22293281.199
                        40.700
                  82607952.307 7  19840963.680                    19840965.355
                        42.800
                  92149005.478 6  22171410.531                    22171417.098
                        37.800
                  81247348.871 6  19555296.227                    19555296.645
                        40.900
                  93740801.326 6  22530669.289                    22530673.250
                        39.000
                  86659779.487 5  20836047.156                    20836050.520
                        32.900
 111810556.527 8  87125103.11346  21276832.969                    21276838.398
        52.600          39.300
                  92062651.928 6  22119561.477                    22119563.758
                        40.200
 124963753.990 7  97374363.73345  23779810.867                    23779813.273
        45.100          32.100
 117961685.520 8  91918179.45445  22447361.609                    22447364.875
        48.100          34.000
 119217368.416 7  92896779.53345  22686337.305                    22686343.176
        45.200          33.600
 118576042.830 7  92396927.76645  22564270.195                    22564274.094
        45.100          33.800
 117355487.974 7  91445884.13845  22332014.023                    22332018.203
        45.700          30.200
 114464234.967 7  89192963.74644  21781828.906                    21781831.555
        43.400          28.300
 110855766.270 7  86381122.33545  21095148.688                    21095151.898
        47.300          35.100
 120394988.141 7  93814314.20144  22910409.250                    22910412.258
        44.100          29.200
 18  3 15  9 52 14.0000000  0 16R09R07R15R16R23R24G30R17G21G07G08G27
                                G15G20G13G28
                  92587398.857 6  22292546.445                    22292547.363
                        40.600
                  82608539.409 7  19841104.391                    19841106.805
                        42.800
                  92152338.692 6  22172212.938                    22172219.258
                        38.300
                  81247192.019 6  19555258.391                    19555259.324
                        40.600
                  93743937.961 6  22531424.797                    22531427.063
                        38.900
                  86660267.426 5  20836164.844                    20836167.059
                        32.800
 111811976.517 8  87126209.59746  21277103.133                    21277108.738
        52.700          39.000
                  92060162.265 6  22118964.352                    22118964.656
                        40.300
 124965394.047 7  97375641.70845  23780123.258                    23780125.254
        44.200          31.000
 117964556.014 8  91920416.20445  22447908.336                    22447911.195
        48.900          34.300
 119216189.754 7  92895861.08945  22686112.898                    22686118.852
        45.900          33.500
 118577633.838 7  92398167.51645  22564572.898                    22564577.105
        44.900          33.900
 117353234.126 7  91444127.87244  22331586.234                    22331589.691
        46.800          29.800
 114464935.682 7  89193509.73544  21781962.422                    21781965.336
        43.300          29.200
 110855060.429 7  86380572.32345  21095014.258                    21095017.742
        47.800          35.000
 120392552.747 7  93812416.50544  22909945.859                    22909948.918
        44.100          29.400
 18  3 15  9 52 15.0000000  0 16R09R07R15R16R23R24G30R17G21G07G08G27
                                G15G20G13G28
                  92584351.544 6  22291812.242                    22291813.602
                        40.800
                  82609127.104 7  19841246.281                    19841247.891
                        42.400
                  92155671.979 6  22173017.945                    22173021.254
                        37.900
                  81247035.771 6  19555219.828                    19555221.613
                        40.800
                  93747074.932 6  22532178.195                    22532181.230
                        38.900
                  86660756.012 5  20836282.688                    20836284.789
                        33.200
 111813397.033 8  87127316.49746  21277373.398                    21277379.047
        52.200          38.900
                  92057672.941 6  22118365.305                    22118366.430
                        40.600
 124967034.555 7  97376920.03645  23780435.477                    23780437.047
        44.200          30.800
 117967426.883 8  91922653.25045  22448454.594                    22448457.383
        48.400          34.100
 119215011.627 7  92894943.05745  22685888.711                    22685894.973
        45.700          33.600
 118579225.438 7  92399407.71845  22564875.570                    22564879.699
        44.700          33.000
 117350980.688 7  91442371.92544  22331157.328                    22331160.496
        46.700          29.300
 114465637.002 7  89194056.18944  21782095.063                    21782098.363
        43.400          27.000
 110854355.161 8  86380022.76645  21094880.461                    21094883.828
        48.200          35.600
 120390117.643 7  93810519.03444  22909482.383                    22909485.719
        44.400          28.000
 18  3 15  9 52 16.0000000  0 16R09R07R15R16R23R24G30R17G21G07G08G27
                                G15G20G13G28
                  92581304.465 6  22291078.953                    22291079.637
                        40.600
                  82609715.457 7  19841387.961                    19841389.203
                        42.400
                  92159005.561 6  22173823.109                    22173824.008
                        37.400
                  81246880.156 6  19555182.852                    19555183.824
                        40.500
                  93750212.242 6  22532932.500                    22532935.563
                        38.900
                  86661245.321 5  20836400.609                    20836401.805
                        33.100
 111814818.103 8  87128423.82246  21277643.859                    21277649.191
        52.100          38.500
                  92055184.044 6  22117767.891                    22117768.023
                        41.800
 124968675.458 7  97378198.66945  23780747.414                    23780749.879
        43.700          31.400
 117970298.094 8  91924890.56145  22449000.430                    22449003.578
        48.300          33.600
 119213834.046 7  92894025.44945  22685664.836                    22685670.914
        45.700          33.800
 118580817.604 7  92400648.36845  22565178.391                    22565182.582
        44.800          33.500
 117348727.738 7  91440616.35645  22330727.844                    22330731.746
        47.200          30.700
 114466338.970 7  89194603.12644  21782229.109                    21782231.949
        43.800          28.900
 110853650.513 8  86379473.68745  21094746.336                    21094749.449
        48.600          35.400
 120387682.890 7  93808621.84444  22909019.195                    22909022.172
        44.700          28.200
 18  3 15  9 52 17.0000000  0 16R09R07R15R16R23R24G30R17G21G07G08G27
                                G15G20G13G28
                  92578257.575 6  22290344.578                    22290345.938
                        40.800
                  82610304.446 7  19841529.156                    19841530.895
                        42.300
                  92162339.424 6  22174624.617                    22174626.508
                        36.600
                  81246725.191 6  19555145.617                    19555146.980
                        40.700
                  93753349.939 6  22533685.258                    22533689.719
                        39.200
                  86661735.301 5  20836518.992                    20836520.047
                        33.600
 111816239.723 8  87129531.58046  21277913.969                    21277919.781
        52.200          39.000
                  92052695.548 7  22117170.063                    22117170.875
                        42.000
 124970316.808 7  97379477.64645  23781059.664                    23781061.875
        43.800          31.200
 117973169.650 8  91927128.12545  22449547.688                    22449550.090
        48.600          33.500
 119212657.026 7  92893108.27145  22685440.859                    22685446.832
        45.400          33.500
 118582410.381 7  92401889.48445  22565481.688                    22565485.859
        44.900          33.600
 117346475.240 7  91438861.14044  22330299.953                    22330303.059
        46.700          29.300
 114467041.562 7  89195150.55244  21782363.211                    21782365.746
        43.900          29.000
 110852946.468 8  86378925.08345  21094611.938                    21094615.352
        48.800          35.400
 120385248.426 7  93806724.86544  22908555.969                    22908558.938
        46.000          27.600
 18  3 15  9 52 18.0000000  0 16R09R07R15R16R23R24G30R17G21G07G08G27
                                G15G20G13G28
                  92575210.830 6  22289611.070                    22289612.000
                        40.900
                  82610894.081 7  19841670.148                    19841672.477
                        42.100
                  92165673.579 6  22175424.898                    22175429.242
                        36.200
                  81246570.833 6  19555108.336                    19555109.465
                        40.700
                  93756488.018 6  22534438.789                    22534443.730
                        39.100
                  86662226.010 5  20836637.258                    20836638.113
                        33.100
 111817661.864 8  87130639.74046  21278184.789                    21278190.348
        52.300          38.800
                  92050207.468 7  22116572.844                    22116573.277
                        42.500
 124971958.612 7  97380756.98345  23781371.813                    23781374.656
        43.500          31.200
 117976041.555 8  91929365.97145  22450093.547                    22450096.820
        48.200          33.700
 119211480.578 7  92892191.52145  22685216.797                    22685222.992
        45.100          33.300
 118584003.775 7  92403131.07245  22565785.242                    22565788.941
        45.000          33.500
 117344223.216 7  91437106.30945  22329871.516                    22329874.816
        46.900          30.400
 114467744.804 7  89195698.48844  21782497.063                    21782499.719
        44.100          28.500
 110852242.989 8  86378376.92745  21094478.133                    21094481.852
        48.800          34.900
 120382814.260 7  93804828.11444  22908093.266                    22908095.324
        46.600          27.800
 18  3 15  9 52 19.0000000  0 16R09R07R15R16R23R24G30R17G21G07G08G27
                                G15G20G13G28
                  92572164.356 6  22288878.281                    22288878.848
                        41.200
                  82611484.400 7  19841812.156                    19841813.605
                        42.300
                  92169007.984 5  22176224.984                    22176231.676
                        34.700
                  81246417.131 6  19555070.805                    19555072.465
                        40.700
                  93759626.406 6  22535193.359                    22535198.527
                        38.700
                  86662717.397 5  20836755.086                    20836755.992
                        33.100
 111819084.603 8  87131748.36246  21278455.945                    21278461.156
        52.500          38.700
                  92047719.778 7  22115975.297                    22115976.070
                        42.700
 124973600.804 7  97382036.60745  23781684.617                    23781686.559
        43.400          31.100
 117978913.868 8  91931604.13645  22450640.664                    22450643.570
        48.500          34.000
 119210304.708 7  92891275.21545  22684992.617                    22684999.344
        45.100          33.000
 118585597.758 7  92404373.11045  22566087.898                    22566092.195
        44.700          33.700
 117341971.652 7  91435351.84845  22329442.648                    22329446.402
        45.900          31.400
 114468448.707 7  89196246.95144  21782631.109                    21782633.734
        44.400          29.400
 110851540.158 8  86377829.26345  21094344.289                    21094348.219
        48.900          34.600
 120380380.483 7  93802931.64044  22907630.000                    22907632.402
        46.800          26.800
 18  3 15  9 52 20.0000000  0 16R09R07R15R16R23R24G30R17G21G07G08G27
                                G15G20G13G28
                  92569118.016 6  22288145.344                    22288144.941
                        40.300
                  82612075.264 7  19841954.180                    19841955.777
                        42.600
                  92172342.602 5  22177024.500                    22177033.477
                        34.100
                  81246264.001 6  19555034.586                    19555035.859
                        40.200
                  93762765.088 6  22535948.234                    22535952.879
                        38.900
                  86663209.427 5  20836874.070                    20836874.262
                        33.100
 111820507.817 8  87132857.35646  21278726.711                    21278731.996
        52.200          38.800
                  92045232.430 7  22115377.891                    22115379.715
                        42.900
 124975243.368 7  97383316.51945  23781997.516                    23781999.410
        43.800          31.600
 117981786.468 8  91933842.52245  22451187.188                    22451189.793
        48.900          34.000
 119209129.380 7  92890359.33345  22684768.938                    22684775.336
        44.900          33.200
 118587192.325 7  92405615.61045  22566391.563                    22566396.137
        44.500          33.600
 117339720.438 7  91433597.65745  22329013.328                    22329017.641
        46.200          31.100
 114469153.221 7  89196795.92144  21782764.891                    21782768.176
        44.100          29.700
 110850837.781 8  86377281.95545  21094210.719                    21094214.184
        48.900          34.600
 120377946.916 7  93801035.32644  22907167.203                    22907168.941
        47.300          27.300
 18  3 15  9 52 21.0000000  0 16R09R07R15R16R23R24G30R17G21G07G08G27
                                G15G20G13G28
                  92566071.905 6  22287411.375                    22287411.953
                        40.900
                  82612666.781 7  19842095.219                    19842097.945
                        42.800
                  92175677.472 5  22177826.148                    22177834.953
                        33.800
                  81246111.504 6  19554998.000                    19554999.152
                        40.500
                  93765904.159 6  22536702.266                    22536707.949
                        39.300
                  86663702.200 5  20836990.820                    20836993.059
                        33.400
 111821931.605 8  87133966.80646  21278997.891                    21279003.039
        52.500          39.200
                  92042745.528 7  22114779.898                    22114782.898
                        43.000
 124976886.338 7  97384596.74345  23782310.320                    23782311.820
        43.600          31.200
 117984659.450 8  91936081.21345  22451733.477                    22451736.813
        48.800          34.300
 119207954.677 7  92889443.96345  22684545.961                    22684551.852
        44.600          33.600
 118588787.508 7  92406858.59945  22566695.398                    22566699.680
        44.500          33.900
 117337469.702 7  91431843.86145  22328585.570                    22328589.688
        46.300          31.400
 114469858.342 7  89197345.38544  21782898.852                    21782902.324
        43.400          28.700
 110850136.091 8  86376735.17045  21094077.281                    21094080.770
        48.800          34.700
 120375513.705 7  93799139.29544  22906703.703                    22906705.125
        47.100          27.800
 18  3 15  9 52 22.0000000  0 16R09R07R15R16R23R24G30R17G21G07G08G27
                                G15G20G13G28
                  92563025.964 6  22286678.680                    22286678.797
                        40.600
                  82613258.926 7  19842238.086                    19842240.027
                        42.600
                  92179012.600 5  22178630.438                    22178635.781
                        32.600
                  81245959.657 6  19554961.555                    19554962.227
                        40.300
                  93769043.548 6  22537456.133                    22537462.129
                        39.200
                  86664195.659 5  20837110.266                    20837111.680
                        32.400
 111823355.930 8  87135076.67146  21279268.875                    21279273.754
        52.600          38.600
                  92040259.011 7  22114181.664                    22114184.781
                        42.600
 124978529.729 7  97385877.29945  23782622.922                    23782624.398
        43.700          30.700
 117987532.772 8  91938320.16245  22452280.500                    22452283.586
        49.000          34.100
 119206780.523 7  92888529.05345  22684322.305                    22684328.742
        45.000          34.000
 118590383.294 7  92408102.05545  22566999.047                    22567003.754
        44.700          33.700
 117335219.358 7  91430090.35845  22328157.727                    22328161.395
        46.200          30.400
 114470564.094 7  89197895.34544  21783033.500                    21783036.570
        43.200          27.900
 110849434.974 8  86376188.84645  21093943.852                    21093947.438
        48.300          34.600
 120373080.811 7  93797243.51344  22906241.242                    22906242.113
        47.000          28.700
 18  3 15  9 52 23.0000000  0 16R09R07R15R16R23R24G30R17G21G07G08G27
                                G15G20G13G28
                  92559980.194 6  22285944.727                    22285945.379
                        40.700
                  82613851.665 7  19842380.336                    19842382.992
                        42.600
                  92182347.755 5  22179437.969                    22179437.695
                        34.000
                  81245808.382 6  19554924.633                    19554925.738
                        40.200
                  93772183.253 6  22538210.727                    22538216.270
                        39.100
                  86664689.797 5  20837228.742                    20837230.281
                        33.100
 111824780.739 8  87136186.90946  21279539.602                    21279545.125
        52.800          39.000
                  92037772.852 7  22113584.242                    22113588.277
                        42.800
 124980173.512 7  97387158.14645  23782935.883                    23782937.676
        43.800          31.100
 117990406.405 8  91940559.35845  22452827.391                    22452830.156
        48.000          33.900
 119205606.901 7  92887614.55745  22684098.859                    22684105.758
        44.900          34.200
 118591979.592 7  92409345.91845  22567303.141                    22567307.758
        44.600          34.600
 117332969.419 7  91428337.15145  22327730.125                    22327733.430
        46.600          30.400
 114471270.455 7  89198445.76044  21783167.719                    21783170.820
        43.100          29.300
 110848734.393 8  86375642.94045  21093810.438                    21093813.789
        48.300          34.800
 120370648.142 7  93795347.90544  22905777.602                    22905779.125
        46.300          28.800
 18  3 15  9 52 24.0000000  0 16R09R07R15R16R23R24G30R17G21G07G08G27
                                G15G20G13G28
                  92556934.624 6  22285211.680                    22285212.566
                        40.700
                  82614445.092 7  19842522.148                    19842525.043
                        42.700
                  92185683.214 6  22180241.836                    22180240.262
                        36.500
                  81245657.771 6  19554888.844                    19554889.855
                        40.500
                  93775323.308 6  22538964.109                    22538971.008
                        39.100
                  86665184.693 5  20837347.297                    20837348.156
                        32.700
 111826206.114 8  87137297.58746  21279811.156                    21279816.379
        52.900          39.000
                  92035287.125 7  22112987.258                    22112990.516
                        42.900
 124981817.749 7  97388439.36045  23783249.148                    23783250.578
        44.200          31.400
 117993280.423 7  91942798.85745  22453373.938                    22453377.160
        47.900          34.200
 119204433.912 7  92886700.56545  22683875.500                    22683882.363
        45.000          33.600
 118593576.600 7  92410590.32845  22567606.516                    22567611.430
        44.300          34.200
 117330719.934 7  91426584.28445  22327301.844                    22327304.883
        46.700          30.800
 114471977.438 7  89198996.66044  21783302.500                    21783305.281
        43.400          28.800
 110848034.438 8  86375097.52545  21093677.438                    21093680.836
        48.800          34.800
 120368215.831 7  93793452.59544  22905314.938                    22905316.918
        45.700          29.400
 18  3 15  9 52 25.0000000  0 16R09R07R15R16R23R24G30R17G21G07G08G27
                                G15G20G13G28
                  92553889.250 6  22284477.297                    22284478.941
                        40.700
                  82615039.113 7  19842666.039                    19842668.016
                        42.600
                  92189018.962 6  22181044.461                    22181043.445
                        37.800
                  81245507.777 6  19554852.508                    19554853.711
                        40.400
                  93778463.606 6  22539718.773                    22539725.660
                        39.000
                  86665680.253 5  20837466.781                    20837467.574
                        33.600
 111827632.011 8  87138408.67646  21280082.547                    21280087.516
        53.100          38.900
                  92032801.783 7  22112390.109                    22112393.375
                        42.600
 124983462.344 7  97389720.85845  23783561.719                    23783563.465
        44.400          31.300
 117996154.751 8  91945038.58845  22453921.797                    22453924.258
        48.700          34.600
 119203261.415 7  92885786.95645  22683652.484                    22683658.875
        44.600          33.900
 118595174.127 7  92411835.14645  22567910.781                    22567915.695
        44.500          34.400
 117328470.809 7  91424831.68845  22326873.648                    22326877.055
        46.400          30.000
 114472684.955 7  89199547.97744  21783436.727                    21783439.824
        43.800          28.700
 110847335.042 8  86374552.55145  21093544.336                    21093547.816
        48.700          35.200
 120365783.787 7  93791557.50044  22904851.742                    22904854.305
        44.800          29.100
 18  3 15  9 52 26.0000000  0 16R09R07R15R16R23R24G30R17G21G07G08G27
                                G15G20G13G28
                  92550844.051 6  22283745.250                    22283745.738
                        41.000
                  82615633.798 7  19842809.070                    19842810.504
                        42.500
                  92192354.924 6  22181845.523                    22181846.641
                        37.500
                  81245358.414 6  19554816.320                    19554817.891
                        40.400
                  93781604.296 6  22540474.094                    22540480.531
                        38.900
                  86666176.499 5  20837586.867                    20837586.980
                        32.500
 111829058.480 8  87139520.21046  21280353.992                    21280359.109
        53.000          39.000
                  92030316.851 7  22111793.805                    22111796.055
                        42.300
 124985107.448 7  97391002.77145  23783875.000                    23783876.535
        44.500          31.000
 117999029.494 8  91947278.64145  22454468.211                    22454471.184
        48.600          33.700
 119202089.489 7  92884873.78245  22683428.984                    22683435.914
        44.200          33.300
 118596772.297 7  92413080.48045  22568214.930                    22568219.660
        44.200          33.900
 117326222.150 7  91423079.45045  22326446.219                    22326449.160
        46.000          30.300
 114473393.127 7  89200099.77744  21783572.055                    21783574.133
        44.300          29.200
 110846636.242 8  86374008.03145  21093411.594                    21093414.695
        48.900          35.000
 120363352.085 7  93789662.68244  22904388.148                    22904391.836
        44.100          29.600
 18  3 15  9 52 27.0000000  0 16R09R07R15R16R23R24G30R17G21G07G08G27
                                G15G20G13G28
                  92547799.088 6  22283012.039                    22283012.723
                        40.600
                  82616229.094 7  19842951.320                    19842953.477
                        42.500
                  92195691.082 6  22182645.016                    22182650.422
                        38.800
                  81245209.672 6  19554780.000                    19554781.996
                        40.500
                  93784745.277 6  22541229.391                    22541234.734
                        38.700
                  86666673.415 5  20837706.305                    20837706.824
                        33.100
 111830485.458 8  87140632.13346  21280625.195                    21280630.371
        53.000          38.900
                  92027832.277 7  22111196.984                    22111198.773
                        42.400
 124986752.915 7  97392284.96245  23784188.359                    23784189.941
        44.700          31.600
 118001904.508 8  91949518.91845  22455015.836                    22455018.379
        49.000          34.400
 119200918.146 7  92883961.04245  22683206.547                    22683212.891
        43.900          33.200
 118598370.996 7  92414326.21945  22568519.305                    22568524.414
        44.700          34.200
 117323973.930 7  91421327.55145  22326017.656                    22326021.199
        45.700          30.000
 114474101.890 7  89200652.03544  21783706.383                    21783709.465
        43.700          29.900
 110845938.067 8  86373464.00245  21093278.445                    21093281.688
        48.800          34.700
 120360920.637 7  93787768.07845  22903925.648                    22903929.348
        43.900          31.500
 18  3 15  9 52 28.0000000  0 16R09R07R15R16R23R24G30R17G21G07G08G27
                                G15G20G13G28
                  92544754.337 6  22282279.047                    22282279.406
                        40.500
                  82616825.090 7  19843095.008                    19843096.746
                        42.700
                  92199027.508 6  22183445.313                    22183454.051
                        39.100
                  81245061.585 6  19554744.953                    19554746.434
                        40.600
                  93787886.688 6  22541985.305                    22541990.008
                        39.100
                  86667171.054 5  20837825.750                    20837826.301
                        33.100
 111831913.061 8  87141744.55446  21280896.625                    21280901.980
        52.900          39.000
                  92025348.118 7  22110601.023                    22110602.281
                        42.600
 124988398.895 7  97393567.54845  23784501.492                    23784502.992
        44.900          31.100
 118004779.983 8  91951759.54545  22455562.430                    22455565.582
        49.400          34.700
 119199747.405 7  92883048.77145  22682983.977                    22682990.297
        44.500          34.100
 118599970.384 7  92415572.48545  22568823.578                    22568828.430
        45.100          34.000
 117321726.246 7  91419576.07544  22325590.008                    22325593.500
        46.300          29.800
 114474811.323 7  89201204.80644  21783841.797                    21783844.414
        43.600          29.100
 110845240.489 8  86372920.42845  21093145.539                    21093148.895
        48.700          34.200
 120358489.626 7  93785873.81545  22903463.375                    22903466.918
        44.000          30.600
 18  3 15  9 52 29.0000000  0 16R09R07R15R16R23R24G30R17G21G07G08G27
                                G15G20G13G28
                  92541709.797 6  22281545.969                    22281546.219
                        41.000
                  82617421.747 7  19843238.305                    19843239.977
                        42.600
                  92202364.127 6  22184247.211                    22184257.094
                        38.400
                  81244914.097 6  19554709.461                    19554710.746
                        40.300
                  93791028.425 6  22542741.531                    22542744.855
                        39.100
                  86667669.386 5  20837945.742                    20837946.148
                        33.000
 111833341.186 8  87142857.37946  21281168.461                    21281173.742
        52.700          38.700
                  92022864.372 7  22110003.688                    22110004.973
                        42.600
 124990045.263 7  97394850.43645  23784814.656                    23784816.324
        45.400          31.400
 118007655.779 8  91954000.42545  22456109.672                    22456113.352
        48.900          34.100
 119198577.230 7  92882136.94545  22682761.148                    22682767.523
        44.500          34.200
 118601570.401 7  92416819.25745  22569128.031                    22569133.324
        44.900          34.400
 117319479.052 7  91417825.01745  22325162.891                    22325166.082
        47.000          30.400
 114475521.449 7  89201758.11944  21783976.695                    21783980.121
        43.700          28.500
 110844543.530 8  86372377.34645  21093012.500                    21093016.555
        48.700          34.800
 120356058.887 7  93783979.76445  22903001.547                    22903004.879
        45.100          31.100
 18  3 15  9 52 30.0000000  0 16R09R07R15R16R23R24G30R17G21G07G08G27
                                G15G20G13G28
                  92538665.424 6  22280812.445                    22280812.922
                        40.900
                  82618019.027 7  19843381.656                    19843384.109
                        42.600
                  92205700.937 6  22185050.711                    22185059.797
                        37.700
                  81244767.248 6  19554674.789                    19554676.074
                        40.200
                  93794170.540 6  22543497.008                    22543500.855
                        39.300
                  86668168.396 5  20838064.297                    20838065.254
                        32.700
 111834769.860 8  87143970.63446  21281440.516                    21281445.773
        52.600          39.200
                  92020381.087 7  22109406.727                    22109408.914
                        42.800
 124991692.040 7  97396133.64045  23785127.844                    23785129.473
        45.600          31.500
 118010531.960 8  91956241.60745  22456657.156                    22456660.129
        48.700          33.500
 119197407.629 7  92881225.57445  22682539.078                    22682544.793
        44.600          33.700
 118603171.011 7  92418066.48845  22569432.172                    22569438.027
        44.500          34.500
 117317232.264 7  91416074.29644  22324735.023                    22324738.867
        46.000          29.600
 114476232.141 7  89202311.88844  21784112.016                    21784115.176
        43.100          28.100
 110843847.121 8  86371834.68845  21092880.109                    21092883.934
        48.800          34.600
 120353628.461 7  93782085.95444  22902539.766                    22902542.441
        46.300          29.900
 18  3 15  9 52 31.0000000  0 16R09R07R15R16R23R24G30R17G21G07G08G27
                                G15G20G13G28
                  92535621.257 6  22280079.969                    22280080.660
                        41.000
                  82618616.915 7  19843524.961                    19843527.578
                        42.600
                  92209037.832 6  22185858.125                    22185862.449
                        36.500
                  81244620.995 6  19554639.344                    19554639.766
                        40.700
                  93797312.925 6  22544252.594                    22544255.457
                        38.800
                  86668668.068 5  20838184.492                    20838185.816
                        33.100
 111836199.028 8  87145084.27146  21281712.867                    21281717.980
        52.000          39.200
                  92017898.168 7  22108810.445                    22108813.043
                        42.800
 124993339.217 7  97397417.13945  23785441.398                    23785443.285
        45.900          30.700
 118013408.432 8  91958483.00745  22457203.945                    22457207.621
        48.400          33.900
 119196238.579 7  92880314.64345  22682316.070                    22682322.520
        45.000          33.200
 118604772.146 7  92419314.13145  22569736.844                    22569742.637
        44.700          34.100
 117314985.890 7  91414323.89444  22324307.672                    22324311.676
        45.700          28.400
 114476943.505 7  89202866.20244  21784247.289                    21784250.258
        44.000          29.700
 110843151.294 8  86371292.48445  21092748.141                    21092751.176
        48.600          34.400
 120351198.326 7  93780192.36544  22902077.617                    22902079.898
        47.100          29.100
 18  3 15  9 52 32.0000000  0 16R09R07R15R16R23R24G30R17G21G07G08G27
                                G15G20G13G28
                  92532577.232 6  22279346.664                    22279347.746
                        41.400
                  82619215.443 7  19843668.578                    19843671.277
                        42.800
                  92212374.992 5  22186665.039                    22186665.746
                        34.800
                  81244475.368 6  19554603.555                    19554605.453
                        40.400
                  93800455.729 6  22545007.586                    22545010.871
                        38.800
                  86669168.479 5  20838304.453                    20838306.395
                        32.400
 111837628.755 8  87146198.34746  21281984.789                    21281989.977
        52.200          39.100
                  92015415.638 7  22108213.602                    22108216.602
                        42.800
 124994986.828 7  97398700.99545  23785754.414                    23785756.613
        46.100          31.300
 118016285.263 8  91960724.68645  22457752.266                    22457755.074
        48.600          34.000
 119195070.090 7  92879404.14645  22682093.664                    22682100.305
        44.700          33.100
 118606373.945 7  92420562.28845  22570042.188                    22570047.668
        45.000          33.400
 117312739.887 7  91412573.76444  22323879.805                    22323883.750
        45.900          29.500
 114477655.477 7  89203421.01244  21784383.242                    21784385.781
        43.800          29.000
 110842456.063 8  86370750.74445  21092615.977                    21092619.008
        48.700          34.800
 120348768.516 7  93778299.00544  22901615.266                    22901617.473
        47.600          28.900
 18  3 15  9 52 33.0000000  0 16R09R07R15R16R23R24G30R17G21G07G08G27
                                G15G20G13G28
                  92529533.417 6  22278614.555                    22278614.551
                        41.500
                  82619814.584 7  19843812.336                    19843815.313
                        42.800
                  92215712.465 5  22187467.852                    22187467.813
                        33.500
                  81244330.380 6  19554568.945                    19554570.527
                        40.400
                  93803598.818 6  22545764.008                    22545765.469
                        38.600
                  86669669.567 5  20838424.813                    20838426.512
                        32.100
 111839059.018 8  87147312.83946  21282256.789                    21282262.375
        52.400          39.200
                  92012933.544 7  22107616.195                    22107619.949
                        42.800
 124996634.847 7  97399985.16045  23786068.164                    23786070.469
        45.900          31.600
 118019162.474 8  91962966.66645  22458299.672                    22458302.723
        48.700          34.000
 119193902.190 7  92878494.10545  22681872.133                    22681877.906
        45.000          32.400
 118607976.275 7  92421810.86045  22570346.766                    22570352.355
        45.000          33.800
 117310494.330 7  91410823.96245  22323452.906                    22323456.375
        45.700          30.200
 114478368.056 7  89203976.28744  21784518.852                    21784521.398
        44.000          28.500
 110841761.421 8  86370209.46445  21092484.164                    21092486.898
        48.900          34.900
 120346339.045 7  93776405.88844  22901152.617                    22901154.754
        47.500          27.800
 18  3 15  9 52 34.0000000  0 16R09R07R15R16R23R24G30R17G21G07G08G27
                                G15G20G13G28
                  92526489.780 6  22277881.977                    22277882.277
                        41.600
                  82620414.313 7  19843956.711                    19843958.785
                        42.800
                  92219050.237 5  22188268.664                    22188269.582
                        31.800
                  81244186.029 6  19554534.063                    19554535.797
                        40.600
                  93806742.194 6  22546519.297                    22546521.852
                        38.600
                  86670171.356 5  20838546.742                    20838547.461
                        33.300
 111840489.817 8  87148427.74846  21282528.719                    21282534.531
        52.100          38.800
                  92010451.916 7  22107020.406                    22107023.742
                        43.000
 124998283.211 7  97401269.58345  23786381.563                    23786384.109
        45.300          31.200
 118022040.017 8  91965208.90045  22458846.742                    22458849.848
        49.000          34.600
 119192734.836 7  92877584.49745  22681649.680                    22681655.410
        45.900          33.900
 118609579.239 7  92423059.92245  22570652.031                    22570657.359
        45.500          34.600
 117308249.242 7  91409074.52445  22323025.188                    22323029.000
        45.900          30.900
 114479081.170 7  89204531.97144  21784654.484                    21784657.160
        44.000          28.900
 110841067.330 8  86369668.61745  21092351.945                    21092355.121
        48.700          35.100
 120343909.823 7  93774512.95944  22900690.063                    22900691.859
        47.800          27.800
 18  3 15  9 52 35.0000000  0 16R09R07R15R16R23R24G30R17G21G07G08G27
                                G15G20G13G28
                  92523446.343 6  22277149.234                    22277149.375
                        41.400
                  82621014.697 7  19844100.711                    19844103.055
                        42.800
                  92222388.226 5  22189070.461                    22189071.824
                        33.200
                  81244042.257 6  19554499.680                    19554500.938
                        40.500
                  93809885.941 6  22547275.563                    22547277.344
                        39.200
                  86670673.822 5  20838666.320                    20838667.398
                        32.600
 111841921.145 8  87149543.06146  21282801.234                    21282806.871
        52.200          39.000
                  92007970.604 7  22106424.047                    22106427.379
                        42.800
 124999932.019 7  97402554.35645  23786695.602                    23786697.910
        45.100          31.300
 118024917.889 8  91967451.39545  22459394.867                    22459398.160
        49.100          34.000
 119191567.981 7  92876675.26445  22681428.141                    22681433.832
        46.100          33.100
 118611182.756 7  92424309.41045  22570956.891                    22570962.750
        45.900          34.800
 117306004.600 7  91407325.45345  22322598.797                    22322602.246
        46.200          30.100
 114479794.924 7  89205088.14644  21784789.875                    21784792.914
        44.300          29.300
 110840373.864 8  86369128.25445  21092220.070                    21092223.137
        48.800          35.000
 120341480.940 7  93772620.28144  22900228.039                    22900229.543
        47.200          25.800
 18  3 15  9 52 36.0000000  0 16R09R07R15R16R23R24G30R17G21G07G08G27
                                G15G20G13G28
                  92520403.131 6  22276415.320                    22276415.969
                        41.700
                  82621615.752 7  19844245.523                    19844247.699
                        42.900
                  92225726.523 5  22189869.953                    22189874.945
                        34.900
                  81243899.172 6  19554465.305                    19554465.930
                        40.500
                  93813030.010 6  22548030.594                    22548033.641
                        39.200
                  86671176.997 5  20838787.570                    20838787.969
                        32.400
 111843353.054 8  87150658.82746  21283073.516                    21283079.129
        52.300          38.800
                  92005489.685 7  22105828.125                    22105831.027
                        42.400
 125001581.277 7  97403839.47645  23787009.203                    23787011.648
        45.000          30.900
 118027796.176 8  91969694.20945  22459942.055                    22459945.703
        48.900          33.300
 119190401.750 7  92875766.50345  22681205.391                    22681211.766
        46.200          33.900
 118612786.893 7  92425559.38545  22571262.695                    22571268.402
        46.000          34.500
 117303760.414 7  91405576.76145  22322171.633                    22322175.145
        46.100          30.700
 114480509.361 7  89205644.83544  21784925.656                    21784928.977
        44.100          28.600
 110839680.965 8  86368588.33145  21092087.531                    21092090.758
        49.000          34.700
 120339052.382 7  93770727.85944  22899764.734                    22899767.281
        45.800          26.000
 18  3 15  9 52 37.0000000  0 16R09R07R15R16R23R24G30R17G21G07G08G27
                                G15G20G13G28
                  92517360.176 6  22275683.125                    22275684.012
                        41.200
                  82622217.508 7  19844389.688                    19844391.723
                        43.200
                  92229065.106 6  22190672.195                    22190677.898
                        36.000
                  81243756.734 6  19554430.258                    19554432.000
                        40.400
                  93816174.508 6  22548784.781                    22548788.672
                        39.800
                  86671680.962 5  20838909.648                    20838909.586
                        33.100
 111844785.552 8  87151775.06346  21283346.063                    21283351.594
        52.300          39.200
                  92003009.196 7  22105233.195                    22105234.484
                        42.300
 125003231.113 7  97405125.06345  23787322.883                    23787325.527
        45.200          31.500
 118030674.838 8  91971937.32245  22460489.500                    22460493.629
        48.100          33.400
 119189236.128 7  92874858.20345  22680983.844                    22680990.336
        45.800          33.300
 118614391.714 7  92426809.89545  22571567.914                    22571573.574
        46.000          34.900
 117301516.681 7  91403828.41145  22321744.203                    22321748.055
        45.800          30.700
 114481224.509 7  89206202.09744  21785061.359                    21785065.164
        43.900          29.100
 110838988.751 8  86368048.93745  21091956.086                    21091959.281
        49.000          34.400
 120336624.155 7  93768835.69544  22899302.078                    22899304.918
        44.900          26.800
 18  3 15  9 52 38.0000000  0 16R09R07R15R16R23R24G30R17G21G07G08G27
                                G15G20G13G28
                  92514317.440 6  22274949.984                    22274951.027
                        41.500
                  82622819.913 7  19844534.750                    19844537.105
                        42.800
                  92232403.842 6  22191477.188                    22191482.203
                        37.300
                  81243614.930 6  19554396.883                    19554398.059
                        40.100
                  93819319.376 6  22549540.609                    22549545.473
                        39.900
                  86672185.619 5  20839031.477                    20839030.848
                        32.900
 111846218.609 8  87152891.73246  21283619.281                    21283624.363
        52.100          39.000
                  92000529.121 6  22104637.398                    22104637.598
                        41.500
 125004881.344 7  97406410.96945  23787637.633                    23787639.871
        45.900          31.000
 118033553.882 8  91974180.72945  22461038.117                    22461040.711
        48.800          34.200
 119188071.086 7  92873950.35445  22680762.125                    22680768.125
        46.700          34.000
 118615997.168 7  92428060.89045  22571873.500                    22571879.254
        46.200          34.900
 117299273.419 7  91402080.42045  22321316.820                    22321321.484
        45.800          30.400
 114481940.269 7  89206759.84644  21785198.195                    21785201.023
        44.200          28.900
 110838297.134 8  86367510.01245  21091824.641                    21091827.668
        48.500          34.700
 120334196.285 7  93766943.83544  22898839.586                    22898842.922
        44.100          27.900
 18  3 15  9 52 39.0000000  0 16R09R07R15R16R23R24G30R17G21G07G08G27
                                G15G20G13G28
                  92511274.838 6  22274217.813                    22274218.820
                        41.300
                  82623422.896 7  19844680.063                    19844681.105
                        42.900
                  92235742.708 6  22192283.125                    22192286.348
                        37.900
                  81243473.743 6  19554362.320                    19554363.949
                        40.200
                  93822464.569 6  22550295.648                    22550301.887
                        40.000
                  86672690.969 5  20839153.039                    20839151.910
                        32.300
 111847652.180 8  87154008.79546  21283892.141                    21283897.387
        52.500          39.200
                  91998049.445 6  22104042.391                    22104042.195
                        41.800
 125006531.988 7  97407697.21345  23787951.453                    23787953.961
        46.100          31.500
 118036433.259 8  91976424.40145  22461585.703                    22461589.156
        48.400          34.300
 119186906.576 7  92873042.92145  22680540.813                    22680546.711
        46.600          34.100
 118617603.201 7  92429312.35145  22572179.055                    22572184.875
        46.400          35.000
 117297030.576 7  91400332.74144  22320890.461                    22320894.664
        45.800          29.800
 114482656.623 7  89207318.06244  21785334.508                    21785337.664
        43.800          29.200
 110837606.090 8  86366971.52645  21091692.922                    21091696.234
        48.600          34.600
 120331768.681 7  93765052.21144  22898378.359                    22898381.508
        44.100          28.900
 18  3 15  9 52 40.0000000  0 16R09R07R15R16R23R24G30R17G21G07G08G27
                                G15G20G13G28
                  92508232.480 6  22273485.148                    22273486.402
                        40.500
                  82624026.508 7  19844824.648                    19844826.199
                        42.700
                  92239081.805 6  22193087.305                    22193090.469
                        39.200
                  81243333.198 6  19554329.141                    19554330.586
                        40.100
                  93825610.090 6  22551051.422                    22551057.363
                        39.900
                  86673196.989 5  20839275.531                    20839273.898
                        32.700
 111849086.323 8  87155126.31246  21284165.133                    21284170.383
        52.500          38.800
                  91995570.183 6  22103446.172                    22103445.734
                        41.700
 125008183.024 7  97408983.75645  23788265.594                    23788268.160
        46.000          31.600
 118039312.977 8  91978668.33145  22462135.102                    22462136.898
        48.700          34.000
 119185742.699 7  92872135.98745  22680318.930                    22680325.145
        46.600          33.900
 118619209.815 7  92430564.26645  22572485.016                    22572490.762
        46.700          34.800
 117294788.130 7  91398585.38145  22320464.672                    22320467.910
        46.200          30.200
 114483373.579 7  89207876.73144  21785471.023                    21785474.324
        44.100          28.900
 110836915.619 8  86366433.48845  21091561.656                    21091565.199
        48.800          34.900
 120329341.429 7  93763160.87544  22897916.500                    22897920.066
        44.100          29.300
 18  3 15  9 52 41.0000000  0 16R09R07R15R16R23R24G30R17G21G07G08G27
                                G15G20G13G28
                  92505190.361 6  22272752.547                    22272753.418
                        41.100
                  82624630.825 7  19844969.492                    19844971.566
                        42.800
                  92242421.196 6  22193891.063                    22193894.953
                        39.300
                  81243193.311 6  19554296.047                    19554296.828
                        40.700
                  93828755.983 6  22551807.211                    22551814.422
                        39.800
                  86673703.733 5  20839396.859                    20839395.465
                        32.900
 111850521.049 8  87156244.27746  21284438.133                    21284443.539
        52.100          38.700
                  91993091.373 6  22102851.352                    22102850.391
                        41.900
 125009834.536 7  97410270.65945  23788580.094                    23788582.172
        46.300          31.400
 118042193.129 7  91980912.60045  22462681.617                    22462685.063
        47.900          34.200
 119184579.440 7  92871229.55145  22680097.859                    22680104.207
        46.800          34.200
 118620817.088 7  92431816.69645  22572790.703                    22572796.652
        47.000          35.600
 117292546.157 7  91396838.35744  22320037.992                    22320040.910
        46.300          29.600
 114484091.214 7  89208435.92444  21785607.781                    21785610.379
        44.100          29.600
 110836225.826 8  86365895.98545  21091430.211                    21091433.832
        48.300          35.100
 120326914.543 7  93761269.82845  22897455.875                    22897458.320
        44.800          30.200
 18  3 15  9 52 42.0000000  0 16R09R07R15R16R23R24G30R17G21G07G08G27
                                G15G20G13G28
                  92502148.409 6  22272019.008                    22272021.219
                        40.600
                  82625235.821 7  19845114.469                    19845116.813
                        42.700
                  92245760.814 6  22194693.906                    22194698.090
                        39.300
                  81243054.061 6  19554261.477                    19554262.766
                        40.400
                  93831902.189 6  22552562.539                    22552569.406
                        39.500
                  86674211.199 5  20839519.289                    20839517.516
                        32.800
 111851956.312 8  87157362.66746  21284711.063                    21284716.449
        52.300          38.900
                  91990612.970 6  22102256.289                    22102254.645
                        41.900
 125011486.496 7  97411557.89845  23788894.383                    23788896.547
        46.500          31.400
 118045073.641 7  91983157.13745  22463230.609                    22463233.793
        47.700          34.000
 119183416.736 7  92870323.56345  22679876.594                    22679882.863
        46.400          33.300
 118622424.941 7  92433069.57545  22573096.852                    22573102.602
        46.800          35.200
 117290304.721 7  91395091.73644  22319610.891                    22319614.293
        46.000          29.000
 114484809.410 7  89208995.53444  21785744.750                    21785747.383
        44.500          29.400
 110835536.616 8  86365358.93145  21091298.805                    21091302.395
        48.200          34.900
 120324487.954 7  93759379.01145  22896994.141                    22896997.105
        45.900          32.000
 18  3 15  9 52 43.0000000  0 16R09R07R15R16R23R24G30R17G21G07G08G27
                                G15G20G13G28
                  92499106.692 6  22271288.328                    22271288.762
                        40.800
                  82625841.437 7  19845260.234                    19845262.789
                        43.000
                  92249100.708 6  22195496.555                    22195502.637
                        38.600
                  81242915.430 6  19554228.219                    19554229.578
                        40.600
                  93835048.762 6  22553320.391                    22553326.648
                        39.800
                  86674719.366 5  20839641.961                    20839639.574
                        32.100
 111853392.133 8  87158481.48846  21284984.008                    21284989.621
        52.500          39.100
                  91988134.966 7  22101659.477                    22101660.027
                        42.500
 125013138.820 7  97412845.40945  23789208.828                    23789210.832
        45.200          31.400
 118047954.498 7  91985401.96245  22463778.203                    22463781.211
        47.400          34.000
 119182254.635 7  92869418.04645  22679654.930                    22679661.465
        46.600          33.800
 118624033.411 7  92434322.92545  22573402.875                    22573408.773
        47.200          35.200
 117288063.752 7  91393345.49645  22319184.156                    22319188.109
        45.700          30.400
 114485528.243 7  89209555.61944  21785881.305                    21785883.926
        44.500          28.800
 110834848.009 8  86364822.35345  21091168.000                    21091171.504
        48.000          35.000
 120322061.713 7  93757488.45245  22896532.844                    22896535.535
        45.700          31.600
 18  3 15  9 52 44.0000000  0 16R09R07R15R16R23R24G30R17G21G07G08G27
                                G15G20G13G28
                  92496065.119 6  22270555.906                    22270556.262
                        40.600
                  82626447.678 7  19845406.313                    19845408.090
                        42.700
                  92252440.794 6  22196298.672                    22196305.965
                        37.900
                  81242777.402 6  19554195.563                    19554196.887
                        40.500
                  93838195.626 6  22554076.344                    22554082.367
                        39.900
                  86675228.218 5  20839763.914                    20839761.961
                        32.600
 111854828.468 8  87159600.71246  21285257.633                    21285263.340
        52.400          38.700
                  91985657.335 7  22101064.773                    22101065.488
                        42.400
 125014791.565 7  97414133.24845  23789523.555                    23789525.395
        45.900          31.200
 118050835.716 7  91987647.06545  22464326.531                    22464329.625
        47.700          33.900
 119181093.067 7  92868512.96145  22679434.414                    22679440.813
        46.400          33.300
 118625642.432 7  92435576.70245  22573708.695                    22573714.730
        47.200          34.800
 117285823.227 7  91391599.65245  22318758.000                    22318761.594
        45.300          30.100
 114486247.722 7  89210116.22244  21786017.156                    21786020.715
        43.900          29.400
 110834159.975 7  86364286.22945  21091037.234                    21091040.477
        47.800          34.900
 120319635.755 7  93755598.10845  22896071.172                    22896074.207
        45.700          30.700
 18  3 15  9 52 45.0000000  0 16R09R07R15R16R23R24G30R17G21G07G08G27
                                G15G20G13G28
                  92493023.720 6  22269823.594                    22269824.113
                        40.000
                  82627054.500 7  19845551.320                    19845554.180
                        42.700
                  92255781.009 6  22197101.008                    22197108.645
                        36.500
                  81242639.963 6  19554162.672                    19554162.898
                        40.500
                  93841342.823 6  22554833.711                    22554839.059
                        39.600
                  86675737.718 5  20839886.492                    20839884.148
                        31.400
 111856265.302 8  87160720.32446  21285531.156                    21285536.445
        52.100          38.800
                  91983180.006 7  22100468.195                    22100470.754
                        42.800
 125016444.661 7  97415421.37045  23789838.047                    23789840.016
        45.800          32.000
 118053717.211 7  91989892.38645  22464874.633                    22464877.988
        47.500          33.600
 119179932.052 7  92867608.29745  22679213.055                    22679220.027
        46.600          34.400
 118627252.012 7  92436830.92045  22574015.063                    22574020.781
        47.300          34.600
 117283583.108 7  91389854.16444  22318331.672                    22318335.387
        45.100          29.500
 114486967.831 7  89210677.33744  21786154.414                    21786157.871
        44.100          29.900
 110833472.462 8  86363750.50845  21090906.688                    21090909.348
        48.200          34.800
 120317210.058 7  93753707.96245  22895609.117                    22895612.492
        46.000          30.900
 18  3 15  9 52 46.0000000  0 16R09R07R15R16R23R24G30R17G21G07G08G27
                                G15G20G13G28
                  92489982.523 6  22269090.867                    22269092.086
                        39.900
                  82627661.924 7  19845697.453                    19845700.023
                        42.700
                  92259121.406 5  22197905.773                    22197911.938
                        35.200
                  81242503.158 6  19554129.578                    19554130.656
                        40.400
                  93844490.386 6  22555589.250                    22555595.852
                        39.700
                  86676247.919 5  20840009.211                    20840006.797
                        31.600
 111857702.666 8  87161840.34646  21285804.328                    21285810.055
        51.900          38.700
                  91980703.143 7  22099873.266                    22099875.883
                        42.800
 125018098.230 7  97416709.86445  23790152.555                    23790154.609
        46.000          31.600
 118056599.074 8  91992137.98545  22465423.492                    22465425.910
        48.300          34.000
 119178771.570 7  92866704.03645  22678992.859                    22678998.492
        46.400          34.200
 118628862.197 7  92438085.60845  22574321.547                    22574326.813
        47.200          34.100
 117281343.443 7  91388109.04044  22317904.836                    22317909.543
        45.100          29.900
 114487688.610 7  89211239.01144  21786292.227                    21786294.938
        43.900          29.400
 110832785.576 8  86363215.26545  21090775.781                    21090778.895
        48.400          34.900
 120314784.668 7  93751818.05945  22895147.742                    22895151.430
        45.900          30.200
 18  3 15  9 52 47.0000000  0 16R09R07R15R16R23R24G30R17G21G07G08G27
                                G15G20G13G28
                  92486941.621 6  22268358.383                    22268359.539
                        39.600
                  82628270.034 7  19845844.086                    19845845.734
                        42.900
                  92262462.137 5  22198711.273                    22198714.734
                        34.300
                  81242367.068 6  19554095.813                    19554097.875
                        40.600
                  93847638.354 6  22556347.203                    22556352.500
                        39.400
                  86676758.864 5  20840132.211                    20840129.551
                        31.900
 111859140.676 8  87162960.88046  21286078.023                    21286083.637
        52.100          39.200
                  91978226.795 7  22099278.375                    22099281.023
                        42.800
 125019752.294 7  97417998.75345  23790467.234                    23790469.648
        45.700          31.400
 118059481.380 8  91994383.93045  22465971.430                    22465975.266
        48.000          34.100
 119177611.704 7  92865800.24445  22678772.359                    22678777.707
        46.700          33.400
 118630473.098 7  92439340.85645  22574627.883                    22574633.637
        47.400          34.300
 117279104.279 7  91386364.30545  22317479.125                    22317483.121
        45.300          30.400
 114488410.097 7  89211801.26344  21786429.469                    21786432.539
        43.400          29.000
 110832099.360 8  86362680.55645  21090645.227                    21090648.656
        48.300          34.800
 120312359.686 7  93749928.48244  22894685.953                    22894689.785
        45.400          27.800
 18  3 15  9 52 48.0000000  0 16R09R07R15R16R23R24G30R17G21G07G08G27
                                G15G20G13G28
                  92483900.851 6  22267625.977                    22267627.531
                        39.900
                  82628878.743 7  19845989.734                    19845992.332
                        43.100
                  92265803.064 5  22199516.469                    22199519.121
                        33.500
                  81242231.536 6  19554064.000                    19554065.000
                        40.300
                  93850786.626 6  22557103.375                    22557109.086
                        39.200
                  86677270.428 5  20840255.352                    20840251.766
                        32.200
 111860579.179 8  87164081.78746  21286351.656                    21286357.352
        51.800          39.000
                  91975750.773 7  22098684.359                    22098686.563
                        43.000
 125021406.690 7  97419287.89645  23790782.117                    23790784.160
        45.000          32.400
 118062363.968 8  91996630.09245  22466521.125                    22466523.348
        48.300          34.400
 119176452.407 7  92864896.87845  22678551.625                    22678557.746
        47.200          33.900
 118632084.525 7  92440596.52145  22574934.867                    22574939.863
        47.500          34.600
 117276865.475 7  91384619.82444  22317053.734                    22317057.387
        45.800          29.500
 114489132.114 7  89212363.93644  21786566.789                    21786569.461
        43.600          28.300
 110831413.688 8  86362146.26545  21090514.242                    21090517.680
        49.000          34.700
 120309934.974 7  93748039.10544  22894223.813                    22894228.094
        45.100          27.700
 18  3 15  9 52 49.0000000  0 16R09R07R15R16R23R24G30R17G21G07G08G27
                                G15G20G13G28
                  92480860.328 6  22266894.961                    22266895.672
                        39.500
                  82629488.195 7  19846136.094                    19846137.895
                        42.900
                  92269144.355 5  22200318.594                    22200322.250
                        34.300
                  81242096.692 6  19554031.242                    19554032.750
                        40.300
                  93853935.291 6  22557861.375                    22557865.680
                        39.000
                  86677782.759 5  20840378.398                    20840375.875
                        32.300
 111862018.285 8  87165203.17246  21286625.680                    21286631.410
        51.900          39.200
                  91973275.191 7  22098087.227                    22098090.863
                        42.900
 125023061.596 7  97420577.43045  23791097.055                    23791099.453
        45.100          31.700
 118065246.983 8  91998876.58945  22467069.086                    22467071.938
        48.300          33.600
 119175293.761 7  92863994.02745  22678331.016                    22678336.680
        47.400          34.100
 118633696.650 7  92441852.73445  22575241.094                    22575246.434
        47.000          34.400
 117274627.200 7  91382875.72845  22316628.102                    22316631.445
        46.000          30.200
 114489854.823 7  89212927.13744  21786704.320                    21786707.629
        43.600          28.300
 110830728.663 8  86361612.48045  21090384.180                    21090387.336
        49.000          35.100
 120307510.628 7  93746150.01744  22893762.477                    22893766.234
        45.700          27.000
 18  3 15  9 52 50.0000000  0 16R09R07R15R16R23R24G30R17G21G07G08G27
                                G15G20G13G28
                  92477819.998 6  22266161.445                    22266162.828
                        39.400
                  82630098.258 7  19846283.164                    19846284.977
                        42.700
                  92272485.850 5  22201120.781                    22201125.734
                        34.900
                  81241962.458 6  19553999.305                    19554000.500
                        40.700
                  93857084.287 6  22558617.766                    22558622.055
                        38.900
                  86678295.769 5  20840501.281                    20840499.125
                        31.400
 111863457.929 8  87166324.96746  21286899.602                    21286905.133
        51.900          39.300
                  91970799.963 7  22097493.008                    22097496.027
                        43.400
 125024716.890 7  97421867.25845  23791411.406                    23791414.074
        45.000          30.700
 118068130.329 8  92001123.35145  22467618.578                    22467621.344
        48.400          34.100
 119174135.623 7  92863091.57145  22678110.727                    22678116.434
        46.800          34.000
 118635309.325 7  92443109.38145  22575548.070                    22575553.445
        47.100          34.400
 117272389.345 7  91381131.93945  22316201.516                    22316205.230
        45.800          30.200
 114490578.132 7  89213490.78744  21786841.703                    21786845.121
        43.000          26.500
 110830044.199 8  86361079.12945  21090254.195                    21090257.297
        48.800          35.100
 120305086.602 7  93744261.14444  22893301.766                    22893304.434
        47.000          26.000
 18  3 15  9 52 51.0000000  0 16R09R07R15R16R23R24G30R17G21G07G08G27
                                G15G20G13G28
                  92474779.843 6  22265430.016                    22265430.949
                        38.800
                  82630708.937 7  19846429.172                    19846431.941
                        42.800
                  92275827.539 6  22201923.617                    22201929.652
                        36.500
                  81241828.811 6  19553967.242                    19553968.320
                        41.100
                  93860233.583 6  22559374.727                    22559378.895
                        39.300
                  86678809.479 5  20840625.359                    20840622.211
                        32.900
 111864898.071 8  87167447.14946  21287173.977                    21287179.250
        51.900          38.900
                  91968325.125 7  22096899.531                    22096901.824
                        43.200
 125026372.590 7  97423157.40945  23791726.586                    23791728.883
        45.400          31.500
 118071014.030 8  92003370.38545  22468165.898                    22468169.047
        48.100          34.200
 119172977.992 7  92862189.51145  22677890.602                    22677896.563
        46.900          33.900
 118636922.565 7  92444366.46445  22575854.844                    22575860.129
        46.700          34.600
 117270151.860 7  91379388.43845  22315775.148                    22315780.035
        45.300          30.200
 114491302.070 7  89214054.91144  21786979.781                    21786982.762
        43.500          28.500
 110829360.314 8  86360546.22545  21090123.664                    21090127.090
        48.800          34.400
 120302662.842 7  93742372.46544  22892840.531                    22892842.445
        47.100          26.100
 18  3 15  9 52 52.0000000  0 16R09R07R15R16R23R24G30R17G21G07G08G27
                                G15G20G13G28
                  92471739.822 6  22264698.180                    22264698.980
                        38.900
                  82631320.170 7  19846575.945                    19846579.117
                        43.000
                  92279169.415 6  22202727.891                    22202733.750
                        36.900
                  81241695.746 6  19553934.547                    19553936.398
                        40.700
                  93863383.196 6  22560132.906                    22560136.566
                        38.600
                  86679323.866 5  20840748.070                    20840746.090
                        32.500
 111866338.712 8  87168569.72546  21287448.188                    21287453.105
        52.300          39.000
                  91965850.693 7  22096304.406                    22096307.641
                        43.200
 125028028.654 7  97424447.84945  23792041.727                    23792044.625
        45.400          31.500
 118073897.995 8  92005617.63045  22468715.453                    22468718.484
        48.600          34.400
 119171820.940 7  92861287.89745  22677670.523                    22677676.199
        47.200          34.200
 118638536.369 7  92445623.98345  22576162.031                    22576167.266
        46.400          33.600
 117267914.771 7  91377645.27144  22315349.883                    22315353.992
        45.500          29.900
 114492026.590 7  89214619.51344  21787117.102                    21787120.395
        43.900          29.700
 110828676.975 8  86360013.75945  21089993.672                    21089996.840
        49.100          34.800
 120300239.367 7  93740483.98744  22892379.625                    22892380.867
        46.900          28.100
 18  3 15  9 52 53.0000000  0 16R09R07R15R16R23R24G30R17G21G07G08G27
                                G15G20G13G28
                  92468700.061 6  22263967.203                    22263966.547
                        39.200
                  82631932.104 7  19846723.266                    19846725.313
                        43.100
                  92282511.464 6  22203536.656                    22203538.125
                        38.300
                  81241563.351 6  19553903.586                    19553903.992
                        40.700
                  93866533.158 6  22560889.609                    22560893.047
                        38.600
                  86679838.977 5  20840872.289                    20840869.543
                        32.400
 111867779.919 8  87169692.74746  21287722.352                    21287727.719
        52.400          39.000
                  91963376.665 7  22095710.438                    22095713.586
                        42.900
 125029685.151 7  97425738.61545  23792357.414                    23792359.551
        45.800          31.300
 118076782.363 8  92007865.19045  22469263.523                    22469267.598
        48.300          33.800
 119170664.447 7  92860386.71345  22677450.586                    22677456.238
        47.100          33.000
 118640150.797 7  92446881.98345  22576469.398                    22576474.195
        46.600          33.800
 117265678.124 7  91375902.43644  22314924.539                    22314928.074
        46.000          28.600
 114492751.758 7  89215184.62044  21787255.242                    21787258.203
        44.100          28.600
 110827994.254 8  86359481.76445  21089864.172                    21089867.270
        48.800          35.200
 120297816.234 7  93738595.78744  22891918.453                    22891919.762
        46.700          29.700
 18  3 15  9 52 54.0000000  0 16R09R07R15R16R23R24G30R17G21G07G08G27
                                G15G20G13G28
                  92465660.494 6  22263235.695                    22263234.684
                        38.900
                  82632544.678 7  19846869.734                    19846872.914
                        43.200
                  92285853.715 6  22204342.477                    22204343.004
                        38.500
                  81241431.605 6  19553871.555                    19553872.609
                        40.600
                  93869683.400 6  22561647.602                    22561650.348
                        38.300
                  86680354.766 5  20840995.828                    20840993.992
                        32.500
 111869221.672 8  87170816.18946  21287996.406                    21288002.121
        52.700          39.000
                  91960903.111 7  22095115.695                    22095118.277
                        43.600
 125031342.058 7  97427029.69545  23792672.938                    23792674.707
        46.100          31.000
 118079667.085 8  92010113.01045  22469813.516                    22469816.129
        48.700          34.000
 119169508.537 7  92859485.98145  22677230.641                    22677236.258
        46.600          33.200
 118641765.806 7  92448140.43745  22576776.547                    22576781.391
        47.100          34.100
 117263441.908 7  91374159.92444  22314499.000                    22314502.500
        46.400          29.800
 114493477.447 7  89215750.12344  21787393.641                    21787396.770
        43.900          28.000
 110827312.120 8  86358950.22245  21089734.070                    21089737.301
        48.800          35.800
 120295393.405 7  93736707.84344  22891457.375                    22891459.199
        46.300          29.700
