     2.11           OBSERVATION DATA    M (MIXED)           RINEX VERSION / TYPE
teqc  2018Mar15                         20180319 14:17:33UTCPGM / RUN BY / DATE
Linux 2.6.32-573.12.1.x86_64|x86_64|gcc -static|Linux 64|=+ COMMENT
END OF STATIC MODE OBSERVATION                              COMMENT
BIT 2 OF LLI FLAGS DATA COLLECTED UNDER A/S CONDITION       COMMENT
-Unknown-                                                   MARKER NAME
4625                                                        MARKER NUMBER
-Unknown-           -Unknown-                               OBSERVER / AGENCY
5127468778          TRIMBLE             4.63                REC # / TYPE / VERS
47477114                            NONE                    ANT # / TYPE
 -4609473.0367        0.0000 -4393551.5723                  APPROX POSITION XYZ
        0.0000        0.0000        0.0000                  ANTENNA: DELTA H/E/N
     1     1                                                WAVELENGTH FACT L1/2
     7    L1    L2    C1    P1    P2    S1    S2            # / TYPES OF OBSERV
    18                                                      LEAP SECONDS
 SNR is mapped to RINEX snr flag value [0-9]                COMMENT
  L1 & L2: min(max(int(snr_dBHz/6), 0), 9)                  COMMENT
  2018     3    13    15     7   39.0000000     GPS         TIME OF FIRST OBS
                                                            END OF HEADER
 18  3 13 15  7 39.0000000  0 20R01G19G22G25R08R10R09R16R17R18R19G31
                                R02G12G06G03G32G24G17G14
                  85991229.493 6  20682572.578                    20682576.160
                        36.700
 114194036.978 7  88982369.39445  21730402.664                    21730404.109
        46.600          34.200
 121957718.041 7  95031985.86644  23207781.328                    23207781.320
        42.300          25.900
 117047733.866 7  91205966.47745  22273423.398                    22273429.895
        47.300          30.400
                  91498577.263 6  21968632.383                    21968633.965
                        37.200
                  86728728.550 5  20918682.242                    20918685.637
                        35.600
                  81044013.623 6  19513208.367                    19513208.719
                        41.400
                  94019849.077 4  22629486.055                    22629488.961
                        27.000
                  91369530.898 6  21953029.813                    21953030.543
                        39.300
                  82367693.331 6  19838931.945                    19838933.840
                        40.400
                  90437354.665 6  21736684.570                    21736684.957
                        38.100
 125117569.113 6                  23809082.898
        36.700
                  95389185.259 5  22983287.961                    22983289.016
                        35.000
 107899409.917 8  84077357.35146  20532575.219                    20532577.719
        51.100          38.200
 119435571.484 7  93066729.71045  22727838.984                    22727844.930
        45.800          33.500
 119512586.877 7  93126594.99045  22742459.211                    22742466.512
        44.600          31.200
 117780455.895 7  91776984.34344  22412883.336                    22412888.574
        44.600          29.400
 123202546.975 6  96002065.84744  23444679.414                    23444685.652
        41.600          25.500
 121350254.283 7  94558650.33145  23092183.523                    23092187.828
        44.600          32.700
 116777792.136 7  90995718.13144  22222081.211                    22222083.977
        43.300          25.800
 18  3 13 15  7 40.0000000  0 20R01G19G22G25R08R10R09R16R17R18R19G31
                                R02G12G06G03G32G24G17G14
                  85991552.044 6  20682649.914                    20682653.742
                        36.800
 114196303.104 7  88984135.20745  21730833.398                    21730835.504
        46.200          33.900
 121958750.359 7  95032790.25644  23207977.680                    23207977.742
        42.300          27.500
 117045194.194 7  91203987.51645  22272940.063                    22272946.535
        47.500          31.400
                  91501607.310 6  21969359.117                    21969362.016
                        37.100
                  86726454.907 5  20918133.555                    20918137.520
                        35.800
                  81045069.044 6  19513462.758                    19513463.148
                        41.500
                  94023556.076 4  22630378.328                    22630381.531
                        29.300
                  91372764.782 6  21953806.859                    21953807.805
                        39.700
                  82368037.916 6  19839015.367                    19839016.543
                        40.500
                  90434613.548 6  21736026.281                    21736026.664
                        38.000
 125114535.250 6                  23808505.484
        36.000
                  95386382.521 5  22982613.086                    22982613.992
                        34.100
 107899510.752 8  84077435.93846  20532594.477                    20532597.305
        51.500          38.700
 119433491.374 7  93065108.85445  22727443.547                    22727448.902
        45.800          32.300
 119512177.498 7  93126275.99245  22742381.172                    22742388.461
        44.600          31.700
 117782521.143 7  91778593.63344  22413276.352                    22413281.840
        44.200          29.700
 123206498.406 6  96005144.89744  23445431.773                    23445437.520
        41.700          27.000
 121353314.154 7  94561034.64645  23092766.383                    23092770.113
        45.300          33.400
 116777791.407 7  90995717.56744  22222080.852                    22222083.727
        43.300          26.100
 18  3 13 15  7 41.0000000  0 20R01G19G22G25R08R10R09R16R17R18R19G31
                                R02G12G06G03G32G24G17G14
                  85991875.317 6  20682727.336                    20682731.563
                        36.900
 114198569.872 7  88985901.52145  21731265.539                    21731266.602
        46.100          33.600
 121959783.299 7  95033595.12244  23208173.969                    23208174.656
        42.400          27.600
 117042654.943 7  91202008.89145  22272457.172                    22272463.238
        46.800          31.000
                  91504637.756 6  21970086.719                    21970089.031
                        36.800
                  86724181.660 6  20917585.281                    20917589.496
                        36.000
                  81046125.092 6  19513716.930                    19513716.930
                        41.200
                  94027263.341 5  22631271.469                    22631273.645
                        30.800
                  91375999.033 6  21954582.781                    21954585.258
                        39.900
                  82368383.222 6  19839098.219                    19839099.984
                        40.400
                  90431872.795 6  21735367.000                    21735367.773
                        38.100
 125111501.674 6                  23807927.836
        36.500
                  95383580.019 5  22981938.000                    22981939.270
                        33.000
 107899612.294 8  84077515.07746  20532613.703                    20532615.887
        51.600          38.300
 119431411.781 7  93063488.39845  22727047.484                    22727053.426
        45.800          32.300
 119511768.802 7  93125957.51945  22742303.961                    22742310.746
        45.200          32.600
 117784586.998 7  91780203.39544  22413669.047                    22413674.895
        43.900          28.700
 123210450.088 7  96008224.12844  23446183.469                    23446189.816
        42.100          25.800
 121356374.393 7  94563419.24045  23093348.492                    23093352.535
        45.800          34.000
 116777791.313 7  90995717.49444  22222080.023                    22222083.664
        43.000          26.700
 18  3 13 15  7 42.0000000  0 20R01G19G22G25R08R10R09R16R17R18R19G31
                                R02G12G06G03G32G24G17G14
                  85992199.283 6  20682805.914                    20682809.430
                        36.800
 114200837.214 7  88987668.28145  21731696.188                    21731698.453
        45.900          34.000
 121960816.806 6  95034400.43744  23208370.633                    23208371.293
        41.700          28.100
 117040116.117 7  91200030.59545  22271974.141                    22271980.195
        47.100          30.500
                  91507668.586 6  21970813.969                    21970816.746
                        37.100
                  86721908.793 6  20917037.016                    20917041.496
                        36.000
                  81047181.734 6  19513972.188                    19513971.477
                        41.500
                  94030970.702 5  22632164.336                    22632165.965
                        30.300
                  91379233.619 6  21955359.305                    21955361.145
                        41.500
                  82368729.199 6  19839181.625                    19839183.703
                        40.600
                  90429132.345 6  21734709.461                    21734709.164
                        38.400
 125108468.250 6                  23807351.320
        36.300
                  95380777.824 6  22981261.758                    22981264.223
                        37.400
 107899714.455 8  84077594.68646  20532633.422                    20532635.961
        51.400          38.500
 119429332.633 7  93061868.28145  22726651.945                    22726657.785
        45.700          32.800
 119511360.725 7  93125639.52845  22742225.852                    22742232.617
        45.500          32.800
 117786653.391 7  91781813.57344  22414062.367                    22414067.977
        44.300          28.800
 123214402.002 6  96011303.53444  23446935.000                    23446941.742
        41.900          25.300
 121359434.994 7  94565804.11445  23093931.531                    23093935.313
        45.000          33.300
 116777791.815 7  90995717.88644  22222081.352                    22222083.863
        42.800          27.300
 18  3 13 15  7 43.0000000  0 20R01G19G22G25R08R10R09R16R17R18R19G31
                                R02G12G06G03G32G24G17G14
                  85992523.995 6  20682884.391                    20682886.895
                        37.400
 114203105.255 7  88989435.59945  21732127.938                    21732129.480
        46.300          34.200
 121961850.986 7  95035206.29144  23208567.336                    23208567.879
        42.400          28.900
 117037577.717 7  91198052.62845  22271491.156                    22271497.363
        47.000          30.400
                  91510699.912 6  21971542.234                    21971544.418
                        36.500
                  86719636.344 6  20916489.008                    20916492.832
                        36.100
                  81048239.037 6  19514226.438                    19514226.262
                        41.400
                  94034678.365 4  22633056.602                    22633058.699
                        29.600
                  91382468.609 7  21956137.242                    21956138.910
                        42.300
                  82369075.898 6  19839264.945                    19839267.121
                        40.400
                  90426392.274 6  21734049.977                    21734050.930
                        38.100
 125105435.195 5                  23806773.766
        35.700
                  95377975.896 6  22980586.086                    22980588.281
                        38.200
 107899817.360 8  84077674.87546  20532653.008                    20532655.125
        51.200          38.600
 119427254.021 7  93060248.59045  22726255.938                    22726261.816
        45.100          31.900
 119510953.345 7  93125322.07745  22742148.789                    22742155.602
        44.500          33.300
 117788720.453 7  91783424.28044  22414455.875                    22414461.395
        44.700          28.400
 123218354.187 6  96014383.15944  23447687.664                    23447693.535
        41.800          24.800
 121362496.045 7  94568189.33945  23094513.211                    23094517.293
        45.500          33.700
 116777792.979 7  90995718.79744  22222080.680                    22222084.133
        42.800          26.800
 18  3 13 15  7 44.0000000  0 20R01G19G22G25R08R10R09R16R17R18R19G31
                                R02G12G06G03G32G24G17G14
                  85992849.429 6  20682962.445                    20682965.383
                        37.700
 114205373.901 7  88991203.38045  21732560.086                    21732560.898
        46.600          34.700
 121962885.794 7  95036012.63744  23208764.352                    23208764.754
        42.400          28.600
 117035039.763 7  91196075.00445  22271008.164                    22271014.426
        47.000          30.500
                  91513731.684 6  21972270.336                    21972272.688
                        36.500
                  86717364.296 5  20915941.164                    20915944.707
                        35.400
                  81049296.968 6  19514480.727                    19514480.270
                        41.200
                  94038386.111 5  22633950.969                    22633951.570
                        30.200
                  91385703.932 7  21956915.523                    21956916.406
                        42.800
                  82369423.307 6  19839348.859                    19839351.020
                        40.400
                  90423652.552 6  21733390.914                    21733391.563
                        38.200
 125102402.349 5                  23806196.953
        35.900
                  95375174.173 6  22979910.719                    22979913.352
                        38.100
 107899920.923 8  84077755.57846  20532672.539                    20532674.625
        51.500          38.300
 119425175.923 7  93058629.30745  22725861.039                    22725866.383
        45.300          33.100
 119510546.605 7  93125005.14745  22742071.344                    22742077.813
        45.000          33.400
 117790788.115 7  91785035.45344  22414849.672                    22414855.160
        44.800          28.900
 123222306.585 6  96017462.96044  23448439.984                    23448445.668
        41.800          26.100
 121365557.443 7  94570574.83945  23095095.758                    23095099.980
        44.900          33.500
 116777794.770 7  90995720.18844  22222081.555                    22222084.520
        42.600          26.900
 18  3 13 15  7 45.0000000  0 20R01G19G22G25R08R10R09R16R17R18R19G31
                                R02G12G06G03G32G24G17G14
                  85993175.593 6  20683040.563                    20683043.918
                        37.200
 114207643.218 7  88992971.68445  21732991.523                    21732992.715
        46.400          34.400
 121963921.158 7  95036819.41844  23208961.680                    23208962.152
        42.700          28.800
 117032502.288 7  91194097.75645  22270524.953                    22270531.242
        46.900          30.800
                  91516763.918 6  21972998.148                    21973000.418
                        37.000
                  86715092.666 5  20915392.797                    20915396.680
                        35.600
                  81050355.543 6  19514735.328                    19514735.129
                        41.000
                  94042094.119 4  22634843.555                    22634843.781
                        29.800
                  91388939.629 7  21957692.203                    21957693.832
                        42.000
                  82369771.475 6  19839432.672                    19839434.320
                        40.400
                  90420913.188 6  21732732.094                    21732733.508
                        38.200
 125099369.822 5                  23805619.523
        35.900
                  95372372.804 6  22979236.672                    22979239.113
                        37.700
 107900025.207 8  84077836.83346  20532692.273                    20532695.008
        51.700          38.700
 119423098.307 7  93057010.40145  22725465.039                    22725471.215
        45.600          33.000
 119510140.574 7  93124688.75845  22741994.070                    22742000.313
        45.000          33.100
 117792856.362 7  91786647.07944  22415243.000                    22415248.520
        45.100          29.000
 123226259.266 6  96020542.98044  23449191.758                    23449197.824
        41.400          25.200
 121368619.255 7  94572960.65945  23095679.609                    23095683.195
        45.500          33.200
 116777797.188 7  90995722.07644  22222082.453                    22222084.859
        42.400          26.600
 18  3 13 15  7 46.0000000  0 20R01G19G22G25R08R10R09R16R17R18R19G31
                                R02G12G06G03G32G24G17G14
                  85993502.539 6  20683118.398                    20683122.961
                        37.200
 114209913.227 7  88994740.52245  21733423.570                    21733425.102
        46.400          34.100
 121964957.190 7  95037626.72244  23209158.469                    23209159.137
        43.200          28.700
 117029965.281 7  91192120.87745  22270042.273                    22270048.613
        47.000          31.300
                  91519796.611 6  21973726.664                    21973728.348
                        37.700
                  86712821.468 5  20914845.617                    20914849.328
                        35.500
                  81051414.772 6  19514990.523                    19514990.367
                        41.100
                  94045802.298 4  22635734.664                    22635736.711
                        29.500
                  91392175.734 7  21958469.445                    21958471.668
                        42.200
                  82370120.371 6  19839517.227                    19839518.379
                        40.400
                  90418174.205 6  21732074.664                    21732075.402
                        38.500
 125096337.568 5                  23805042.406
        35.900
                  95369571.834 6  22978560.773                    22978563.813
                        37.200
 107900130.214 8  84077918.65446  20532712.453                    20532714.531
        51.300          38.400
 119421021.215 7  93055391.90745  22725070.016                    22725076.059
        45.500          33.100
 119509735.240 7  93124372.91845  22741916.891                    22741923.410
        44.700          32.600
 117794925.283 7  91788259.22744  22415636.383                    22415641.996
        44.600          29.300
 123230212.250 6  96023623.23544  23449943.766                    23449949.977
        41.400          25.800
 121371681.514 7  94575346.83845  23096262.125                    23096265.563
        45.800          33.400
 116777800.294 7  90995724.50044  22222082.688                    22222085.664
        42.300          24.900
 18  3 13 15  7 47.0000000  0 20R01G19G22G25R08R10R09R16R17R18R19G31
                                R02G12G06G03G32G24G17G14
                  85993830.245 6  20683198.133                    20683201.590
                        36.900
 114212183.914 7  88996509.89245  21733855.797                    21733856.910
        46.700          34.500
 121965993.867 7  95038434.51244  23209356.078                    23209356.613
        43.000          27.900
 117027428.756 7  91190144.36645  22269559.852                    22269565.840
        47.100          31.100
                  91522829.773 6  21974455.023                    21974456.875
                        37.900
                  86710550.717 5  20914297.844                    20914301.586
                        35.900
                  81052474.681 6  19515246.227                    19515245.590
                        41.200
                  94049510.723 4  22636627.375                    22636628.973
                        28.800
                  91395412.258 6  21959247.125                    21959249.863
                        41.600
                  82370470.016 6  19839600.789                    19839602.902
                        40.400
                  90415435.639 6  21731416.578                    21731417.418
                        38.700
 125093305.653 5                  23804465.250
        35.500
                  95366771.250 6  22977886.578                    22977889.105
                        37.100
 107900235.966 8  84078001.05746  20532732.516                    20532734.734
        51.300          38.300
 119418944.664 7  93053773.82345  22724674.961                    22724680.758
        45.400          32.500
 119509330.640 7  93124057.63845  22741839.875                    22741846.539
        45.100          33.000
 117796994.835 7  91789871.87544  22416030.250                    22416035.809
        44.300          29.400
 123234165.553 6  96026703.73244  23450695.719                    23450702.371
        41.400          25.900
 121374744.236 7  94577733.37645  23096844.172                    23096848.086
        45.200          33.700
 116777804.100 7  90995727.45644  22222083.367                    22222086.168
        42.800          26.800
 18  3 13 15  7 48.0000000  0 20R01G19G22G25R08R10R09R16R17R18R19G31
                                R02G12G06G03G32G24G17G14
                  85994158.704 6  20683276.672                    20683280.695
                        37.300
 114214455.249 7  88998279.75945  21734288.086                    21734289.395
        46.300          33.700
 121967031.178 7  95039242.80044  23209553.305                    23209554.012
        43.200          28.500
 117024892.716 7  91188168.24045  22269077.008                    22269083.281
        46.900          30.500
                  91525863.366 6  21975183.008                    21975184.930
                        37.100
                  86708280.383 5  20913750.031                    20913753.875
                        35.400
                  81053535.265 6  19515501.148                    19515500.820
                        41.200
                  94053219.316 4  22637520.750                    22637521.578
                        26.600
                  91398649.175 6  21960025.406                    21960027.273
                        41.900
                  82370820.396 6  19839685.445                    19839686.969
                        40.500
                  90412697.459 6  21730758.219                    21730758.449
                        38.700
 125090274.036 5                  23803887.305
        35.200
                  95363970.954 6  22977211.156                    22977214.453
                        37.900
 107900342.434 8  84078084.02546  20532752.828                    20532755.512
        51.300          38.300
 119416868.638 7  93052156.13545  22724279.930                    22724285.430
        45.500          32.800
 119508926.757 7  93123742.91145  22741763.180                    22741769.375
        44.600          33.100
 117799065.018 7  91791485.00944  22416424.211                    22416429.621
        43.800          29.900
 123238119.124 6  96029784.43844  23451448.836                    23451454.461
        41.000          26.400
 121377807.360 7  94580120.23645  23097426.875                    23097431.203
        45.600          33.700
 116777808.546 7  90995730.93644  22222084.406                    22222087.145
        42.300          27.000
 18  3 13 15  7 49.0000000  0 20R01G19G22G25R08R10R09R16R17R18R19G31
                                R02G12G06G03G32G24G17G14
                  85994487.908 6  20683356.406                    20683359.738
                        37.200
 114216727.233 7  89000050.14045  21734719.852                    21734721.465
        46.600          34.300
 121968069.091 7  95040051.57044  23209751.008                    23209751.520
        43.200          27.200
 117022357.115 7  91186192.46745  22268594.828                    22268600.809
        46.800          31.400
                  91528897.385 6  21975911.789                    21975913.297
                        37.600
                  86706010.451 5  20913202.227                    20913206.480
                        35.400
                  81054596.476 6  19515757.234                    19515756.473
                        40.900
                  94056928.099 4  22638412.023                    22638413.793
                        25.400
                  91401886.458 6  21960802.734                    21960804.438
                        41.400
                  82371171.491 6  19839770.094                    19839771.672
                        40.400
                  90409959.593 6  21730100.148                    21730100.688
                        38.900
 125087242.680 5                  23803310.805
        35.400
                  95361170.981 6  22976537.445                    22976539.328
                        37.800
 107900449.616 8  84078167.54546  20532773.086                    20532775.680
        51.300          38.400
 119414793.095 7  93050538.81145  22723885.344                    22723890.613
        45.800          33.100
 119508523.550 7  93123428.71745  22741686.297                    22741692.855
        44.500          33.400
 117801135.801 7  91793098.60944  22416818.398                    22416823.398
        43.600          28.400
 123242072.944 6  96032865.33443  23452200.648                    23452207.051
        41.300          23.200
 121380870.892 7  94582507.40145  23098010.047                    23098013.793
        45.200          33.900
 116777813.615 7  90995734.87444  22222084.820                    22222088.137
        42.700          26.900
 18  3 13 15  7 50.0000000  0 20R01G19G22G25R08R10R09R16R17R18R19G31
                                R02G12G06G03G32G24G17G14
                  85994817.864 6  20683435.859                    20683439.102
                        37.300
 114218999.900 7  89001821.04945  21735152.672                    21735154.215
        46.400          34.200
 121969107.639 7  95040860.83044  23209948.492                    23209949.508
        43.500          29.400
 117019821.990 7  91184217.06045  22268112.156                    22268118.477
        46.600          30.800
                  91531931.882 6  21976641.695                    21976642.023
                        37.400
                  86703740.968 5  20912654.930                    20912659.676
                        35.100
                  81055658.355 6  19516012.063                    19516012.387
                        41.000
                  94060637.063 4  22639304.703                    22639306.484
                        26.300
                  91405124.145 6  21961580.656                    21961582.445
                        41.500
                  82371523.311 6  19839854.133                    19839856.184
                        40.500
                  90407222.131 6  21729441.922                    21729442.797
                        38.900
 125084211.633 5                  23802733.898
        35.100
                  95358371.304 6  22975861.531                    22975864.793
                        37.200
 107900557.521 8  84078251.63846  20532793.820                    20532796.000
        51.300          38.300
 119412718.097 7  93048921.90445  22723490.094                    22723495.793
        45.700          33.000
 119508121.045 7  93123115.08545  22741609.773                    22741616.359
        44.300          33.100
 117803207.244 7  91794712.72244  22417212.578                    22417217.941
        44.200          29.300
 123246027.104 6  96035946.49844  23452953.508                    23452959.320
        41.500          24.300
 121383934.843 7  94584894.90245  23098593.406                    23098597.250
        45.400          34.300
 116777819.404 7  90995739.37644  22222085.898                    22222089.215
        42.200          26.500
 18  3 13 15  7 51.0000000  0 20R01G19G22G25R08R10R09R16R17R18R19G31
                                R02G12G06G03G32G24G17G14
                  85995148.589 6  20683514.461                    20683518.348
                        36.900
 114221273.256 7  89003592.48945  21735584.977                    21735586.656
        46.300          34.200
 121970146.837 7  95041670.59944  23210146.172                    23210146.637
        43.400          28.100
 117017287.351 7  91182242.02845  22267629.891                    22267635.969
        47.000          31.600
                  91534966.882 6  21977371.078                    21977370.813
                        37.900
                  86701471.915 5  20912108.672                    20912111.883
                        35.400
                  81056720.903 6  19516268.414                    19516268.168
                        40.900
                  94064346.312 4  22640198.203                    22640198.922
                        28.200
                  91408362.263 6  21962358.305                    21962360.555
                        41.900
                  82371875.873 6  19839939.680                    19839941.027
                        40.500
                  90404485.054 6  21728784.773                    21728784.773
                        38.800
 125081180.918 5                  23802157.992
        35.200
                  95355571.946 6  22975187.000                    22975190.613
                        37.900
 107900666.172 8  84078336.29846  20532814.398                    20532817.066
        51.300          38.100
 119410643.632 7  93047305.41445  22723095.391                    22723101.113
        45.800          33.100
 119507719.250 7  93122801.99745  22741533.359                    22741539.820
        44.600          32.200
 117805279.322 7  91796327.33244  22417607.156                    22417612.129
        44.400          29.300
 123249981.535 6  96039027.88244  23453705.625                    23453711.828
        41.100          25.000
 121386999.242 7  94587282.75345  23099176.359                    23099180.629
        45.500          33.600
 116777825.846 6  90995744.39544  22222087.227                    22222090.531
        41.600          25.900
 18  3 13 15  7 52.0000000  0 20R01G19G22G25R08R10R09R16R17R18R19G31
                                R02G12G06G03G32G24G17G14
                  85995480.064 6  20683594.219                    20683598.172
                        37.400
 114223547.266 7  89005364.43645  21736017.734                    21736019.480
        46.400          34.400
 121971186.695 7  95042480.88744  23210344.148                    23210344.875
        43.600          28.900
 117014753.182 7  91180267.36045  22267147.664                    22267153.926
        47.200          31.200
                  91538002.351 6  21978098.422                    21978099.391
                        37.400
                  86699203.325 6  20911560.594                    20911564.496
                        36.200
                  81057784.125 6  19516523.742                    19516524.340
                        40.900
                  94068055.699 4  22641090.219                    22641092.031
                        27.000
                  91411600.811 7  21963136.867                    21963138.695
                        42.200
                  82372229.188 6  19840024.750                    19840026.055
                        40.500
                  90401748.371 6  21728127.117                    21728127.527
                        38.700
 125078150.484 5                  23801581.289
        35.500
                  95352772.909 6  22974513.688                    22974515.590
                        37.400
 107900775.537 8  84078421.51746  20532834.969                    20532837.613
        51.600          38.800
 119408569.696 7  93045689.34045  22722700.297                    22722706.641
        45.400          32.200
 119507318.154 7  93122489.45445  22741457.086                    22741463.617
        44.800          32.700
 117807352.037 7  91797942.43844  22418001.414                    22418006.785
        44.700          29.300
 123253936.275 6  96042109.49944  23454458.648                    23454464.520
        41.300          24.100
 121390064.068 7  94589670.93945  23099759.109                    23099763.559
        44.900          34.100
 116777832.952 6  90995749.94344  22222087.930                    22222091.910
        41.400          26.000
 18  3 13 15  7 53.0000000  0 20R01G19G22G25R08R10R09R16R17R18R19G31
                                R02G12G06G03G32G24G17G14
                  85995812.264 6  20683674.039                    20683678.145
                        36.700
 114225821.924 7  89007136.89545  21736450.852                    21736452.539
        46.200          34.100
 121972227.149 7  95043291.62744  23210542.094                    23210542.336
        43.700          28.300
 117012219.449 7  91178293.03545  22266665.250                    22266671.613
        47.400          31.000
                  91541038.203 6  21978827.688                    21978828.969
                        36.500
                  86696935.151 6  20911013.641                    20911017.992
                        36.200
                  81058847.981 6  19516780.875                    19516779.930
                        41.200
                  94071765.321 4  22641982.828                    22641984.809
                        28.000
                  91414839.761 7  21963915.445                    21963917.191
                        42.000
                  82372583.199 6  19840109.672                    19840111.816
                        40.600
                  90399012.077 6  21727469.617                    21727469.453
                        38.300
 125075120.343 5                  23801004.445
        35.500
                  95349974.197 6  22973839.578                    22973840.984
                        37.100
 107900885.604 8  84078507.28646  20532856.336                    20532858.543
        51.800          38.400
 119406496.263 7  93044073.65545  22722306.188                    22722311.945
        45.800          33.200
 119506917.743 7  93122177.44445  22741380.398                    22741387.313
        45.000          32.600
 117809425.371 7  91799558.02544  22418395.695                    22418401.266
        43.800          28.900
 123257891.281 6  96045191.32044  23455211.234                    23455217.234
        41.000          25.300
 121393129.301 7  94592059.43245  23100342.750                    23100346.895
        45.800          34.400
 116777840.723 6  90995756.00344  22222089.641                    22222093.172
        41.800          26.000
 18  3 13 15  7 54.0000000  0 20R01G19G22G25R08R10R09R16R17R18R19G31
                                R02G12G06G03G32G24G17G14
                  85996145.171 6  20683754.305                    20683758.086
                        37.400
 114228097.223 7  89008909.85445  21736883.883                    21736885.418
        46.100          34.400
 121973268.211 7  95044102.84744  23210739.867                    23210741.207
        43.900          28.600
 117009686.123 7  91176319.02445  22266183.195                    22266189.191
        46.900          31.300
                  91544074.479 6  21979555.648                    21979557.168
                        36.900
                  86694667.381 5  20910466.727                    20910471.039
                        35.800
                  81059912.448 6  19517036.711                    19517036.500
                        41.200
                  94075475.124 4  22642875.500                    22642877.535
                        29.000
                  91418079.058 7  21964693.719                    21964695.145
                        42.300
                  82372937.931 6  19840195.188                    19840196.988
                        40.600
                  90396276.118 6  21726812.672                    21726811.973
                        38.600
 125072090.455 5                  23800427.492
        35.800
                  95347175.759 6  22973165.492                    22973167.355
                        37.400
 107900996.348 8  84078593.58546  20532877.070                    20532879.699
        51.200          38.600
 119404423.343 7  93042458.38045  22721911.820                    22721917.359
        45.700          33.400
 119506517.990 7  93121865.94445  22741304.477                    22741311.141
        44.900          33.300
 117811499.304 7  91801174.07844  22418790.031                    22418796.066
        43.400          28.900
 123261846.502 6  96048273.31144  23455963.695                    23455969.680
        41.300          24.500
 121396194.896 7  94594448.20845  23100926.664                    23100929.910
        46.300          34.400
 116777849.129 7  90995762.56944  22222091.211                    22222094.492
        42.300          25.300
 18  3 13 15  7 55.0000000  0 20R01G19G22G25R08R10R09R16R17R18R19G31
                                R02G12G06G03G32G24G17G14
                  85996478.830 6  20683834.641                    20683838.516
                        37.500
 114230373.170 7  89010683.31345  21737317.258                    21737318.742
        46.500          34.200
 121974309.871 7  95044914.53344  23210938.391                    23210939.117
        43.100          29.100
 117007153.250 7  91174345.36945  22265701.414                    22265707.539
        46.700          31.200
                  91547111.186 6  21980285.547                    21980286.285
                        37.400
                  86692400.058 5  20909920.438                    20909924.086
                        35.900
                  81060977.577 6  19517293.328                    19517292.363
                        41.100
                  94079185.052 4  22643767.117                    22643770.469
                        28.700
                  91421318.729 6  21965471.703                    21965473.555
                        41.700
                  82373293.362 6  19840281.063                    19840283.078
                        40.500
                  90393540.564 6  21726154.125                    21726154.918
                        38.600
 125069060.846 5                  23799851.141
        35.300
                  95344377.642 6  22972490.977                    22972492.895
                        37.000
 107901107.776 8  84078680.41346  20532898.281                    20532900.801
        51.400          38.700
 119402350.927 7  93040843.50745  22721517.125                    22721522.797
        45.700          33.000
 119506118.915 7  93121554.97345  22741228.508                    22741235.316
        44.600          33.000
 117813573.850 7  91802790.61144  22419185.570                    22419190.875
        43.700          28.600
 123265801.976 6  96051355.49944  23456716.523                    23456722.152
        41.000          24.300
 121399260.892 7  94596837.30045  23101509.633                    23101513.438
        46.400          33.500
 116777858.168 7  90995769.62944  22222093.602                    22222096.180
        43.000          27.300
 18  3 13 15  7 56.0000000  0 20R01G19G22G25R08R10R09R16R17R18R19G31
                                R02G12G06G03G32G24G17G14
                  85996813.197 6  20683915.063                    20683918.609
                        37.100
 114232649.743 7  89012457.26345  21737749.953                    21737751.992
        46.300          34.000
 121975352.155 7  95045726.70344  23211136.648                    23211137.430
        43.100          28.400
 117004620.807 7  91172372.03345  22265219.344                    22265225.555
        47.000          31.100
                  91550148.376 6  21981015.094                    21981015.871
                        38.000
                  86690133.128 6  20909373.352                    20909377.613
                        36.200
                  81062043.318 6  19517549.844                    19517549.703
                        41.400
                  94082895.220 4  22644661.352                    22644663.727
                        28.100
                  91424558.756 6  21966250.406                    21966251.945
                        41.900
                  82373649.501 6  19840366.617                    19840368.813
                        40.400
                  90390805.349 6  21725497.109                    21725497.598
                        38.400
 125066031.522 5                  23799275.633
        35.600
                  95341579.797 6  22971817.000                    22971819.113
                        38.400
 107901219.914 8  84078767.79246  20532919.922                    20532922.301
        50.800          38.900
 119400278.980 7  93039228.98445  22721123.031                    22721128.375
        46.000          34.300
 119505720.469 7  93121244.48345  22741152.773                    22741159.629
        45.200          32.500
 117815648.996 7  91804407.61744  22419580.242                    22419585.641
        43.300          28.300
 123269757.722 6  96054437.89944  23457469.219                    23457475.094
        41.200          24.700
 121402327.310 7  94599226.72645  23102093.414                    23102096.871
        45.200          33.800
 116777867.818 7  90995777.15644  22222096.008                    22222098.238
        43.200          26.700
 18  3 13 15  7 57.0000000  0 20R01G19G22G25R08R10R09R16R17R18R19G31
                                R02G12G06G03G32G24G17G14
                  85997148.324 6  20683995.328                    20683999.367
                        37.500
 114234927.016 7  89014231.75745  21738183.070                    21738185.676
        46.100          33.200
 121976395.108 7  95046539.40044  23211335.406                    23211336.035
        43.500          28.400
 117002088.848 7  91170399.07945  22264737.781                    22264743.594
        47.400          31.400
                  91553186.021 6  21981745.203                    21981745.508
                        37.600
                  86687866.639 5  20908826.328                    20908830.699
                        35.600
                  81063109.753 6  19517806.945                    19517806.547
                        41.400
                  94086605.582 4  22645555.266                    22645556.895
                        27.500
                  91427799.191 7  21967028.172                    21967030.391
                        42.200
                  82374006.356 6  19840453.195                    19840454.836
                        40.700
                  90388070.520 6  21724840.250                    21724840.078
                        38.300
 125063002.473 5                  23798698.805
        34.800
                  95338782.262 6  22971142.469                    22971145.141
                        37.900
 107901332.759 8  84078855.72346  20532940.969                    20532943.879
        51.000          38.700
 119398207.551 7  93037614.86445  22720728.813                    22720734.504
        45.400          32.800
 119505322.784 7  93120934.59745  22741077.477                    22741084.051
        44.900          32.600
 117817724.784 7  91806025.13044  22419975.375                    22419980.504
        44.000          28.800
 123273713.733 6  96057520.50543  23458222.227                    23458228.125
        41.300          22.600
 121405394.136 7  94601616.46945  23102676.859                    23102680.824
        45.300          32.800
 116777878.181 7  90995785.21644  22222097.781                    22222100.742
        43.400          27.100
 18  3 13 15  7 58.0000000  0 20R01G19G22G25R08R10R09R16R17R18R19G31
                                R02G12G06G03G32G24G17G14
                  85997484.204 6  20684076.070                    20684079.902
                        36.700
 114237204.961 7  89016006.78045  21738617.180                    21738619.008
        46.100          34.000
 121977438.659 7  95047352.55244  23211533.867                    23211534.602
        43.300          28.600
 116999557.340 7  91168426.46945  22264256.047                    22264261.648
        47.800          31.300
                  91556224.150 6  21982474.664                    21982474.832
                        37.800
                  86685600.582 5  20908279.945                    20908283.711
                        35.800
                  81064176.812 6  19518063.453                    19518063.582
                        41.400
                  94090316.112 4  22646449.180                    22646449.449
                        28.400
                  91431039.991 7  21967807.539                    21967809.355
                        42.400
                  82374363.957 6  19840538.906                    19840540.695
                        40.700
                  90385336.097 6  21724182.297                    21724182.914
                        38.300
 125059973.772 5                  23798121.984
        35.300
                  95335985.091 6  22970468.641                    22970470.621
                        38.400
 107901446.313 8  84078944.21246  20532962.648                    20532965.289
        51.400          38.600
 119396136.673 7  93036001.15445  22720334.977                    22720340.484
        45.600          33.200
 119504925.771 7  93120625.22845  22741001.859                    22741008.527
        44.700          33.100
 117819801.200 7  91807643.12744  22420370.414                    22420375.703
        44.300          28.700
 123277670.039 6  96060603.33844  23458974.906                    23458980.754
        41.700          24.200
 121408461.368 7  94604006.52545  23103260.883                    23103264.359
        45.300          33.100
 116777889.172 7  90995793.77144  22222099.352                    22222102.426
        43.600          26.000
 18  3 13 15  7 59.0000000  0 20R01G19G22G25R08R10R09R16R17R18R19G31
                                R02G12G06G03G32G24G17G14
                  85997820.858 6  20684157.242                    20684160.898
                        36.900
 114239483.559 7  89017782.31745  21739050.367                    21739052.613
        46.300          33.500
 121978482.863 7  95048166.21844  23211732.953                    23211733.578
        43.700          28.200
 116997026.305 8  91166454.22845  22263774.141                    22263780.492
        48.200          32.400
                  91559262.711 6  21983203.000                    21983203.988
                        37.800
                  86683334.957 6  20907733.422                    20907736.980
                        36.000
                  81065244.550 6  19518320.914                    19518320.219
                        41.400
                  94094026.882 4  22647341.258                    22647342.906
                        28.300
                  91434281.155 7  21968586.195                    21968588.254
                        42.200
                  82374722.310 6  19840625.359                    19840627.133
                        40.700
                  90382602.062 6  21723524.906                    21723525.379
                        38.300
 125056945.322 5                  23797545.836
        35.000
                  95333188.259 6  22969794.656                    22969797.227
                        38.600
 107901560.610 8  84079033.27546  20532984.297                    20532987.094
        51.300          38.400
 119394066.344 7  93034387.88945  22719941.000                    22719946.434
        45.800          33.400
 119504529.482 7  93120316.42445  22740925.992                    22740932.699
        45.200          33.000
 117821878.252 7  91809261.62544  22420765.820                    22420771.156
        43.900          29.500
 123281626.623 7  96063686.39743  23459727.680                    23459734.117
        42.200          23.600
 121411529.077 7  94606396.96245  23103844.141                    23103848.070
        45.800          34.200
 116777900.854 7  90995802.87144  22222101.758                    22222104.395
        43.000          26.600
 18  3 13 15  8  0.0000000  0 20R01G19G22G25R08R10R09R16R17R18R19G31
                                R02G12G06G03G32G24G17G14
                  85998158.198 6  20684238.336                    20684242.297
                        36.700
 114241762.809 7  89019558.36945  21739484.141                    21739485.707
        46.400          33.400
 121979527.691 7  95048980.36844  23211931.383                    23211931.926
        43.500          28.100
 116994495.712 7  91164482.32645  22263292.711                    22263298.707
        47.600          31.400
                  91562301.606 6  21983932.266                    21983934.152
                        37.700
                  86681069.704 6  20907186.805                    20907190.680
                        36.600
                  81066312.920 6  19518577.906                    19518577.531
                        41.200
                  94097737.832 4  22648235.016                    22648236.504
                        27.900
                  91437522.672 6  21969365.508                    21969366.785
                        41.600
                  82375081.415 6  19840711.664                    19840713.660
                        40.700
                  90379868.381 6  21722867.945                    21722868.457
                        38.600
 125053917.158 5                  23796970.867
        35.100
                  95330391.688 6  22969120.781                    22969123.336
                        38.400
 107901675.586 8  84079122.86746  20533006.125                    20533008.816
        50.800          38.600
 119391996.496 7  93032775.00045  22719546.648                    22719552.254
        46.300          32.800
 119504133.862 7  93120008.15745  22740850.727                    22740857.906
        45.200          32.500
 117823955.893 7  91810880.57144  22421161.016                    22421166.387
        43.300          28.600
 123285583.477 7  96066769.66044  23460480.500                    23460486.715
        42.400          24.700
 121414597.138 7  94608787.66145  23104427.992                    23104431.910
        45.200          34.700
 116777913.161 7  90995812.45844  22222103.109                    22222106.855
        43.000          24.800
 18  3 13 15  8  1.0000000  0 20R01G19G22G25R08R10R09R16R17R18R19G31
                                R02G12G06G03G32G24G17G14
                  85998496.291 6  20684320.188                    20684323.633
                        37.400
 114244042.673 7  89021334.89045  21739918.188                    21739919.941
        46.600          33.200
 121980573.130 7  95049795.00744  23212130.148                    23212130.738
        43.700          29.800
 116991965.551 7  91162510.76545  22262811.242                    22262817.414
        47.900          31.900
                  91565340.965 6  21984662.898                    21984663.070
                        37.000
                  86678804.876 6  20906640.742                    20906644.746
                        36.500
                  81067381.934 6  19518835.172                    19518835.160
                        41.100
                  94101448.969 4  22649127.711                    22649129.617
                        28.400
                  91440764.572 7  21970143.914                    21970145.742
                        42.000
                  82375441.228 6  19840798.867                    19840800.434
                        40.600
                  90377135.040 6  21722211.133                    21722211.477
                        38.400
 125050889.251 5                  23796393.695
        34.800
                  95327595.445 5  22968446.828                    22968449.770
                        34.200
 107901791.270 8  84079213.01846  20533028.398                    20533030.957
        51.000          38.300
 119389927.155 7  93031162.50245  22719153.484                    22719158.805
        46.100          33.200
 119503738.912 7  93119700.40445  22740775.672                    22740782.195
        44.900          33.100
 117826034.156 7  91812500.00944  22421556.438                    22421561.879
        43.900          28.200
 123289540.537 7  96069853.08544  23461233.273                    23461240.066
        42.600          25.700
 121417665.607 7  94611178.68245  23105011.781                    23105015.914
        45.500          34.200
 116777926.123 7  90995822.56844  22222106.750                    22222109.832
        42.700          26.900
 18  3 13 15  8  2.0000000  0 20R01G19G22G25R08R10R09R16R17R18R19G31
                                R02G12G06G03G32G24G17G14
                  85998835.113 6  20684401.164                    20684405.148
                        37.500
 114246323.262 7  89023111.97645  21740351.883                    21740353.555
        46.300          34.200
 121981619.187 7  95050610.12844  23212329.211                    23212330.016
        44.300          28.900
 116989435.897 7  91160539.59945  22262329.898                    22262336.203
        47.500          31.500
                  91568380.796 6  21985392.516                    21985393.363
                        37.000
                  86676540.443 6  20906095.000                    20906098.750
                        36.300
                  81068451.607 6  19519092.773                    19519092.523
                        41.200
                  94105160.344 4  22650020.945                    22650023.168
                        28.700
                  91444006.894 6  21970923.633                    21970924.645
                        38.900
                  82375801.770 6  19840885.477                    19840887.063
                        40.500
                  90374402.118 6  21721553.203                    21721554.570
                        38.600
 125047861.665 5                  23795817.180
        33.900
                  95324799.642 5  22967773.297                    22967776.203
                        35.000
 107901907.669 8  84079303.72146  20533050.367                    20533053.230
        50.900          38.200
 119387858.320 7  93029550.39645  22718759.328                    22718765.199
        46.500          33.200
 119503344.671 7  93119393.20545  22740700.758                    22740707.215
        44.300          32.900
 117828113.040 7  91814119.91444  22421952.320                    22421957.328
        44.000          29.500
 123293497.911 7  96072936.75244  23461986.953                    23461992.602
        42.400          26.000
 121420734.495 7  94613570.03445  23105596.188                    23105599.715
        45.900          33.800
 116777939.739 7  90995833.19044  22222109.391                    22222111.941
        42.300          26.800
 18  3 13 15  8  3.0000000  0 20R01G19G22G25R08R10R09R16R17R18R19G31
                                R02G12G06G03G32G24G17G14
                  85999174.696 6  20684482.727                    20684486.703
                        37.300
 114248604.506 7  89024889.57645  21740786.172                    21740787.832
        46.200          33.400
 121982665.889 7  95051425.75444  23212528.313                    23212528.766
        44.700          29.100
 116986906.695 7  91158568.77645  22261848.688                    22261854.758
        47.600          31.400
                  91571421.136 6  21986122.883                    21986123.195
                        36.400
                  86674276.442 6  20905548.047                    20905552.281
                        36.400
                  81069521.961 6  19519350.414                    19519350.352
                        41.200
                  94108871.870 4  22650914.625                    22650916.199
                        28.400
                  91447249.716 6  21971701.734                    21971703.727
                        39.000
                  82376163.042 6  19840972.148                    19840974.055
                        40.500
                  90371669.575 6  21720897.609                    21720897.961
                        38.600
 125044834.352 5                  23795241.539
        34.800
                  95322004.024 5  22967098.891                    22967102.121
                        34.800
 107902024.798 8  84079394.99646  20533072.773                    20533075.363
        50.800          38.400
 119385790.010 7  93027938.69445  22718366.555                    22718371.430
        45.800          33.100
 119502951.151 7  93119086.57745  22740625.953                    22740632.512
        45.200          34.400
 117830192.584 7  91815740.34144  22422347.898                    22422353.379
        43.200          29.500
 123297455.562 7  96076020.63144  23462740.117                    23462746.301
        42.000          25.600
 121423803.780 7  94615961.68845  23106180.250                    23106183.703
        45.400          34.200
 116777954.058 7  90995844.35044  22222111.938                    22222114.762
        42.200          26.900
 18  3 13 15  8  4.0000000  0 20R01G19G22G25R08R10R09R16R17R18R19G31
                                R02G12G06G03G32G24G17G14
                  85999515.038 6  20684565.063                    20684569.074
                        37.100
 114250886.466 7  89026667.73445  21741220.375                    21741221.816
        46.400          34.700
 121983713.293 7  95052241.92744  23212727.766                    23212728.781
        42.900          27.700
 116984377.994 7  91156598.35445  22261367.555                    22261373.422
        47.400          31.200
                  91574461.992 6  21986852.234                    21986853.020
                        36.600
                  86672012.903 6  20905002.672                    20905006.301
                        36.500
                  81070592.969 6  19519608.406                    19519608.148
                        41.500
                  94112583.641 4  22651807.883                    22651809.918
                        28.700
                  91450492.792 6  21972481.727                    21972483.031
                        37.800
                  82376525.056 6  19841059.984                    19841061.637
                        40.700
                  90368937.430 6  21720241.172                    21720241.301
                        38.200
 125041807.379 5                  23794665.867
        34.700
                  95319208.708 5  22966426.156                    22966429.301
                        35.900
 107902142.665 8  84079486.83846  20533095.164                    20533097.910
        50.800          38.100
 119383722.271 7  93026327.42645  22717972.742                    22717978.270
        46.200          33.700
 119502558.308 7  93118780.46745  22740551.586                    22740557.816
        45.500          33.400
 117832272.747 7  91817361.25044  22422743.703                    22422748.602
        43.300          29.300
 123301413.487 6  96079104.72844  23463493.180                    23463498.984
        40.600          25.300
 121426873.489 7  94618353.66745  23106764.266                    23106768.156
        45.800          34.000
 116777969.027 7  90995856.02144  22222114.891                    22222117.668
        42.000          26.000
 18  3 13 15  8  5.0000000  0 20R01G19G22G25R08R10R09R16R17R18R19G31
                                R02G12G06G03G32G24G17G14
                  85999856.134 6  20684647.180                    20684651.000
                        36.800
 114253169.127 7  89028446.43144  21741655.141                    21741656.477
        43.600          28.100
 121984761.284 7  95053058.55944  23212927.164                    23212927.828
        42.200          27.900
 116981849.746 7  91154628.28245  22260886.320                    22260892.270
        47.200          30.800
                  91577503.262 6  21987582.516                    21987583.500
                        36.300
                  86669749.774 5  20904456.625                    20904460.191
                        35.600
                  81071664.649 6  19519866.242                    19519866.191
                        41.400
                  94116295.634 4  22652701.828                    22652703.117
                        27.800
                  91453736.334 7  21973261.523                    21973262.684
                        43.000
                  82376887.855 6  19841147.375                    19841149.500
                        40.700
                  90366205.613 6  21719585.164                    21719584.813
                        38.300
 125038780.725 5                  23794089.492
        35.400
                  95316413.731 6  22965753.148                    22965755.898
                        38.900
 107902261.231 8  84079579.23946  20533117.703                    20533120.324
        50.800          38.500
 119381655.023 7  93024716.53445  22717579.023                    22717585.180
        46.100          32.100
 119502166.191 7  93118474.91445  22740476.469                    22740483.391
        45.000          33.300
 117834353.581 7  91818982.67544  22423139.820                    22423144.664
        43.900          29.500
 123305371.711 6  96082189.06544  23464246.156                    23464252.090
        41.000          24.500
 121429943.889 6  94620746.19344  23107348.641                    23107352.191
        41.000          27.000
 116777984.693 7  90995868.21644  22222117.953                    22222120.488
        42.100          27.200
 18  3 13 15  8  6.0000000  0 20R01G19G22G25R08R10R09R16R17R18R19G31
                                R02G12G06G03G32G24G17G14
                  86000197.981 6  20684728.938                    20684732.594
                        37.800
 114255452.486 7  89030225.68044  21742088.898                    21742090.996
        42.400          24.800
 121985809.923 7  95053875.68244  23213126.852                    23213127.359
        42.600          27.800
 116979321.958 7  91152658.57145  22260405.195                    22260411.258
        46.700          30.500
                  91580544.991 6  21988313.539                    21988313.598
                        36.700
                  86667487.071 5  20903910.781                    20903914.477
                        35.600
                  81072736.962 6  19520124.695                    19520125.035
                        41.000
                                  22653595.477

                  91456980.187 7  21974040.492                    21974042.457
                        42.000
                  82377251.423 6  19841233.820                    19841236.348
                        39.800
                  90363474.178 6  21718927.977                    21718928.160
                        38.800
 125035754.269 5                  23793513.422
        33.400
                  95313619.033 6  22965079.305                    22965082.266
                        37.900
 107902380.529 8  84079672.19846  20533140.328                    20533143.027
        50.700          38.000
 119379588.377 7  93023106.11944  22717186.086                    22717191.566
        44.100          29.000
 119501774.766 7  93118169.91045  22740402.203                    22740408.750
        46.000          32.900
 117836435.025 7  91820604.57744  22423535.773                    22423541.145
        43.700          29.000
 123309330.191 6  96085273.59744  23465000.008                    23465005.363
        41.100          25.600
 121433014.287 7  94623138.72744  23107932.805                    23107936.453
        42.200          26.700
 116778000.964 7  90995880.88344  22222121.484                    22222123.777
        42.600          27.300
 18  3 13 15  8  7.0000000  0 18R01G19G22G25R08R10R09R17R18R19G31R02
                                G12G03G32G24G17G14
                  86000540.566 6  20684811.461                    20684815.574
                        37.500
 114257736.166 7  89032005.18045  21742523.867                    21742525.207
        45.900          32.700
 121986859.139 7  95054693.26344  23213326.383                    23213326.930
        43.000          27.000
 116976794.631 7  91150689.22345  22259924.359                    22259930.367
        47.400          30.900
                  91583587.076 6  21989042.836                    21989043.770
                        37.200
                  86665224.798 5  20903365.531                    20903369.141
                        35.500
                  81073809.877 6  19520382.609                    19520382.598
                        40.900
                  91460224.414 6  21974819.734                    21974821.102
                        40.200
                  82377615.634 6  19841322.188                    19841324.340
                        38.700
                  90360743.150 6  21718272.133                    21718271.730
                        36.500
 125032728.077 5                  23792937.391
        33.600
                  95310824.724 6  22964406.328                    22964408.488
                        38.600
 107902500.475 8  84079765.65746  20533163.133                    20533166.047
        50.800          37.900
 119501384.038 7  93117865.42945  22740327.906                    22740334.734
        45.800          33.200
 117838517.047 7  91822226.94344  22423931.938                    22423937.172
        44.500          28.900
 123313288.963 6  96088358.34144  23465752.578                    23465758.785
        40.700          25.300
 121436085.292 7  94625531.72245  23108517.172                    23108521.270
        44.900          32.400
 116778017.899 7  90995894.07844  22222123.852                    22222126.586
        42.600          26.800
 18  3 13 15  8  8.0000000  0 19R01G19G22G25R08R10R09R17R18R19G31R02
                                G12G06G03G32G24G17G14
                  86000883.845 6  20684894.227                    20684898.559
                        37.600
 114260020.689 7  89033785.35245  21742958.422                    21742960.078
        45.800          31.200
 121987908.993 7  95055511.35544  23213526.242                    23213526.668
        43.400          29.600
 116974267.762 8  91148720.23045  22259443.742                    22259449.441
        48.500          31.000
                  91586629.650 6  21989774.688                    21989773.992
                        36.700
                  86662962.921 6  20902819.656                    20902823.309
                        36.700
                  81074883.465 6  19520641.578                    19520641.281
                        40.100
                  91463469.112 6  21975598.625                    21975600.895
                        40.700
                  82377980.623 6  19841409.828                    19841411.984
                        39.500
                  90358012.650 5  21717615.375                    21717615.508
                        33.800
 125029702.335 5                  23792361.820
        33.800
                  95308030.698 6  22963733.703                    22963735.742
                        37.300
 107902621.165 8  84079859.71345  20533186.297                    20533189.340
        48.600          34.400
 119375456.61216  93019886.51853  22716399.391                    22716405.000
        39.200          20.900
 119500993.941 7  93117561.42645  22740253.492                    22740259.992
        46.800          34.400
 117840599.670 7  91823849.76944  22424328.422                    22424333.473
        44.200          29.200
 123317248.032 6  96091443.29743  23466506.211                    23466511.867
        38.200          21.300
 121439156.684 7  94627924.99645  23109101.383                    23109105.410
        43.200          31.100
 116778035.482 7  90995907.77944  22222126.734                    22222130.547
        43.600          27.300
 18  3 13 15  8  9.0000000  0 19R01G19G22G25R08R10R09R17R18R19G31R02
                                G12G06G03G32G24G17G14
                  86001227.912 6  20684977.180                    20684980.730
                        38.100
 114262305.912 7  89035566.07444  21743393.508                    21743395.234
        44.000          28.800
 121988959.468 7  95056329.92744  23213725.531                    23213727.012
        43.200          29.100
 116971741.325 7  91146751.59544  22258963.000                    22258968.734
        47.300          29.900
                  91589672.751 6  21990503.875                    21990505.266
                        38.100
                  86660701.468 6  20902274.367                    20902277.652
                        36.300
                  81075957.705 6  19520899.859                    19520899.891
                        40.900
                  91466714.187 6  21976378.398                    21976379.969
                        41.100
                  82378346.315 6  19841499.031                    19841500.680
                        38.500
                  90355282.298 5  21716959.477                    21716959.109
                        35.500
 125026676.794 5                  23791786.188
        33.700
                  95305237.016 6  22963060.148                    22963062.551
                        36.900
 107902742.586 8  84079954.31845  20533209.203                    20533212.160
        49.700          34.800
 119373391.406 6  93018277.22043  22716006.766                    22716012.617
        40.400          20.400
 119500604.540 7  93117257.97845  22740179.281                    22740185.797
        46.300          33.500
 117842682.923 7  91825473.07544  22424724.563                    22424729.961
        45.300          27.200
 123321207.369 6  96094528.48343  23467259.133                    23467265.613
        36.800          20.100
 121442228.367 7  94630318.52345  23109686.250                    23109689.633
        46.300          32.800
 116778053.728 6  90995922.01844  22222130.055                    22222133.504
        41.500          26.200
 18  3 13 15  8 10.0000000  0 19R01G19G22G25R08R10R09R17R18R19G31R02
                                G12G06G03G32G24G17G14
                  86001572.702 6  20685059.406                    20685063.996
                        37.600
 114264591.755 7  89037347.26844  21743828.445                    21743829.820
        44.700          29.700
 121990010.571 7  95057148.97644  23213925.422                    23213926.430
        42.800          29.100
 116969215.396 7  91144783.35844  22258481.922                    22258488.344
        46.600          29.500
                  91592716.182 6  21991236.406                    21991236.258
                        37.700
                  86658440.403 6  20901729.156                    20901732.219
                        36.800
                  81077032.582 6  19521158.602                    19521158.406
                        39.800
                  91469959.636 6  21977158.977                    21977160.266
                        41.900
                  82378712.736 6  19841586.742                    19841588.660
                        39.900
                  90352552.470 5  21716302.625                    21716303.648
                        33.400
 125023651.647 5                  23791210.203
        32.300
                  95302443.655 6  22962387.648                    22962389.746
                        37.200
 107902864.707 8  84080049.46245  20533232.617                    20533235.398
        48.600          33.400
 119371326.774 6  93016668.42043  22715613.906                    22715619.672
        36.000          21.700
 119500215.849 7  93116955.09545  22740105.391                    22740112.051
        46.800          33.100
 117844766.803 7  91827096.87944  22425121.305                    22425126.504
        45.200          25.700
 123325166.845 6  96097613.82843  23468012.398                    23468018.652
        37.500          18.300
 121445300.591 8  94632712.44646  23110270.891                    23110274.273
        48.500          36.000
 116778072.633 7  90995936.73744  22222133.813                    22222137.180
        42.400          26.400
 18  3 13 15  8 11.0000000  0 18R01G19G22G25R08R10R09R17R18G31R02G12
                                G06G03G32G24G17G14
                  86001918.201 6  20685143.047                    20685146.840
                        36.600
 114266878.349 7  89039129.02444  21744263.727                    21744264.598
        43.300          26.200
 121991062.344 7  95057968.52844  23214126.133                    23214126.715
        44.300          28.500
 116966689.880 7  91142815.42245  22258001.398                    22258007.660
        47.300          30.700
                  91595760.137 5  21991965.656                    21991966.551
                        35.900
                  86656179.807 5  20901183.484                    20901187.488
                        35.500
                  81078108.129 6  19521417.172                    19521417.574
                        38.700
                  91473205.423 7  21977939.414                    21977940.668
                        43.100
                  82379079.948 6  19841674.055                    19841676.676
                        36.400
 125020626.641 5                  23790635.086
        33.600
                  95299650.600 6  22961714.344                    22961716.551
                        38.100
 107902987.499 8  84080145.15645  20533256.391                    20533258.996
        48.400          34.300
 119369262.333 6  93015059.78843  22715220.453                    22715226.680
        36.700          19.600
 119499827.895 7  93116652.80145  22740031.563                    22740038.156
        45.000          32.600
 117846851.276 7  91828721.13844  22425517.820                    22425523.121
        44.700          27.600
 123329126.741 6  96100699.42543  23468767.047                    23468772.430
        38.900          18.600
 121448373.226 7  94635106.68745  23110855.398                    23110859.078
        46.500          32.900
 116778092.200 7  90995951.98444  22222137.797                    22222140.875
        43.200          26.800
 18  3 13 15  8 12.0000000  0 18R01G19G22G25R08R10R09R17R18G31R02G12
                                G06G03G32G24G17G14
                  86002264.541 6  20685226.461                    20685230.121
                        36.500
 114269165.800 7  89040911.45543  21744699.453                    21744700.656
        42.900          23.600
 121992114.746 7  95058788.58344  23214326.648                    23214326.922
        44.100          28.300
 116964164.869 7  91140847.87345  22257521.305                    22257526.855
        47.600          31.400
                  91598804.563 6  21992697.172                    21992697.406
                        36.400
                  86653919.673 6  20900638.156                    20900642.004
                        36.500
                  81079184.374 7  19521677.133                    19521677.105
                        42.000
                  91476451.606 7  21978719.070                    21978720.738
                        42.100
                  82379447.890 6  19841763.125                    19841765.723
                        39.200
 125017601.96915                  23790058.773
        33.000
                  95296857.873 6  22961040.883                    22961043.441
                        38.600
 107903111.087 8  84080241.46146  20533279.586                    20533282.512
        51.100          39.300
 119367197.97516                  22714828.594
        38.700
 119499440.547 7  93116350.98545  22739958.141                    22739964.500
        45.100          32.000
 117848936.477 7  91830345.96044  22425914.492                    22425919.898
        44.600          28.800
 123333086.771 6  96103785.15543  23469520.625                    23469526.207
        41.600          21.800
 121451446.305 7  94637501.29144  23111440.195                    23111444.266
        44.300          28.800
 116778112.408 7  90995967.71544  22222142.195                    22222144.902
        43.100          27.000
 18  3 13 15  8 13.0000000  0 18R01G19G22G25R08R10R09R17R18G31R02G12
                                G06G03G32G24G17G14
                  86002611.566 6  20685309.367                    20685314.047
                        37.500
 114271453.489 7  89042694.06345  21745134.078                    21745135.938
        44.100          30.700
 121993167.694 7  95059609.06044  23214526.398                    23214527.602
        43.900          29.400
 116961640.317 7  91138880.68645  22257040.570                    22257046.273
        47.800          30.900
                  91601849.362 5  21993428.781                    21993428.230
                        35.900
                  86651659.927 6  20900093.750                    20900097.527
                        36.600
                  81080261.231 7  19521935.820                    19521935.660
                        42.400
                  91479698.220 6  21979497.641                    21979500.852
                        40.700
                  82379816.502 7  19841852.305                    19841854.398
                        42.300
 125014577.617 5                  23789483.680
        33.400
                  95294065.465 6  22960368.203                    22960370.613
                        38.500
 107903235.302 8  84080338.25746  20533303.242                    20533305.629
        51.500          38.900
 119365135.059 7                  22714436.039
        46.600
 119499053.977 7  93116049.77245  22739884.828                    22739891.172
        46.400          33.700
 117851022.222 7  91831971.21444  22426311.672                    22426317.195
        44.600          29.200
 123337047.130 7  96106871.16643  23470273.320                    23470279.504
        42.000          22.900
 121454519.643 7  94639896.10744  23112025.266                    23112029.133
        43.100          25.700
 116778133.292 7  90995983.99744  22222146.461                    22222148.820
        43.300          26.100
 18  3 13 15  8 14.0000000  0 18R01G19G22G25R08R10R09R17R18G31R02G12
                                G06G03G32G24G17G14
                  86002959.330 6  20685392.695                    20685396.766
                        37.300
 114273741.810 7  89044477.18445  21745569.703                    21745570.949
        43.200          30.400
 121994221.250 7  95060430.00744  23214727.078                    23214727.887
        44.300          28.700
 116959116.212 7  91136913.85445  22256560.688                    22256566.070
        47.800          31.400
                  91604894.606 6  21994160.289                    21994159.801
                        36.700
                  86649400.619 6  20899548.820                    20899552.293
                        36.200
                  81081338.729 7  19522195.172                    19522195.500
                        42.000
                  91482945.201 6  21980278.406                    21980280.176
                        41.100
                  82380185.859 6  19841940.992                    19841943.457
                        41.800
 125011553.521 5                  23788908.070
        32.300
                  95291273.312 6  22959695.266                    22959697.875
                        39.700
 107903360.232 8  84080435.61346  20533326.703                    20533329.082
        51.400          39.200
 119363072.594 7                  22714043.664
        45.800
 119498668.055 7  93115749.05845  22739810.883                    22739817.492
        46.400          33.400
 117853108.596 7  91833596.95944  22426708.656                    22426713.980
        45.300          29.600
 123341007.798 7  96109957.41944  23471027.523                    23471033.094
        42.100          24.400
 121457593.694 7  94642291.50244  23112609.797                    23112614.152
        42.000          25.800
 116778154.791 7  90996000.76544  22222149.969                    22222152.496
        43.500          26.600
 18  3 13 15  8 15.0000000  0 20R01G19G22G25R08R10R09R16R17R18R19G31
                                R02G12G06G03G32G24G17G14
                  86003307.854 6  20685477.445                    20685480.777
                        37.700
 114276031.005 7  89046260.99745  21746005.125                    21746007.129
        45.900          34.200
 121995275.510 7  95061251.51644  23214927.391                    23214928.680
        44.500          28.000
 116956592.602 7  91134947.39945  22256079.820                    22256085.875
        47.100          31.900
                  91607940.323 6  21994890.273                    21994890.902
                        37.500
                  86647141.752 5  20899003.180                    20899007.543
                        35.800
                  81082416.904 6  19522455.148                    19522454.609
                        41.300
                                  22661638.055

                  91486192.560 6  21981059.695                    21981059.750
                        41.400
                  82380555.968 6  19842030.914                    19842032.906
                        41.100
                  90338908.43216  21713024.383                    21713023.516
                        38.600
 125008529.698 5                  23788332.445
        33.300
                  95288481.539 6  22959022.203                    22959024.512
                        38.300
 107903485.937 8  84080533.57146  20533350.859                    20533353.410
        51.700          39.400
 119361010.706 7                  22713651.328
        45.200
 119498282.830 7  93115448.87545  22739737.703                    22739744.316
        45.700          34.500
 117855195.613 7  91835223.21144  22427106.031                    22427110.910
        44.700          29.100
 123344968.748 7  96113043.86943  23471781.469                    23471787.066
        42.200          23.800
 121460668.013 7  94644687.07944  23113194.992                    23113199.027
        43.200          27.700
 116778177.040 7  90996018.11144  22222154.266                    22222157.074
        43.200          26.400
 18  3 13 15  8 16.0000000  0 20R01G19G22G25R08R10R09R16R17R18R19G31
                                R02G12G06G03G32G24G17G14
                  86003657.122 6  20685561.352                    20685565.289
                        37.900
 114278320.826 7  89048045.28345  21746440.797                    21746442.438
        45.700          33.500
 121996330.384 7  95062073.50444  23215128.188                    23215129.750
        43.300          29.400
 116954069.437 7  91132981.30645  22255599.367                    22255605.875
        47.000          31.200
                  91610986.457 6  21995621.883                    21995622.328
                        36.100
                  86644883.310 5  20898459.227                    20898462.828
                        35.700
                  81083495.698 6  19522715.133                    19522714.270
                        41.400
                                  22662532.391

                  91489440.286 7  21981839.773                    21981840.637
                        42.100
                  82380926.831 6  19842119.391                    19842121.633
                        41.000
                  90336180.884 6  21712368.258                    21712368.504
                        38.300
 125005506.261 5                  23787757.141
        33.100
                  95285690.102 6  22958349.492                    22958352.629
                        38.900
 107903612.319 8  84080632.04546  20533374.984                    20533377.648
        51.100          39.400
 119358949.308 7                  22713258.820
        46.600
 119497898.314 7  93115149.25045  22739664.648                    22739670.816
        45.000          34.000
 117857283.275 7  91836849.96544  22427503.078                    22427508.609
        45.200          29.600
 123348929.940 7  96116130.50244  23472535.227                    23472540.824
        42.200          24.400
 121463742.704 7  94647082.94144  23113780.180                    23113784.738
        42.500          26.200
 116778199.928 7  90996035.94344  22222159.266                    22222161.512
        42.600          26.700
 18  3 13 15  8 17.0000000  0 20R01G19G22G25R08R10R09R16R17R18R19G31
                                R02G12G06G03G32G24G17G14
                  86004007.098 6  20685645.141                    20685648.875
                        36.900
 114280611.301 7  89049830.07345  21746876.648                    21746878.660
        46.700          35.000
 121997385.878 7  95062895.96144  23215329.359                    23215330.164
        42.600          28.100
 116951546.731 7  91131015.57045  22255119.938                    22255126.230
        47.300          31.400
                  91614033.084 6  21996353.836                    21996353.668
                        37.300
                  86642625.270 5  20897913.992                    20897918.207
                        35.300
                  81084575.143 6  19522974.820                    19522974.527
                        41.100
                                  22663426.016

                  91492688.379 7  21982619.617                    21982621.488
                        42.100
                  82381298.408 6  19842209.602                    19842211.844
                        40.800
                  90333453.677 6  21711712.422                    21711712.543
                        38.200
 125002483.049 5                  23787181.531
        32.600
                  95282898.970 6  22957677.555                    22957680.125
                        38.600
 107903739.410 8  84080731.07746  20533399.141                    20533401.852
        51.700          39.200
 119356888.384 7                  22712866.703
        45.600
 119497514.493 7  93114850.16045  22739591.461                    22739598.090
        45.200          33.600
 117859371.525 7  91838477.16844  22427900.102                    22427905.707
        45.000          28.100
 123352891.432 6  96119217.37343  23473288.602                    23473294.727
        41.600          23.500
 121466817.765 7  94649479.09344  23114365.461                    23114369.340
        43.500          28.800
 116778223.433 7  90996054.27144  22222163.180                    22222165.855
        42.900          27.100
 18  3 13 15  8 18.0000000  0 20R01G19G22G25R08R10R09R16R17R18R19G31
                                R02G12G06G03G32G24G17G14
                  86004357.842 6  20685729.000                    20685733.199
                        37.100
 114282902.409 7  89051615.35545  21747312.914                    21747314.234
        46.400          34.300
 121998441.985 7  95063718.89644  23215530.523                    23215531.180
        42.000          29.300
 116949024.470 7  91129050.18145  22254639.805                    22254645.820
        47.200          31.300
                  91617080.098 6  21997083.563                    21997084.891
                        36.200
                  86640367.639 5  20897369.313                    20897373.730
                        35.500
                  81085655.225 6  19523235.086                    19523234.738
                        41.100
                                  22664320.180

                  91495936.884 6  21983399.227                    21983402.262
                        41.200
                  82381670.716 6  19842299.039                    19842301.031
                        41.000
                  90330726.849 6  21711056.992                    21711057.371
                        38.600
 124999460.115 5                  23786606.789
        32.800
                  95280108.127 6  22957004.906                    22957007.273
                        38.300
 107903867.208 8  84080830.65246  20533423.438                    20533426.094
        50.700          39.000
 119354828.005 7  93003811.05655  22712474.680                    22712480.988
        45.300          32.300
 119497131.311 7  93114551.55745  22739518.477                    22739525.199
        45.300          33.700
 117861460.399 7  91840104.86644  22428297.961                    22428303.090
        44.800          28.800
 123356853.168 7  96122304.42343  23474042.688                    23474048.477
        42.300          23.400
 121469893.258 7  94651875.57845  23114950.500                    23114954.570
        44.500          31.200
 116778247.595 7  90996073.10044  22222167.992                    22222170.688
        42.400          25.800
 18  3 13 15  8 19.0000000  0 20R01G19G22G25R08R10R09R16R17R18R19G31
                                R02G12G06G03G32G24G17G14
                  86004709.308 6  20685813.820                    20685818.305
                        36.900
 114285194.175 7  89053401.15146  21747749.000                    21747750.684
        47.300          36.300
 121999498.712 7  95064542.31844  23215731.258                    23215732.566
        42.500          29.900
 116946502.664 7  91127085.14945  22254160.250                    22254166.191
        47.600          31.100
                  91620127.569 6  21997816.234                    21997816.668
                        37.300
                  86638110.440 6  20896825.406                    20896828.852
                        36.600
                  81086735.942 6  19523495.156                    19523495.012
                        40.900
                                  22665214.094

                  91499185.757 7  21984180.258                    21984183.051
                        42.400
                  82382043.762 6  19842388.977                    19842391.000
                        41.100
                  90328000.379 6  21710401.508                    21710401.859
                        38.600
 124996437.483 5                  23786031.969
        31.900
                  95277317.588 6  22956332.531                    22956335.672
                        37.800
 107903995.692 8  84080930.77246  20533447.906                    20533450.305
        50.500          39.200
 119352768.146 7  93002205.98845  22712082.773                    22712088.938
        45.200          33.000
 119496748.806 7  93114253.48445  22739445.398                    22739452.621
        45.100          33.300
 117863549.878 7  91841733.03044  22428695.531                    22428700.965
        44.300          29.600
 123360815.188 7  96125391.70743  23474796.969                    23474802.680
        42.000          22.800
 121472969.106 7  94654272.33645  23115535.992                    23115539.984
        43.600          30.200
 116778272.399 7  90996092.43144  22222172.266                    22222175.680
        42.200          26.500
 18  3 13 15  8 20.0000000  0 20R01G19G22G25R08R10R09R16R17R18R19G31
                                R02G12G06G03G32G24G17G14
                  86005061.549 6  20685898.633                    20685902.570
                        36.900
 114287486.625 7  89055187.47845  21748184.891                    21748186.449
        47.200          35.800
 122000556.061 7  95065366.22944  23215932.938                    23215933.461
        43.100          29.000
 116943981.304 7  91125120.45445  22253679.734                    22253686.203
        47.500          30.800
                  91623175.479 6  21998547.297                    21998548.777
                        36.500
                  86635853.666 6  20896281.313                    20896284.820
                        36.200
                  81087817.316 6  19523756.070                    19523755.277
                        41.100
                  94172000.09014  22666108.008                    22666110.016
                        28.700
                  91502435.024 6  21984961.438                    21984963.039
                        41.800
                  82382417.529 6  19842478.391                    19842480.840
                        41.200
                  90325274.263 6  21709747.617                    21709746.457
                        38.600
 124993415.146 5                  23785455.758
        31.600
                  95274527.398 6  22955660.766                    22955663.242
                        39.400
 107904124.906 8  84081031.45846  20533472.344                    20533475.336
        50.500          38.600
 119350708.757 7  93000601.25845  22711690.445                    22711696.691
        45.100          33.000
 119496367.014 7  93113955.97445  22739372.883                    22739379.664
        45.200          32.700
 117865639.980 7  91843361.67945  22429093.492                    22429098.539
        44.300          30.500
 123364777.487 6  96128479.21643  23475550.930                    23475556.215
        41.800          22.900
 121476045.412 7  94656669.46245  23116121.820                    23116125.164
        43.800          30.400
 116778297.887 7  90996112.29844  22222176.438                    22222179.758
        42.000          24.700
 18  3 13 15  8 21.0000000  0 20R01G19G22G25R08R10R09R16R17R18R19G31
                                R02G12G06G03G32G24G17G14
                  86005414.558 6  20685983.641                    20685987.617
                        37.300
 114289779.754 7  89056974.34045  21748621.305                    21748622.723
        45.800          34.900
 122001614.123 7  95066190.70544  23216133.789                    23216134.664
        42.700          28.600
 116941460.498 7  91123156.18645  22253200.383                    22253206.680
        47.300          30.500
                  91626223.899 6  21999279.133                    21999280.055
                        37.100
                  86633597.355 6  20895737.039                    20895740.785
                        36.000
                  81088899.399 6  19524016.289                    19524015.422
                        41.100
                  94175714.61814  22667002.359                    22667004.297
                        27.700
                  91505684.668 6  21985742.969                    21985743.867
                        39.100
                  82382792.058 6  19842568.516                    19842570.906
                        40.900
                  90322548.559 6  21709092.352                    21709091.305
                        38.300
 124990393.111 5                  23784880.109
        30.100
                  95271737.518 6  22954988.484                    22954990.598
                        37.200
 107904254.872 8  84081132.73246  20533497.242                    20533500.000
        50.600          38.700
 119348649.986 7  92998997.01045  22711299.070                    22711304.414
        46.100          33.500
 119495986.011 7  93113659.08945  22739300.625                    22739307.180
        45.100          32.600
 117867730.778 7  91844990.87145  22429491.164                    22429496.340
        44.500          30.200
 123368740.132 7  96131566.98844  23476305.328                    23476310.930
        42.400          24.200
 121479122.000 7  94659066.82943  23116706.336                    23116710.832
        42.500          23.300
 116778324.104 7  90996132.73744  22222182.406                    22222185.199
        42.400          25.300
 18  3 13 15  8 22.0000000  0 20R01G19G22G25R08R10R09R16R17R18R19G31
                                R02G12G06G03G32G24G17G14
                  86005768.304 6  20686068.672                    20686072.691
                        37.300
 114292073.536 7  89058761.70745  21749057.836                    21749059.582
        46.300          35.500
 122002672.787 7  95067015.64144  23216335.352                    23216335.715
        43.300          27.000
 116938940.125 7  91121192.26145  22252721.336                    22252726.813
        47.500          30.400
                  91629272.733 6  22000011.008                    22000012.484
                        37.200
                  86631341.468 6  20895193.008                    20895196.629
                        36.700
                  81089982.116 6  19524276.859                    19524276.691
                        41.200
                  94179429.836 4  22667895.844                    22667897.953
                        28.100
                  91508934.813 6  21986523.922                    21986524.313
                        39.500
                  82383167.308 6  19842659.391                    19842661.414
                        41.000
                  90319823.214 6  21708435.570                    21708435.902
                        38.400
 124987371.440 5                  23784305.875
        32.300
                  95268948.027 5  22954315.883                    22954318.621
                        34.700
 107904385.569 8  84081234.57346  20533521.906                    20533524.539
        50.700          38.700
 119346591.741 7  92997393.16445  22710907.125                    22710913.074
        45.900          32.300
 119495605.575 7  93113362.64645  22739228.109                    22739234.523
        46.600          33.300
 117869822.195 7  91846620.56144  22429888.914                    22429894.539
        43.900          28.900
 123372703.034 7  96134654.96244  23477058.703                    23477064.688
        42.500          25.500
 121482199.191 7  94661464.64045  23117292.227                    23117296.316
        45.000          31.900
 116778350.906 6  90996153.63344  22222187.570                    22222190.188
        41.800          27.800
 18  3 13 15  8 23.0000000  0 20R01G19G22G25R08R10R09R16R17R18R19G31
                                R02G12G06G03G32G24G17G14
                  86006122.750 6  20686154.406                    20686158.160
                        37.100
 114294367.938 7  89060549.55445  21749494.523                    21749496.035
        45.900          35.300
 122003732.051 7  95067841.05344  23216536.711                    23216537.223
        43.600          28.000
 116936420.171 7  91119228.66245  22252241.531                    22252247.164
        47.900          30.800
                  91632321.987 6  22000743.023                    22000744.262
                        36.500
                  86629085.990 6  20894647.664                    20894652.605
                        36.500
                  81091065.470 6  19524537.703                    19524537.734
                        41.100
                  94183145.225 4  22668790.766                    22668792.395
                        27.200
                  91512185.191 6  21987303.953                    21987305.254
                        40.200
                  82383543.259 6  19842750.273                    19842752.289
                        41.100
                  90317098.217 6  21707781.781                    21707781.180
                        38.400
 124984350.009 5                  23783731.336
        31.800
                  95266158.850 6  22953644.328                    22953646.594
                        38.600
 107904516.929 8  84081336.92946  20533546.969                    20533549.855
        50.800          38.900
 119344533.959 7  92995789.70145  22710515.375                    22710521.398
        46.100          32.100
 119495226.051 7  93113066.92644  22739155.813                    22739162.547
        43.600          27.500
 117871914.178 7  91848250.68544  22430287.047                    22430292.516
        44.600          29.800
 123376666.176 6  96137743.11843  23477812.898                    23477818.664
        41.500          23.500
 121485276.772 7  94663862.75845  23117878.156                    23117882.375
        43.700          31.900
 116778378.386 6  90996175.05444  22222192.422                    22222195.711
        41.300          26.600
 18  3 13 15  8 24.0000000  0 20R01G19G22G25R08R10R09R16R17R18R19G31
                                R02G12G06G03G32G24G17G14
                  86006477.941 6  20686239.484                    20686243.305
                        36.900
 114296663.006 7  89062337.92345  21749931.648                    21749932.707
        45.800          34.800
 122004791.864 7  95068666.88145  23216738.602                    23216739.207
        45.500          32.400
 116933900.695 7  91117265.42845  22251761.852                    22251767.836
        47.900          30.400
                  91635371.720 6  22001476.297                    22001477.250
                        36.800
                  86626830.916 6  20894104.055                    20894108.836
                        36.900
                  81092149.501 6  19524798.969                    19524798.289
                        40.900
                  94186860.819 4  22669683.758                    22669686.813
                        26.000
                  91515436.027 7  21988084.539                    21988086.570
                        43.600
                  82383919.946 6  19842841.297                    19842842.738
                        40.900
                  90314373.622 6  21707127.320                    21707126.422
                        38.900
 124981328.870 5                  23783155.922
        31.200
                  95263369.948 6  22952972.531                    22952974.762
                        38.200
 107904649.004 8  84081439.84246  20533572.156                    20533574.586
        50.300          38.700
 119342476.718 7  92994186.64945  22710124.250                    22710130.156
        46.000          33.100
 119494847.082 7  93112771.63644  22739083.867                    22739090.328
        43.700          29.600
 117874006.781 7  91849881.27744  22430685.102                    22430690.797
        44.100          28.700
 123380629.611 7  96140831.51344  23478567.391                    23478573.102
        42.000          24.600
 121488354.729 7  94666261.17345  23118463.820                    23118467.625
        44.000          30.500
 116778406.456 6  90996196.93544  22222198.008                    22222200.754
        41.300          27.800
 18  3 13 15  8 25.0000000  0 20R01G19G22G25R08R10R09R16R17R18R19G31
                                R02G12G06G03G32G24G17G14
                  86006833.863 6  20686325.484                    20686329.516
                        37.700
 114298958.719 7  89064126.78845  21750367.977                    21750369.461
        46.000          34.500
 122005852.401 6  95069493.28043  23216940.695                    23216941.184
        39.400          21.800
 116931381.644 8  91115302.52345  22251282.797                    22251288.547
        48.100          30.500
                  91638421.854 6  22002209.031                    22002209.203
                        36.200
                  86624576.258 6  20893561.023                    20893564.992
                        36.000
                  81093234.129 6  19525059.656                    19525059.371
                        41.100
                  94190576.657 4  22670578.328                    22670580.496
                        27.300
                  91518687.198 7  21988866.258                    21988868.313
                        42.100
                  82384297.365 6  19842931.578                    19842933.797
                        40.500
                  90311649.402 6  21706472.594                    21706471.980
                        38.400
 124978307.97515                  23782581.945
        30.500
                  95260581.395 6  22952300.836                    22952303.223
                        38.100
 107904781.765 8  84081543.29346  20533597.547                    20533600.051
        50.600          38.700
 119340419.985 7  92992584.01645  22709732.773                    22709738.957
        45.500          33.000
 119494468.663 7  93112476.77045  22739012.328                    22739018.711
        45.600          31.900
 117876100.001 7  91851512.35444  22431083.602                    22431088.660
        44.100          28.500
 123384593.277 7  96143920.09044  23479321.438                    23479327.105
        42.200          25.400
 121491433.062 7  94668659.87545  23119049.289                    23119053.277
        45.300          32.700
 116778435.195 6  90996219.31944  22222203.063                    22222206.297
        41.200          27.700
 18  3 13 15  8 26.0000000  0 20R01G19G22G25R08R10R09R16R17R18R19G31
                                R02G12G06G03G32G24G17G14
                  86007190.574 6  20686411.258                    20686415.305
                        37.700
 114301255.132 7  89065916.19745  21750805.008                    21750806.684
        46.000          35.100
 122006913.562 6  95070320.16444  23217142.109                    23217143.398
        41.700          26.500
 116928863.125 8  91113340.03545  22250803.258                    22250809.117
        48.000          30.700
                  91641472.549 6  22002939.953                    22002941.477
                        36.500
                  86622322.069 6  20893017.172                    20893021.141
                        36.100
                  81094319.458 6  19525321.117                    19525320.805
                        41.400
                  94194292.609 4  22671470.898                    22671475.777
                        28.000
                  91521938.802 7  21989648.773                    21989649.410
                        42.400
                  82384675.544 6  19843022.883                    19843024.945
                        40.900
                  90308925.604 6  21705816.688                    21705816.605
                        38.700
 124975287.280 5                  23782006.758
        31.800
                  95257793.090 6  22951629.008                    22951631.563
                        38.700
 107904915.300 8  84081647.34646  20533622.734                    20533625.211
        50.700          38.300
 119338363.827 7  92990981.82445  22709341.266                    22709347.520
        45.800          33.000
 119494091.152 7  93112182.59545  22738940.297                    22738946.602
        45.600          34.300
 117878193.911 7  91853143.97944  22431482.000                    22431487.582
        44.600          29.600
 123388557.264 7  96147008.92044  23480076.383                    23480081.875
        42.200          24.800
 121494511.898 7  94671058.96245  23119635.102                    23119639.176
        46.000          33.200
 116778464.662 6  90996242.27544  22222208.977                    22222211.902
        41.700          27.900
 18  3 13 15  8 27.0000000  0 20R01G19G22G25R08R10R09R16R17R18R19G31
                                R02G12G06G03G32G24G17G14
                  86007548.031 6  20686497.414                    20686500.895
                        36.900
 114303552.193 7  89067706.11445  21751242.203                    21751243.770
        45.700          34.200
 122007975.294 6  95071147.47944  23217344.367                    23217345.191
        41.400          25.800
 116926345.057 7  91111377.90144  22250323.898                    22250329.832
        47.200          29.900
                  91644523.564 6  22003673.375                    22003673.945
                        36.500
                  86620068.283 6  20892473.641                    20892477.871
                        36.000
                  81095405.398 6  19525582.617                    19525582.832
                        41.200
                  94198008.895 4  22672366.227                    22672369.555
                        28.100
                  91525190.768 7  21990429.078                    21990430.477
                        42.100
                  82385054.452 6  19843113.648                    19843115.949
                        40.700
                  90306202.205 6  21705162.617                    21705162.930
                        38.700
 124972267.211 4                  23781432.125
        29.600
                  95255005.136 6  22950957.758                    22950959.566
                        38.600
 107905049.550 8  84081751.96646  20533648.469                    20533651.016
        50.800          38.200
 119336308.170 7  92989380.02745  22708950.195                    22708956.535
        45.800          32.900
 119493714.258 7  93111888.91145  22738868.344                    22738874.559
        45.300          33.200
 117880288.419 7  91854776.05244  22431880.430                    22431886.348
        44.200          29.000
 123392521.493 6  96150097.93044  23480830.266                    23480836.168
        41.900          25.700
 121497591.128 7  94673458.34945  23120220.891                    23120225.297
        45.900          33.700
 116778494.788 6  90996265.74344  22222214.953                    22222217.445
        41.800          26.900
 18  3 13 15  8 28.0000000  0 20R01G19G22G25R08R10R09R16R17R18R19G31
                                R02G12G06G03G32G24G17G14
                  86007906.218 6  20686582.938                    20686587.082
                        36.700
 114305849.905 7  89069496.54645  21751679.586                    21751680.762
        45.800          34.600
 122009037.648 6  95071975.28243  23217547.031                    23217547.285
        40.900          22.200
 116923827.427 7  91109416.11545  22249845.141                    22249851.031
        47.200          31.100
                  91647575.069 6  22004406.313                    22004406.793
                        36.300
                  86617814.952 5  20891930.086                    20891934.406
                        35.900
                  81096492.009 6  19525844.227                    19525844.539
                        41.700
                  94201725.288 4  22673263.242                    22673264.504
                        28.200
                  91528443.141 6  21991210.500                    21991212.152
                        41.700
                  82385434.092 6  19843204.992                    19843207.402
                        40.700
                  90303479.114 6  21704507.641                    21704508.180
                        38.500
 124969247.170 5                  23780858.766
        30.100
                  95252217.472 6  22950285.398                    22950287.457
                        37.900
 107905184.486 8  84081857.10746  20533673.930                    20533676.605
        50.500          38.700
 119334253.020 7  92987778.61845  22708559.164                    22708565.500
        45.400          32.700
 119493338.049 7  93111595.76945  22738796.125                    22738803.125
        45.000          33.400
 117882383.536 7  91856408.61744  22432279.484                    22432284.855
        44.300          28.700
 123396485.960 7  96153187.10444  23481584.750                    23481590.605
        42.200          25.300
 121500670.718 7  94675858.02145  23120807.578                    23120811.180
        45.400          33.700
 116778525.574 6  90996289.74044  22222220.352                    22222223.531
        41.100          27.200
 18  3 13 15  8 29.0000000  0 20R01G19G22G25R08R10R09R16R17R18R19G31
                                R02G12G06G03G32G24G17G14
                  86008265.112 6  20686669.648                    20686673.574
                        36.400
 114308148.270 7  89071287.48145  21752116.609                    21752118.285
        45.800          34.800
 122010100.643 6  95072803.56744  23217749.039                    23217749.746
        40.500          24.900
 116921310.304 7  91107454.71745  22249366.047                    22249371.695
        47.200          31.400
                  91650627.035 6  22005138.180                    22005140.230
                        36.900
                  86615562.060 6  20891386.352                    20891391.105
                        36.800
                  81097579.260 6  19526106.164                    19526105.977
                        41.600
                  94205441.892 4  22674157.273                    22674159.277
                        27.500
                  91531695.874 6  21991991.109                    21991993.188
                        41.100
                  82385814.461 6  19843296.969                    19843298.926
                        40.500
                  90300756.462 6  21703853.664                    21703853.563
                        38.700
 124966227.354 5                  23780282.492
        33.600
                  95249430.211 6  22949614.273                    22949616.211
                        39.300
 107905320.160 8  84081962.83046  20533699.898                    20533702.816
        50.000          38.300
 119332198.419 7  92986177.63145  22708168.211                    22708174.332
        45.200          33.000
 119492962.577 7  93111303.19245  22738725.438                    22738731.227
        45.400          34.000
 117884479.276 7  91858041.65444  22432678.352                    22432683.535
        44.300          28.900
 123400450.699 7  96156276.50744  23482339.250                    23482345.383
        42.000          25.000
 121503750.746 7  94678258.02245  23121393.852                    23121397.523
        45.300          34.100
 116778556.948 7  90996314.17344  22222226.523                    22222229.430
        42.800          27.400
 18  3 13 15  8 30.0000000  0 20R01G19G22G25R08R10R09R16R17R18R19G31
                                R02G12G06G03G32G24G17G14
                  86008624.781 6  20686756.281                    20686760.125
                        36.700
 114310447.328 7  89073078.96345  21752554.008                    21752555.715
        45.700          34.700
 122011164.290 6  95073632.37344  23217951.422                    23217951.895
        40.900          26.100
 116918793.642 7  91105493.68445  22248887.344                    22248893.461
        47.000          31.400
                  91653679.491 5  22005871.633                    22005872.586
                        34.000
                  86613309.623 6  20890843.680                    20890847.730
                        36.500
                  81098667.196 6  19526368.156                    19526367.523
                        41.700
                  94209158.797 4  22675053.609                    22675053.637
                        29.100
                  91534949.012 6  21992773.609                    21992775.238
                        40.900
                  82386195.560 6  19843388.641                    19843390.563
                        40.600
                  90298034.152 6  21703200.859                    21703199.086
                        38.300
 124963208.004 5                  23779708.422
        32.600
                  95246643.299 6  22948942.242                    22948944.980
                        39.600
 107905456.542 8  84082069.10446  20533725.898                    20533728.879
        50.300          38.400
 119330144.349 7  92984577.05145  22707777.141                    22707783.297
        45.200          32.600
 119492587.786 7  93111011.15045  22738654.063                    22738660.480
        45.400          33.800
 117886575.628 7  91859675.17744  22433077.344                    22433082.523
        44.100          28.000
 123404415.759 7  96159366.16543  23483093.742                    23483099.387
        42.200          23.900
 121506831.206 7  94680658.36445  23121979.828                    23121983.418
        45.100          33.800
 116778589.040 7  90996339.14844  22222232.523                    22222235.695
        43.100          28.700
 18  3 13 15  8 31.0000000  0 20R01G19G22G25R08R10R09R16R17R18R19G31
                                R02G12G06G03G32G24G17G14
                  86008985.188 5  20686842.633                    20686845.988
                        35.600
 114312747.029 7  89074870.93845  21752992.016                    21752993.035
        46.000          33.900
 122012228.573 6  95074461.65843  23218154.078                    23218154.492
        40.100          23.800
 116916277.420 7  91103532.99244  22248408.055                    22248414.551
        47.100          29.700
                  91656732.371 6  22006604.211                    22006605.953
                        36.200
                  86611057.603 6  20890300.219                    20890304.609
                        37.400
                  81099755.802 6  19526629.836                    19526630.035
                        41.600
                  94212875.815 4  22675947.039                    22675949.434
                        27.900
                  91538202.576 6  21993556.055                    21993557.398
                        41.300
                  82386577.373 6  19843480.688                    19843482.637
                        40.700
                  90295312.254 6  21702545.680                    21702545.297
                        37.700
 124960189.071 5                  23779133.422
        32.300
                  95243856.652 6  22948270.867                    22948273.883
                        37.200
 107905593.653 8  84082175.95146  20533751.891                    20533754.703
        50.200          38.400
 119328090.786 7  92982976.87845  22707386.883                    22707392.586
        45.200          33.000
 119492213.656 7  93110719.60445  22738582.898                    22738589.469
        45.800          34.400
 117888672.617 7  91861309.18844  22433476.023                    22433481.324
        44.700          29.300
 123408381.050 7  96162456.00943  23483848.227                    23483854.781
        42.200          22.300
 121509912.101 7  94683059.06645  23122565.883                    23122569.730
        45.600          34.400
 116778621.804 7  90996364.65844  22222238.953                    22222242.117
        42.900          29.100
 18  3 13 15  8 32.0000000  0 20R01G19G22G25R08R10R09R16R17R18R19G31
                                R02G12G06G03G32G24G17G14
                  86009346.355 5  20686929.297                    20686933.723
                        35.300
 114315047.391 7  89076663.42445  21753429.922                    21753431.055
        45.800          34.000
 122013293.477 6  95075291.45143  23218356.453                    23218357.602
        40.900          23.000
 116913761.683 7  91101572.67445  22247929.531                    22247935.512
        47.300          30.300
                  91659785.744 6  22007337.367                    22007338.813
                        37.300
                  86608806.052 6  20889757.320                    20889761.816
                        37.300
                  81100845.057 6  19526892.281                    19526891.559
                        41.500
                  94216593.073 4  22676842.336                    22676843.805
                        27.800
                  91541456.473 6  21994337.938                    21994339.078
                        40.900
                  82386959.927 6  19843572.672                    19843574.777
                        40.900
                  90292590.691 6  21701890.906                    21701890.793
                        37.900
 124957170.284 5                  23778558.836
        32.200
                  95241070.411 6  22947599.586                    22947602.180
                        38.200
 107905731.473 8  84082283.34346  20533777.938                    20533780.688
        50.000          38.600
 119326037.802 7  92981377.14945  22706996.250                    22707001.980
        45.300          33.100
 119491840.271 7  93110428.64645  22738511.984                    22738518.336
        46.600          35.500
 117890770.239 7  91862943.69144  22433875.422                    22433880.793
        44.100          28.600
 123412346.608 7  96165546.05843  23484602.555                    23484608.813
        42.300          23.400
 121512993.373 7  94685460.06345  23123152.203                    23123155.910
        45.700          35.100
 116778655.201 7  90996390.68644  22222244.617                    22222248.277
        42.800          29.300
 18  3 13 15  8 33.0000000  0 20R01G19G22G25R08R10R09R16R17R18R19G31
                                R02G12G06G03G32G24G17G14
                  86009708.268 6  20687016.680                    20687020.262
                        36.400
 114317348.408 7  89078456.42545  21753867.883                    21753869.109
        45.800          34.000
 122014359.002 6  95076121.72144  23218559.031                    23218560.184
        41.700          27.100
 116911246.408 7  91099612.72145  22247451.086                    22247457.004
        46.800          30.000
                  91662839.461 6  22008070.031                    22008072.094
                        37.500
                  86606554.881 6  20889213.273                    20889218.621
                        37.400
                  81101934.954 6  19527154.539                    19527154.496
                        41.500
                  94220310.536 4  22677736.914                    22677738.410
                        27.800
                  91544710.750 6  21995118.750                    21995120.910
                        40.500
                  82387343.209 6  19843665.281                    19843667.008
                        40.800
                  90289869.514 6  21701236.555                    21701236.945
                        38.000
 124954151.747 5                  23777984.883
        33.400
                  95238284.450 6  22946928.398                    22946931.059
                        39.400
 107905870.007 8  84082391.29346  20533804.461                    20533806.930
        50.300          38.300
 119323985.289 7  92979777.79745  22706605.516                    22706611.652
        45.500          33.500
 119491467.568 7  93110138.21446  22738440.984                    22738447.258
        47.100          36.000
 117892868.494 7  91864578.68444  22434274.641                    22434280.352
        44.500          28.800
 123416312.473 6  96168636.34543  23485357.734                    23485363.695
        41.300          23.400
 121516075.040 7  94687861.35945  23123738.953                    23123742.617
        46.200          34.700
 116778689.280 7  90996417.25144  22222251.281                    22222254.977
        42.300          28.800
 18  3 13 15  8 34.0000000  0 20R01G19G22G25R08R10R09R16R17R18R19G31
                                R02G12G06G03G32G24G17G14
                  86010070.939 6  20687103.984                    20687107.387
                        36.400
 114319650.097 7  89080249.94845  21754305.516                    21754307.340
        46.000          34.200
 122015425.180 6  95076952.49744  23218761.859                    23218763.070
        41.800          26.100
 116908731.646 7  91097653.16345  22246972.484                    22246978.316
        46.900          30.600
                  91665893.689 6  22008803.422                    22008805.367
                        37.500
                  86604304.156 6  20888671.898                    20888675.496
                        37.400
                  81103025.497 6  19527417.336                    19527417.234
                        41.400
                  94224028.249 4  22678631.219                    22678633.586
                        27.300
                  91547965.461 6  21995899.922                    21995902.465
                        40.700
                  82387727.228 6  19843757.914                    19843759.918
                        40.800
                  90287148.703 6  21700582.625                    21700582.801
                        37.900
 124951133.574 5                  23777410.086
        34.800
                  95235498.816 6  22946256.117                    22946259.723
                        39.000
 107906009.257 8  84082499.80246  20533831.008                    20533833.234
        50.400          38.100
 119321933.325 7  92978178.86845  22706214.852                    22706220.875
        45.500          33.400
 119491095.582 7  93109848.34845  22738369.844                    22738376.430
        46.400          35.400
 117894967.370 7  91866214.15944  22434674.023                    22434679.363
        45.100          29.800
 123420278.615 6  96171726.82544  23486112.578                    23486117.992
        41.300          25.000
 121519157.114 7  94690262.96745  23124324.781                    23124329.055
        46.200          34.600
 116778724.002 6  90996444.32844  22222257.875                    22222261.734
        41.700          26.800
 18  3 13 15  8 35.0000000  0 20R01G19G22G25R08R10R09R16R17R18R19G31
                                R02G12G06G03G32G24G17G14
                  86010434.341 6  20687191.844                    20687195.270
                        36.900
 114321952.405 7  89082043.95545  21754743.711                    21754745.074
        46.200          34.400
 122016491.965 6  95077783.74744  23218965.547                    23218966.152
        41.600          24.000
 116906217.331 7  91095693.97045  22246494.117                    22246499.855
        47.100          30.900
                  91668948.278 6  22009538.609                    22009538.254
                        36.600
                  86602053.865 6  20888128.250                    20888133.074
                        38.000
                  81104116.682 6  19527679.781                    19527679.648
                        41.400
                  94227746.099 4  22679526.734                    22679528.000
                        26.500
                  91551220.485 6  21996681.594                    21996684.402
                        41.700
                  82388111.979 6  19843850.305                    19843851.855
                        40.800
                  90284428.313 6  21699929.086                    21699928.395
                        38.700
 124948115.637 5                  23776835.031
        34.000
                  95232713.441 6  22945585.313                    22945589.164
                        37.200
 107906149.215 8  84082608.86246  20533857.625                    20533859.883
        50.500          38.800
 119319881.870 7  92976580.33045  22705824.758                    22705830.375
        45.200          33.000
 119490724.240 7  93109558.99545  22738299.352                    22738305.680
        45.800          34.000
 117897066.849 7  91867850.10644  22435073.594                    22435079.230
        45.100          27.700
 123424245.024 6  96174817.53044  23486866.859                    23486873.145
        41.300          24.200
 121522239.590 7  94692664.89345  23124911.703                    23124916.098
        45.800          34.300
 116778759.431 7  90996471.92844  22222264.875                    22222267.922
        42.600          28.300
 18  3 13 15  8 36.0000000  0 20R01G19G22G25R08R10R09R16R17R18R19G31
                                R02G12G06G03G32G24G17G14
                  86010798.519 6  20687278.969                    20687282.297
                        36.200
 114324255.464 7  89083838.55745  21755181.500                    21755183.215
        45.700          34.200
 122017559.416 6  95078615.51844  23219168.453                    23219169.434
        41.600          26.100
 116903703.529 7  91093735.17745  22246015.609                    22246021.535
        46.900          30.900
                  91672003.479 6  22010271.281                    22010272.035
                        37.000
                  86599804.006 6  20887585.336                    20887589.816
                        37.700
                  81105208.560 6  19527943.258                    19527942.758
                        41.400
                  94231464.174 4  22680422.500                    22680423.270
                        26.500
                  91554475.875 6  21997465.813                    21997466.410
                        41.800
                  82388497.474 6  19843943.250                    19843944.770
                        41.000
                  90281708.359 6  21699276.273                    21699275.504
                        38.300
 124945098.101 6                  23776261.445
        36.200
                  95229928.444 6  22944914.188                    22944917.754
                        37.300
 107906289.933 8  84082718.51246  20533884.477                    20533887.449
        50.000          38.300
 119317830.989 7  92974982.22945  22705434.313                    22705440.168
        45.300          33.400
 119490353.688 7  93109270.26945  22738228.875                    22738235.207
        46.400          35.400
 117899166.986 7  91869486.57545  22435473.664                    22435478.828
        45.400          30.400
 123428211.756 6  96177908.49144  23487621.938                    23487628.227
        41.900          24.600
 121525322.527 7  94695067.17545  23125498.414                    23125502.313
        45.600          34.000
 116778795.507 7  90996500.03344  22222271.070                    22222274.680
        42.600          27.800
 18  3 13 15  8 37.0000000  0 20R01G19G22G25R08R10R09R16R17R18R19G31
                                R02G12G06G03G32G24G17G14
                  86011163.433 6  20687366.328                    20687370.125
                        36.500
 114326559.128 7  89085633.62245  21755620.414                    21755621.531
        45.700          33.800
 122018627.515 6  95079447.79644  23219371.953                    23219372.488
        41.000          26.400
 116901190.185 7  91091776.73645  22245537.375                    22245543.434
        47.000          30.700
                  91675059.066 6  22011004.141                    22011006.199
                        37.100
                  86597554.578 6  20887043.453                    20887047.863
                        37.200
                  81106301.085 6  19528206.047                    19528205.438
                        41.400
                  94235182.443 4  22681318.227                    22681317.738
                        27.700
                  91557731.706 6  21998248.305                    21998248.953
                        41.100
                  82388883.686 6  19844036.125                    19844038.461
                        40.900
                  90278988.749 6  21698622.438                    21698621.602
                        38.700
 124942080.882 5                  23775688.063
        35.900
                  95227143.734 6  22944242.891                    22944246.867
                        37.500
 107906431.351 8  84082828.70446  20533911.219                    20533913.879
        49.800          38.300
 119315780.598 7  92973384.51245  22705043.742                    22705049.777
        45.400          33.200
 119489983.850 7  93108982.10445  22738158.141                    22738165.125
        46.600          35.000
 117901267.767 7  91871123.52145  22435872.953                    22435878.398
        45.200          30.800
 123432178.724 6  96180999.62844  23488376.992                    23488383.082
        41.200          25.300
 121528405.875 7  94697469.78145  23126085.414                    23126089.379
        44.900          33.600
 116778832.251 7  90996528.66444  22222279.094                    22222282.082
        42.800          29.100
 18  3 13 15  8 38.0000000  0 20R01G19G22G25R08R10R09R16R17R18R19G31
                                R02G12G06G03G32G24G17G14
                  86011529.032 6  20687454.344                    20687458.469
                        36.000
 114328863.403 7  89087429.16445  21756058.820                    21756060.258
        45.600          34.200
 122019696.169 6  95080280.51644  23219575.156                    23219575.770
        40.200          25.300
 116898677.249 7  91089818.61845  22245059.313                    22245065.180
        47.000          30.800
                  91678115.069 6  22011738.188                    22011739.078
                        37.800
                  86595305.553 6  20886500.766                    20886504.750
                        37.000
                  81107394.229 6  19528469.063                    19528469.152
                        41.600
                  94238900.896 4  22682210.969                    22682212.457
                        27.900
                  91560987.899 6  21999030.813                    21999031.188
                        41.100
                  82389270.615 6  19844129.930                    19844131.445
                        41.100
                  90276269.508 6  21697967.813                    21697968.043
                        38.300
 124939063.872 6                  23775114.352
        36.200
                  95224359.330 6  22943573.031                    22943575.871
                        37.700
 107906573.446 8  84082939.42646  20533938.422                    20533941.199
        49.900          38.300
 119313730.720 7  92971787.19845  22704654.102                    22704660.090
        45.400          33.300
 119489614.590 7  93108694.38545  22738088.242                    22738095.102
        46.100          35.400
 117903369.114 7  91872760.92044  22436272.977                    22436278.129
        45.300          29.900
 123436145.902 6  96184090.94643  23489131.289                    23489137.785
        41.600          23.600
 121531489.594 7  94699872.67145  23126672.461                    23126676.215
        45.000          33.700
 116778869.619 7  90996557.78544  22222285.789                    22222288.926
        42.700          28.500
 18  3 13 15  8 39.0000000  0 20R01G19G22G25R08R10R09R16R17R18R19G31
                                R02G12G06G03G32G24G17G14
                  86011895.423 5  20687542.180                    20687546.488
                        35.400
 114331168.407 7  89089225.26645  21756497.633                    21756498.988
        45.800          34.300
 122020765.543 6  95081113.79744  23219778.336                    23219779.301
        40.000          25.600
 116896164.809 7  91087860.88145  22244581.391                    22244587.109
        47.100          31.200
                  91681171.557 6  22012471.984                    22012473.230
                        38.100
                  86593056.960 6  20885957.625                    20885962.535
                        37.200
                  81108488.044 6  19528732.469                    19528731.719
                        41.800
                  94242619.549 4  22683104.930                    22683107.555
                        26.200
                  91564244.546 6  21999811.984                    21999814.141
                        41.500
                  82389658.266 6  19844222.688                    19844225.105
                        40.800
                  90273550.646 6  21697314.609                    21697314.363
                        38.500
 124936047.171 6                  23774539.609
        36.200
                  95221575.281 6  22942902.336                    22942904.570
                        37.400
 107906716.272 8  84083050.72246  20533965.547                    20533968.191
        50.000          38.700
 119311681.377 7  92970190.29945  22704264.156                    22704269.730
        45.900          33.500
 119489246.055 7  93108407.21845  22738017.969                    22738024.793
        46.400          35.400
 117905471.105 7  91874398.81745  22436673.055                    22436678.496
        44.100          30.500
 123440113.410 6  96187182.49343  23489886.461                    23489893.004
        41.400          22.900
 121534573.761 7  94702275.91845  23127258.781                    23127263.105
        44.600          33.500
 116778907.668 7  90996587.43744  22222292.898                    22222296.668
        42.700          28.300
 18  3 13 15  8 40.0000000  0 20R01G19G22G25R08R10R09R16R17R18R19G31
                                R02G12G06G03G32G24G17G14
                  86012262.587 5  20687630.648                    20687634.824
                        35.600
 114333474.066 7  89091021.88745  21756936.398                    21756937.664
        46.000          34.300
 122021835.491 6  95081947.53744  23219981.906                    23219982.602
        40.300          25.600
 116893652.836 7  91085903.50845  22244102.750                    22244109.047
        47.200          31.500
                  91684228.477 6  22013206.055                    22013207.117
                        38.300
                  86590808.821 6  20885415.883                    20885420.609
                        37.900
                  81109582.516 6  19528996.172                    19528996.008
                        41.700
                  94246338.359 4  22683999.609                    22684002.313
                        27.400
                  91567501.618 6  22000594.008                    22000596.613
                        41.500
                  82390046.637 6  19844316.320                    19844318.492
                        40.900
                  90270832.219 6  21696661.711                    21696660.633
                        38.600
 124933030.816 5                  23773965.563
        35.500
                  95218791.588 6  22942231.469                    22942234.129
                        36.500
 107906859.829 8  84083162.58346  20533992.727                    20533995.496
        50.400          38.600
 119309632.557 7  92968593.80745  22703874.398                    22703880.000
        46.500          33.400
 119488878.260 7  93108120.62046  22737948.477                    22737954.316
        46.800          36.000
 117907573.726 7  91876037.21445  22437072.930                    22437078.637
        44.000          31.300
 123444081.174 6  96190274.25644  23490642.000                    23490647.871
        41.800          25.000
 121537658.349 7  94704679.48845  23127845.695                    23127849.840
        44.700          33.200
 116778946.407 7  90996617.62544  22222300.602                    22222303.582
        43.400          27.900
 18  3 13 15  8 41.0000000  0 20R01G19G22G25R08R10R09R16R17R18R19G31
                                R02G12G06G03G32G24G17G14
                  86012630.481 6  20687719.664                    20687723.531
                        36.100
 114335780.359 7  89092818.99445  21757374.938                    21757376.270
        45.800          34.200
 122022906.035 6  95082781.72743  23220185.500                    23220186.598
        40.900          23.500
 116891141.323 7  91083946.49945  22243625.016                    22243630.922
        47.100          30.500
                  91687285.817 6  22013939.992                    22013941.191
                        38.300
                  86588561.100 6  20884873.977                    20884878.301
                        37.900
                  81110677.634 6  19529259.516                    19529259.813
                        41.600
                  94250057.453 4  22684894.906                    22684897.918
                        26.800
                  91570759.046 7  22001376.930                    22001379.145
                        42.100
                  82390435.729 6  19844409.898                    19844411.758
                        40.900
                  90268114.127 6  21696008.273                    21696007.879
                        38.300
 124930014.733 5                  23773391.852
        34.800
                  95216008.212 6  22941561.023                    22941563.707
                        36.700
 107907004.078 8  84083274.98146  20534020.031                    20534022.695
        50.800          38.200
 119307584.269 7  92966997.72545  22703484.453                    22703490.496
        46.700          33.600
 119488511.148 7  93107834.55945  22737877.930                    22737884.789
        46.400          35.100
 117909676.957 7  91877676.08345  22437473.453                    22437478.590
        44.600          30.400
 123448049.173 7  96193366.19243  23491396.492                    23491403.238
        42.000          23.500
 121540743.331 7  94707083.36645  23128432.938                    23128437.016
        45.700          33.600
 116778985.765 7  90996648.28844  22222307.875                    22222311.188
        43.800          28.400
 18  3 13 15  8 42.0000000  0 20R01G19G22G25R08R10R09R16R17R18R19G31
                                R02G12G06G03G32G24G17G14
                  86012999.121 5  20687807.992                    20687812.344
                        35.800
 114338087.346 7  89094616.63845  21757814.211                    21757815.281
        46.000          34.000
 122023977.267 6  95083616.45544  23220389.180                    23220390.352
        41.000          24.200
 116888630.303 7  91081989.86945  22243147.148                    22243153.250
        47.200          30.200
                  91690343.642 6  22014673.664                    22014675.734
                        38.000
                  86586313.841 6  20884332.078                    20884336.023
                        37.700
                  81111773.424 6  19529523.609                    19529523.918
                        41.500
                  94253776.738 4  22685790.398                    22685793.094
                        27.500
                  91574016.835 7  22002160.680                    22002162.242
                        42.000
                  82390825.606 6  19844503.531                    19844505.496
                        40.900
                  90265396.481 6  21695354.469                    21695354.785
                        38.100
 124926998.938 5                  23772817.797
        35.100
                  95213225.159 6  22940889.664                    22940892.504
                        36.600
 107907149.072 8  84083387.96146  20534047.656                    20534050.730
        50.900          38.600
 119305536.520 7  92965402.06445  22703094.633                    22703100.875
        46.200          33.600
 119488144.731 7  93107549.04145  22737808.898                    22737815.031
        46.400          34.800
 117911780.850 7  91879315.47045  22437873.664                    22437879.188
        44.700          31.000
 123452017.491 6  96196458.37243  23492151.727                    23492158.195
        41.400          23.900
 121543828.764 7  94709487.60745  23129020.063                    23129024.270
        46.100          33.200
 116779025.826 7  90996679.50144  22222316.258                    22222319.031
        44.100          28.800
 18  3 13 15  8 43.0000000  0 20R01G19G22G25R08R10R09R16R17R18R19G31
                                R02G12G06G03G32G24G17G14
                  86013368.499 5  20687896.508                    20687900.535
                        35.600
 114340394.958 7  89096414.77245  21758253.063                    21758254.504
        46.200          33.600
 122025049.103 6  95084451.63944  23220593.336                    23220594.129
        40.900          25.300
 116886119.729 7  91080033.58945  22242669.656                    22242675.508
        47.400          30.300
                  91693401.889 6  22015409.055                    22015409.895
                        38.000
                  86584067.007 6  20883790.398                    20883794.477
                        37.400
                  81112869.860 6  19529787.453                    19529787.297
                        41.400
                  94257496.210 4  22686685.641                    22686688.484
                        28.000
                  91577274.997 6  22002943.781                    22002944.727
                        41.800
                  82391216.213 6  19844598.375                    19844599.719
                        40.900
                  90262679.194 6  21694702.406                    21694700.996
                        38.200
 124923983.455 5                  23772243.984
        35.200
                  95210442.395 6  22940219.563                    22940222.277
                        36.500
 107907294.774 8  84083501.49946  20534075.328                    20534078.195
        50.500          38.300
 119303489.292 7  92963806.80445  22702705.133                    22702711.332
        46.400          33.900
 119487779.040 7  93107264.09245  22737739.078                    22737745.297
        46.300          35.300
 117913885.349 7  91880955.33644  22438274.555                    22438279.578
        45.000          29.400
 123455986.098 6  96199550.78643  23492907.305                    23492913.250
        41.800          23.500
 121546914.581 7  94711892.14445  23129607.250                    23129611.418
        46.200          33.400
 116779066.509 7  90996711.19244  22222323.320                    22222326.398
        43.900          28.100
 18  3 13 15  8 44.0000000  0 20R01G19G22G25R08R10R09R16R17R18R19G31
                                R02G12G06G03G32G24G17G14
                  86013738.614 6  20687985.867                    20687989.668
                        36.000
 114342703.196 7  89098213.39945  21758692.719                    21758694.035
        46.100          33.900
 122026121.527 6  95085287.28844  23220797.742                    23220798.188
        41.100          24.200
 116883609.580 7  91078077.62245  22242192.180                    22242197.898
        47.400          30.800
                  91696460.587 6  22016142.734                    22016144.605
                        38.500
                  86581820.559 6  20883247.617                    20883252.719
                        37.200
                  81113966.901 6  19530051.758                    19530051.379
                        41.400
                  94261215.817 4  22687580.391                    22687583.512
                        25.800
                  91580533.519 6  22003725.625                    22003727.121
                        41.600
                  82391607.512 6  19844691.922                    19844694.332
                        41.000
                  90259962.198 6  21694048.891                    21694048.098
                        38.000
 124920968.236 6                  23771670.797
        36.100
                  95207659.891 6  22939550.039                    22939551.809
                        36.400
 107907441.140 8  84083615.54446  20534103.227                    20534106.027
        50.700          38.000
 119301442.531 7  92962211.90645  22702315.945                    22702321.918
        46.200          33.500
 119487413.965 7  93106979.61245  22737669.438                    22737675.918
        46.600          35.900
 117915990.442 7  91882595.65744  22438674.922                    22438679.922
        45.100          29.700
 123459954.924 7  96202643.37344  23493662.992                    23493668.387
        42.200          24.700
 121550000.778 7  94714296.97445  23130194.383                    23130198.621
        45.400          32.700
 116779107.818 7  90996743.37344  22222331.414                    22222334.613
        43.900          29.600
 18  3 13 15  8 45.0000000  0 20R01G19G22G25R08R10R09R16R17R18R19G31
                                R02G12G06G03G32G24G17G14
                  86014109.467 5  20688075.406                    20688079.031
                        35.600
 114345012.113 7  89100012.55645  21759131.969                    21759132.961
        46.500          34.000
 122027194.581 6  95086123.42044  23221001.945                    23221002.758
        41.100          26.000
 116881099.905 7  91076122.02745  22241714.586                    22241720.184
        47.200          30.600
                  91699519.698 6  22016876.664                    22016878.348
                        37.900
                  86579574.574 6  20882706.719                    20882710.902
                        37.000
                  81115064.627 6  19530316.000                    19530315.723
                        41.200
                  94264935.667 4  22688475.648                    22688478.711
                        28.700
                  91583792.468 6  22004507.727                    22004510.520
                        41.500
                  82391999.562 6  19844786.500                    19844788.652
                        41.000
                  90257245.604 6  21693396.406                    21693395.098
                        37.700
 124917953.294 5                  23771097.289
        35.800
                  95204877.736 5  22938879.852                    22938881.133
                        35.800
 107907588.243 8  84083730.17046  20534131.375                    20534134.082
        50.900          38.200
 119299396.312 7  92960617.43445  22701926.438                    22701932.371
        46.500          33.300
 119487049.630 7  93106695.72145  22737600.188                    22737606.570
        46.500          35.300
 117918096.164 7  91884236.47845  22439075.625                    22439080.906
        45.200          30.700
 123463924.035 7  96205736.17744  23494417.961                    23494424.094
        42.300          24.000
 121553087.412 7  94716702.13645  23130782.211                    23130785.789
        44.900          32.800
 116779149.826 7  90996776.10744  22222339.016                    22222342.348
        44.200          29.100
 18  3 13 15  8 46.0000000  0 20R01G19G22G25R08R10R09R16R17R18R19G31
                                R02G12G06G03G32G24G17G14
                  86014481.087 6  20688164.797                    20688167.930
                        36.100
 114347321.713 7  89101812.23845  21759571.391                    21759573.203
        46.100          34.000
 122028268.302 6  95086960.07144  23221206.422                    23221207.133
        40.300          26.800
 116878590.726 7  91074166.82045  22241237.031                    22241242.535
        47.100          30.700
                  91702579.317 6  22017613.133                    22017613.676
                        38.100
                  86577329.035 6  20882164.250                    20882168.656
                        37.600
                  81116162.994 6  19530580.422                    19530580.176
                        41.400
                  94268655.694 4  22689371.008                    22689374.223
                        28.400
                  91587051.811 6  22005291.727                    22005294.383
                        41.500
                  82392392.352 6  19844881.672                    19844883.566
                        40.900
                  90254529.403 6  21692743.844                    21692742.293
                        37.500
 124914938.688 6                  23770522.977
        36.200
                  95202095.940 6  22938209.977                    22938211.273
                        36.000
 107907736.068 8  84083845.35446  20534159.570                    20534162.434
        51.200          38.300
 119297350.632 7  92959023.37845  22701536.859                    22701543.219
        45.800          33.600
 119486685.984 7  93106412.36445  22737531.109                    22737537.391
        46.300          35.200
 117920202.563 7  91885877.82945  22439476.141                    22439481.680
        45.500          30.700
 123467893.454 7  96208829.24043  23495173.367                    23495179.480
        42.400          23.500
 121556174.473 7  94719107.64145  23131369.281                    23131373.668
        45.100          33.200
 116779192.468 7  90996809.32644  22222347.828                    22222350.625
        43.600          28.700
 18  3 13 15  8 47.0000000  0 20R01G19G22G25R08R10R09R16R17R18R19G31
                                R02G12G06G03G32G24G17G14
                  86014853.393 5  20688254.781                    20688257.648
                        35.800
 114349631.925 7  89103612.40545  21760011.383                    21760012.383
        46.000          34.500
 122029342.604 6  95087797.18144  23221410.680                    23221411.652
        40.700          26.100
 116876081.982 7  91072211.96245  22240759.359                    22240765.422
        47.400          30.600
                  91705639.299 6  22018346.164                    22018348.258
                        38.300
                  86575083.855 6  20881622.859                    20881627.891
                        37.100
                  81117261.981 6  19530844.852                    19530844.391
                        41.600
                  94272375.900 4  22690266.180                    22690269.270
                        29.100
                  91590311.486 6  22006075.773                    22006076.922
                        41.500
                  82392785.827 6  19844976.289                    19844978.426
                        40.900
                  90251813.562 6  21692090.078                    21692089.645
                        38.200
 124911924.321 6                  23769949.328
        36.300
                  95199314.499 6  22937538.836                    22937540.867
                        36.600
 107907884.595 8  84083961.09146  20534187.656                    20534190.641
        51.100          38.500
 119295305.455 7  92957429.70745  22701147.891                    22701153.875
        45.600          33.200
 119486323.033 7  93106129.55345  22737461.945                    22737468.281
        46.700          35.200
 117922309.529 7  91887519.61945  22439877.766                    22439882.605
        45.500          30.200
 123471863.081 7  96211922.45243  23495928.578                    23495934.848
        42.400          23.200
 121559261.900 7  94721513.43845  23131956.852                    23131960.898
        44.800          32.700
 116779235.752 7  90996843.05244  22222355.844                    22222358.809
        43.600          29.000
 18  3 13 15  8 48.0000000  0 20R01G19G22G25R08R10R09R16R17R18R19G31
                                R02G12G06G03G32G24G17G14
                  86015226.480 5  20688344.008                    20688347.449
                        35.600
 114351942.854 7  89105413.13445  21760450.891                    21760452.262
        46.000          34.300
 122030417.592 6  95088634.82544  23221615.336                    23221616.266
        41.200          25.800
 116873573.746 7  91070257.49245  22240282.102                    22240288.344
        47.500          31.100
                  91708699.792 6  22019081.906                    22019082.832
                        37.800
                  86572839.166 6  20881081.203                    20881086.016
                        37.000
                  81118361.681 6  19531110.016                    19531110.043
                        41.400
                  94276096.338 4  22691162.242                    22691164.609
                        28.200
                  91593571.574 6  22006859.695                    22006860.578
                        41.400
                  82393180.069 6  19845071.141                    19845073.395
                        40.800
                  90249098.136 6  21691438.234                    21691436.699
                        38.500
 124908910.352 6                  23769375.852
        36.200
                  95196533.421 6  22936869.109                    22936871.008
                        36.400
 107908033.851 8  84084077.39446  20534216.234                    20534218.980
        50.900          38.100
 119293260.840 7  92955836.48045  22700758.961                    22700765.246
        45.300          33.500
 119485960.794 7  93105847.30445  22737392.711                    22737399.293
        47.000          34.600
 117924417.136 7  91889161.91445  22440278.461                    22440283.637
        45.400          30.700
 123475833.028 7  96215015.92444  23496684.266                    23496690.008
        42.100          25.200
 121562349.788 7  94723919.58945  23132544.734                    23132548.496
        45.100          32.800
 116779279.728 7  90996877.30744  22222364.203                    22222367.348
        44.100          28.700
 18  3 13 15  8 49.0000000  0 20R01G19G22G25R08R10R09R16R17R18R19G31
                                R02G12G06G03G32G24G17G14
                  86015600.351 5  20688433.578                    20688437.102
                        35.800
 114354254.443 7  89107214.37645  21760891.234                    21760892.012
        46.200          34.100
 122031493.246 6  95089472.99344  23221819.805                    23221820.793
        41.200          26.100
 116871065.976 7  91068303.39045  22239805.008                    22239810.754
        47.300          31.400
                  91711760.696 6  22019816.914                    22019817.930
                        37.900
                  86570594.939 6  20880540.234                    20880544.816
                        37.100
                  81119462.030 6  19531374.484                    19531374.965
                        41.500
                  94279816.987 4  22692057.836                    22692060.395
                        29.100
                  91596832.028 6  22007641.867                    22007643.613
                        41.300
                  82393575.078 6  19845165.930                    19845167.719
                        40.800
                  90246383.106 6  21690785.438                    21690784.926
                        38.100
 124905896.631 6                  23768802.609
        36.600
                  95193752.675 6  22936199.320                    22936201.367
                        36.200
 107908183.874 8  84084194.29146  20534244.445                    20534247.102
        51.300          38.100
 119291216.792 7  92954243.70445  22700370.086                    22700376.145
        45.400          32.900
 119485599.270 7  93105565.60845  22737324.234                    22737330.430
        47.300          34.800
 117926525.400 7  91890804.71245  22440679.766                    22440685.277
        45.400          30.800
 123479803.284 6  96218109.64944  23497439.641                    23497445.336
        41.900          24.000
 121565438.090 7  94726326.06045  23133132.102                    23133136.184
        45.300          32.900
 116779324.390 7  90996912.09744  22222372.547                    22222375.645
        43.800          29.400
 18  3 13 15  8 50.0000000  0 20R01G19G22G25R08R10R09R16R17R18R19G31
                                R02G12G06G03G32G24G17G14
                  86015974.958 5  20688523.906                    20688527.453
                        35.900
 114356566.704 7  89109016.13245  21761330.922                    21761331.934
        46.100          34.700
 122032569.531 6  95090311.66444  23222024.805                    23222025.848
        41.200          25.400
 116868558.703 7  91066349.66545  22239327.719                    22239333.590
        47.300          30.900
                  91714822.121 6  22020552.492                    22020553.137
                        37.900
                  86568351.145 6  20879999.109                    20880003.578
                        36.800
                  81120563.041 6  19531639.992                    19531639.652
                        41.400
                  94283537.792 4  22692953.414                    22692956.672
                        28.000
                  91600092.898 6  22008424.695                    22008427.473
                        41.200
                  82393970.803 6  19845261.563                    19845263.098
                        41.100
                  90243668.455 6  21690132.945                    21690132.813
                        37.900
 124902883.286 6                  23768229.406
        37.500
                  95190972.250 6  22935528.484                    22935531.500
                        36.500
 107908334.605 8  84084311.74946  20534273.578                    20534276.379
        51.500          38.300
 119289173.284 7  92952651.34745  22699981.117                    22699987.477
        45.800          32.700
 119485238.446 7  93105284.45445  22737255.250                    22737261.844
        47.600          35.200
 117928634.273 7  91892447.97945  22441080.766                    22441086.121
        45.200          30.300
 123483773.806 7  96221203.56543  23498194.992                    23498201.211
        42.100          22.600
 121568526.817 7  94728732.86045  23133719.938                    23133724.141
        45.600          33.300
 116779369.721 7  90996947.40044  22222381.453                    22222384.664
        43.800          29.400
 18  3 13 15  8 51.0000000  0 20R01G19G22G25R08R10R09R16R17R18R19G31
                                R02G12G06G03G32G24G17G14
                  86016350.296 5  20688613.617                    20688617.574
                        35.800
 114358879.607 7  89110818.39545  21761770.672                    21761771.980
        45.800          34.500
 122033646.410 6  95091150.80444  23222229.578                    23222230.395
        41.000          25.500
 116866051.854 7  91064396.27745  22238850.867                    22238856.828
        47.200          30.700
                  91717883.949 6  22021286.086                    22021288.195
                        37.700
                  86566107.768 6  20879458.273                    20879462.246
                        36.700
                  81121664.688 6  19531905.203                    19531904.637
                        41.600
                  94287258.788 4  22693850.070                    22693851.887
                        27.500
                  91603354.174 6  22009208.273                    22009210.656
                        41.300
                  82394367.221 6  19845357.219                    19845358.754
                        40.900
                  90240954.169 6  21689480.133                    21689479.934
                        38.100
 124899870.180 6                  23767655.820
        37.100
                  95188192.070 6  22934859.523                    22934861.355
                        36.400
 107908486.037 8  84084429.75046  20534302.250                    20534305.230
        51.200          38.200
 119287130.264 7  92951059.37845  22699592.422                    22699598.719
        45.700          33.000
 119484878.320 7  93105003.83645  22737186.859                    22737193.328
        47.600          35.500
 117930743.745 7  91894091.70945  22441482.203                    22441487.496
        45.300          30.300
 123487744.599 7  96224297.70844  23498950.539                    23498956.465
        42.200          24.300
 121571615.931 7  94731139.95545  23134307.664                    23134311.547
        45.300          33.300
 116779415.708 7  90996983.22544  22222389.836                    22222393.090
        43.700          29.100
 18  3 13 15  8 52.0000000  0 20R01G19G22G25R08R10R09R16R17R18R19G31
                                R02G12G06G03G32G24G17G14
                  86016726.394 6  20688704.375                    20688708.109
                        36.500
 114361193.172 7  89112621.17045  21762211.336                    21762212.965
        45.800          34.300
 122034723.928 6  95091990.44944  23222434.391                    23222436.047
        40.800          24.400
 116863545.490 7  91062443.26945  22238373.695                    22238379.668
        47.200          30.500
                  91720946.209 6  22022022.664                    22022023.031
                        37.500
                  86563864.829 6  20878917.727                    20878921.371
                        37.500
                  81122766.987 6  19532170.523                    19532170.258
                        41.500
                  94290979.931 4  22694745.898                    22694747.824
                        27.500
                  91606615.806 6  22009993.039                    22009994.230
                        41.800
                  82394764.392 6  19845452.742                    19845454.707
                        40.900
                  90238240.295 6  21688829.125                    21688827.504
                        37.700
 124896857.323 6                  23767081.508
        36.900
                  95185412.219 5  22934189.445                    22934192.012
                        35.700
 107908638.184 8  84084548.30346  20534331.234                    20534333.863
        51.500          38.500
 119285087.814 7  92949467.85445  22699203.359                    22699209.633
        45.700          33.000
 119484518.853 7  93104723.74745  22737118.586                    22737125.008
        47.800          35.600
 117932853.891 7  91895735.96245  22441883.914                    22441889.285
        46.000          30.000
 123491715.648 7  96227392.02643  23499706.102                    23499712.637
        42.000          22.900
 121574705.500 7  94733547.41245  23134895.883                    23134899.617
        45.600          33.600
 116779462.336 7  90997019.55044  22222398.633                    22222402.121
        43.900          28.700
 18  3 13 15  8 53.0000000  0 20R01G19G22G25R08R10R09R16R17R18R19G31
                                R02G12G06G03G32G24G17G14
                  86017103.236 6  20688795.414                    20688799.383
                        36.400
 114363507.385 7  89114424.45245  21762651.320                    21762653.059
        46.000          33.900
 122035802.081 6  95092830.57243  23222640.008                    23222640.883
        40.600          23.400
 116861039.616 7  91060490.64545  22237896.828                    22237902.840
        47.300          30.800
                  91724008.896 6  22022757.078                    22022758.590
                        37.300
                  86561622.323 6  20878376.492                    20878380.824
                        37.800
                  81123869.967 6  19532435.672                    19532435.395
                        41.100
                  94294701.282 4  22695640.625                    22695643.074
                        27.300
                  91609877.801 7  22010777.281                    22010778.617
                        42.400
                  82395162.328 6  19845548.406                    19845550.625
                        40.800
                  90235526.808 6  21688177.273                    21688175.129
                        37.800
 124893844.869 6                  23766508.695
        36.800
                  95182632.734 6  22933518.508                    22933521.609
                        36.200
 107908791.054 8  84084667.42946  20534360.258                    20534363.074
        51.300          38.400
 119283045.887 7  92947876.73945  22698815.414                    22698821.121
        45.700          32.600
 119484160.088 7  93104444.19245  22737050.375                    22737056.387
        47.400          34.900
 117934964.658 7  91897380.71445  22442285.820                    22442290.938
        44.600          30.500
 123495686.988 6  96230486.57443  23500462.102                    23500467.941
        41.700          22.800
 121577795.455 7  94735955.16745  23135484.023                    23135487.664
        45.700          33.600
 116779509.639 7  90997056.41044  22222407.438                    22222410.867
        43.700          29.000
 18  3 13 15  8 54.0000000  0 20R01G19G22G25R08R10R09R16R17R18R19G31
                                R02G12G06G03G32G24G17G14
                  86017480.817 6  20688886.016                    20688889.383
                        36.700
 114365822.254 7  89116228.24345  21763091.813                    21763093.500
        45.900          34.100
 122036880.840 6  95093671.16944  23222845.266                    23222846.313
        41.000          25.200
 116858534.176 7  91058538.35845  22237420.219                    22237426.043
        47.700          30.700
                  91727072.004 6  22023492.289                    22023494.285
                        36.200
                  86559380.227 6  20877834.914                    20877839.520
                        36.200
                  81124973.551 6  19532701.547                    19532701.121
                        41.200
                  94298422.822 4  22696536.570                    22696539.043
                        27.000
                  91613140.127 7  22011561.063                    22011562.242
                        42.300
                  82395560.967 6  19845644.445                    19845646.906
                        40.800
                  90232813.648 6  21687524.695                    21687523.270
                        37.900
 124890832.736 5                  23765936.133
        34.600
                  95179853.596 6  22932849.039                    22932852.547
                        38.700
 107908944.623 8  84084787.09946  20534389.359                    20534391.922
        51.700          38.500
 119281004.468 7  92946286.02145  22698426.633                    22698432.977
        45.300          32.300
 119483802.001 7  93104165.15745  22736981.844                    22736988.660
        47.000          33.500
 117937076.003 7  91899025.92044  22442687.039                    22442692.469
        44.500          28.700
 123499658.593 6  96233581.32543  23501217.773                    23501223.945
        41.100          22.800
 121580885.802 7  94738363.22845  23136071.938                    23136076.000
        46.000          34.000
 116779557.592 7  90997093.77844  22222417.305                    22222420.164
        42.300          27.400
 18  3 13 15  8 55.0000000  0 20R01G19G22G25R08R10R09R16R17R18R19G31
                                R02G12G06G03G32G24G17G14
                  86017859.165 6  20688977.344                    20688980.824
                        37.900
 114368137.777 7  89118032.54645  21763532.375                    21763533.754
        46.500          34.500
 122037960.219 7  95094512.24144  23223050.734                    23223051.582
        42.700          25.900
 116856029.228 7  91056586.44645  22236943.805                    22236949.652
        47.500          30.100
                  91730135.631 6  22024227.953                    22024229.793
                        36.400
                  86557138.570 5  20877295.039                    20877299.313
                        35.600
                  81126077.804 6  19532967.398                    19532967.449
                        41.000
                  94302144.571 4  22697431.648                    22697435.117
                        26.600
                  91616402.896 6  22012344.266                    22012346.180
                        41.200
                  82395960.328 6  19845740.516                    19845742.305
                        40.900
                  90230100.935 6  21686872.813                    21686871.484
                        38.300
 124887820.885 5                  23765362.633
        34.900
                  95177074.813 6  22932180.438                    22932183.152
                        38.900
 107909098.931 8  84084907.34246  20534418.773                    20534421.426
        51.500          38.200
 119278963.578 7  92944695.70645  22698038.016                    22698044.602
        45.200          32.800
 119483444.669 7  93103886.72245  22736914.250                    22736920.434
        46.400          33.400
 117939188.022 7  91900671.65344  22443089.469                    22443094.750
        44.500          29.500
 123503630.504 6  96236676.32044  23501973.109                    23501979.789
        41.400          24.900
 121583976.566 7  94740771.60845  23136659.766                    23136663.961
        46.100          34.100
 116779606.197 7  90997131.67544  22222426.734                    22222429.043
        42.600          27.000
 18  3 13 15  8 56.0000000  0 20R01G19G22G25R08R10R09R16R17R18R19G31
                                R02G12G06G03G32G24G17G14
                  86018238.213 6  20689068.172                    20689071.859
                        37.900
 114370453.974 7  89119837.37345  21763973.203                    21763974.578
        46.300          34.400
 122039040.314 6  95095353.88244  23223255.813                    23223257.199
        41.300          26.200
 116853524.726 7  91054634.89645  22236466.883                    22236472.688
        47.600          30.600
                  91733199.638 6  22024962.977                    22024965.164
                        36.600
                  86554897.294 5  20876755.148                    20876758.715
                        35.500
                  81127182.704 6  19533234.016                    19533233.344
                        41.100
                  94305866.489 4  22698327.641                    22698329.863
                        26.800
                  91619666.079 6  22013127.984                    22013129.750
                        41.500
                  82396360.418 6  19845837.125                    19845838.785
                        41.100
                  90227388.594 6  21686220.977                    21686219.660
                        38.100
 124884809.254 5                  23764790.070
        35.600
                  95174296.282 6  22931510.078                    22931513.188
                        39.700
 107909253.916 8  84085028.11546  20534448.172                    20534450.961
        51.500          38.100
 119276923.215 7  92943105.80145  22697650.156                    22697656.148
        45.300          33.100
 119483087.961 7  93103608.76445  22736846.250                    22736852.961
        46.500          33.900
 117941300.623 7  91902317.84144  22443491.242                    22443496.480
        44.900          29.500
 123507602.634 6  96239771.49144  23502729.484                    23502735.406
        41.300          24.900
 121587067.710 7  94743180.28245  23137248.156                    23137252.148
        46.500          34.000
 116779655.488 7  90997170.09644  22222435.805                    22222438.691
        42.000          26.900
 18  3 13 15  8 57.0000000  0 20R01G19G22G25R08R10R09R16R17R18R19G31
                                R02G12G06G03G32G24G17G14
                  86018617.962 6  20689159.820                    20689163.887
                        37.400
 114372770.802 7  89121642.68945  21764414.250                    21764415.820
        46.300          34.200
 122040120.855 7  95096195.87444  23223461.734                    23223462.750
        42.500          29.000
 116851020.677 7  91052683.69645  22235990.172                    22235996.309
        47.900          30.300
                  91736264.090 6  22025699.281                    22025700.746
                        36.500
                  86552656.428 5  20876214.164                    20876218.188
                        34.900
                  81128288.239 6  19533499.547                    19533499.309
                        41.300
                  94309588.578 4  22699223.695                    22699225.766
                        26.100
                  91622929.590 6  22013912.289                    22013914.145
                        41.600
                  82396761.232 6  19845934.039                    19845935.816
                        41.000
                  90224676.609 6  21685568.477                    21685567.813
                        37.900
 124881797.958 6                  23764217.273
        36.000
                  95171518.062 6  22930841.008                    22930844.602
                        37.400
 107909409.609 8  84085149.43846  20534477.758                    20534480.227
        51.700          37.900
 119274883.346 7  92941516.28245  22697261.602                    22697268.164
        45.100          33.300
 119482731.985 7  93103331.37245  22736778.484                    22736784.863
        45.600          32.300
 117943413.833 7  91903964.49544  22443893.320                    22443898.656
        45.200          29.700
 123511574.976 6  96242866.81943  23503485.883                    23503491.238
        41.400          23.500
 121590159.291 7  94745589.30445  23137836.641                    23137840.547
        47.100          34.200
 116779705.392 6  90997208.97644  22222445.180                    22222448.352
        41.900          26.300
 18  3 13 15  8 58.0000000  0 20R01G19G22G25R08R10R09R16R17R18R19G31
                                R02G12G06G03G32G24G17G14
                  86018998.508 6  20689251.367                    20689255.262
                        36.900
 114375088.315 7  89123448.53445  21764855.195                    21764856.953
        46.700          34.200
 122041202.158 7  95097038.45944  23223667.672                    23223668.480
        42.500          28.200
 116848517.159 7  91050732.90245  22235514.188                    22235519.762
        47.300          31.400
                  91739329.058 6  22026434.977                    22026437.043
                        36.600
                  86550416.030 5  20875673.641                    20875677.668
                        35.300
                  81129394.460 6  19533766.391                    19533765.844
                        41.100
                  94313310.905 4  22700119.969                    22700122.289
                        27.600
                  91626193.521 6  22014696.563                    22014697.914
                        40.400
                  82397162.820 6  19846030.422                    19846032.008
                        40.700
                  90221965.053 6  21684916.836                    21684916.375
                        38.000
 124878786.976 5                  23763643.672
        35.900
                  95168740.197 6  22930171.648                    22930174.875
                        37.400
 107909566.048 8  84085271.33746  20534507.695                    20534510.625
        51.500          37.900
 119272844.078 7  92939927.23845  22696873.617                    22696880.254
        45.100          32.800
 119482376.678 7  93103054.50545  22736710.969                    22736717.223
        47.900          34.900
 117945527.729 7  91905611.69044  22444295.789                    22444301.195
        45.500          29.300
 123515547.628 6  96245962.38543  23504241.789                    23504247.652
        41.200          23.200
 121593251.313 7  94747998.67145  23138425.227                    23138429.223
        46.300          33.400
 116779756.008 7  90997248.41544  22222454.445                    22222457.531
        42.200          26.200
 18  3 13 15  8 59.0000000  0 20R01G19G22G25R08R10R09R16R17R18R19G31
                                R02G12G06G03G32G24G17G14
                  86019379.813 6  20689342.891                    20689346.188
                        37.000
 114377406.493 7  89125254.90345  21765296.664                    21765297.902
        46.400          34.300
 122042284.071 7  95097881.51844  23223873.656                    23223874.570
        42.900          29.000
 116846014.108 7  91048782.48445  22235037.430                    22235043.805
        47.100          31.100
                  91742394.431 6  22027170.914                    22027172.949
                        36.000
                  86548176.080 5  20875132.789                    20875136.914
                        35.600
                  81130501.342 6  19534032.109                    19534032.156
                        41.500
                  94317033.422 4  22701016.500                    22701018.129
                        27.500
                  91629457.828 6  22015481.391                    22015482.441
                        41.400
                  82397565.167 6  19846127.195                    19846128.930
                        40.800
                  90219253.888 6  21684264.719                    21684264.199
                        37.600
 124875776.336 5                  23763070.617
        35.400
                  95165962.667 6  22929502.328                    22929505.371
                        38.000
 107909723.209 8  84085393.80146  20534537.813                    20534540.402
        51.200          38.100
 119270805.312 7  92938338.59245  22696485.664                    22696492.188
        45.200          32.900
 119482022.110 7  93102778.20845  22736643.578                    22736649.996
        47.000          33.500
 117947642.237 7  91907259.35944  22444698.531                    22444703.254
        44.900          29.700
 123519520.596 6  96249058.20044  23504997.922                    23505003.332
        41.300          24.600
 121596343.751 7  94750408.36845  23139013.180                    23139017.414
        46.600          34.100
 116779807.317 7  90997288.39644  22222464.172                    22222467.379
        42.400          26.600
 18  3 13 15  9  0.0000000  0 20R01G19G22G25R08R10R09R16R17R18R19G31
                                R02G12G06G03G32G24G17G14
                  86019761.850 6  20689435.250                    20689438.383
                        37.000
 114379725.317 7  89127061.77745  21765738.211                    21765739.219
        46.100          34.100
 122043366.613 7  95098725.06444  23224079.109                    23224080.543
        43.400          28.900
 116843511.507 7  91046832.42545  22234561.305                    22234567.445
        47.600          30.900
                  91745460.189 6  22027906.836                    22027908.965
                        36.300
                  86545936.562 5  20874593.211                    20874597.621
                        35.700
                  81131608.850 6  19534299.289                    19534299.047
                        41.400
                  94320756.132 4  22701912.719                    22701913.766
                        27.200
                  91632722.506 6  22016265.500                    22016267.266
                        41.800
                  82397968.209 6  19846224.125                    19846226.074
                        41.100
                  90216543.063 6  21683614.188                    21683612.988
                        37.600
 124872765.931 5                  23762497.305
        35.400
                  95163185.411 6  22928834.078                    22928836.195
                        37.600
 107909881.041 8  84085516.77846  20534567.617                    20534570.336
        51.500          38.000
 119268767.090 7  92936750.37245  22696097.977                    22696104.371
        45.600          32.800
 119481668.208 7  93102502.43645  22736576.484                    22736582.270
        46.900          33.800
 117949757.342 7  91908907.49144  22445100.516                    22445105.922
        45.100          29.300
 123523493.799 6  96252154.20643  23505753.219                    23505759.285
        40.900          22.900
 121599436.575 7  94752818.35745  23139601.945                    23139606.230
        45.900          33.900
 116779859.224 7  90997328.85144  22222474.492                    22222477.508
        42.600          25.800
 18  3 13 15  9  1.0000000  0 20R01G19G22G25R08R10R09R16R17R18R19G31
                                R02G12G06G03G32G24G17G14
                  86020144.594 6  20689526.375                    20689530.254
                        36.800
 114382044.754 7  89128869.12945  21766179.180                    21766180.613
        46.000          34.300
 122044449.759 7  95099569.08044  23224285.578                    23224286.578
        43.600          27.000
 116841009.351 7  91044882.69945  22234085.430                    22234091.270
        47.500          31.200
                  91748526.454 6  22028643.727                    22028645.617
                        36.100
                  86543697.476 6  20874052.516                    20874057.090
                        36.000
                  81132716.984 6  19534565.609                    19534565.656
                        41.100
                  94324479.011 4  22702808.141                    22702809.859
                        28.000
                  91635987.552 6  22017049.000                    22017052.043
                        40.900
                  82398371.935 6  19846321.086                    19846322.898
                        40.900
                  90213832.637 6  21682962.453                    21682961.395
                        37.700
 124869755.801 5                  23761924.680
        35.400
                  95160408.482 6  22928163.625                    22928167.348
                        37.700
 107910039.610 8  84085640.33046  20534598.031                    20534600.563
        51.200          37.700
 119266729.394 7  92935162.55845  22695709.891                    22695716.785
        45.500          32.700
 119481315.009 7  93102227.21545  22736509.188                    22736515.531
        47.200          33.600
 117951873.060 7  91910556.10544  22445503.172                    22445508.023
        44.900          28.700
 123527467.274 6  96255250.42043  23506509.078                    23506515.316
        40.300          23.300
 121602529.795 7  94755228.65845  23140190.750                    23140194.719
        45.700          34.100
 116779911.797 7  90997369.81144  22222484.695                    22222487.500
        42.000          26.500
 18  3 13 15  9  2.0000000  0 20R01G19G22G25R08R10R09R16R17R18R19G31
                                R02G12G06G03G32G24G17G14
                  86020528.135 6  20689619.195                    20689622.664
                        37.200
 114384364.892 7  89130677.02445  21766620.625                    21766622.277
        46.600          34.300
 122045533.515 7  95100413.57244  23224491.211                    23224492.633
        43.000          26.900
 116838507.675 7  91042933.35145  22233609.438                    22233615.414
        47.300          31.600
                  91751593.166 6  22029379.484                    22029381.559
                        36.100
                  86541458.845 6  20873513.477                    20873517.121
                        36.400
                  81133825.790 6  19534832.719                    19534833.074
                        40.800
                  94328202.140 4  22703703.914                    22703705.926
                        28.900
                  91639253.011 6  22017833.750                    22017836.211
                        41.500
                  82398776.406 6  19846418.586                    19846420.871
                        40.900
                  90211122.598 6  21682310.414                    21682310.238
                        37.600
 124866745.955 5                  23761351.672
        35.100
                  95157631.921 6  22927495.648                    22927498.434
                        37.200
 107910198.895 8  84085764.44846  20534628.000                    20534631.000
        51.100          38.200
 119264692.236 7  92933575.17045  22695322.602                    22695328.871
        45.700          32.800
 119480962.535 7  93101952.55845  22736441.820                    22736448.102
        46.600          33.200
 117953989.445 7  91912205.24344  22445905.758                    22445910.996
        44.600          28.900
 123531441.025 6  96258346.85144  23507265.742                    23507271.496
        40.800          25.300
 121605623.424 7  94757639.27945  23140779.336                    23140783.117
        45.700          34.400
 116779965.056 7  90997411.29644  22222495.063                    22222497.508
        42.300          25.300
 18  3 13 15  9  3.0000000  0 20R01G19G22G25R08R10R09R16R17R18R19G31
                                R02G12G06G03G32G24G17G14
                  86020912.405 6  20689711.336                    20689714.938
                        36.900
 114386685.668 7  89132485.41045  21767061.898                    21767063.941
        46.800          34.900
 122046617.947 7  95101258.58844  23224697.711                    23224698.984
        43.600          27.900
 116836006.466 7  91040984.36645  22233133.555                    22233139.148
        47.300          30.700
                  91754660.335 6  22030116.703                    22030118.238
                        36.200
                  86539220.622 6  20872973.438                    20872977.793
                        36.000
                  81134935.244 6  19535100.438                    19535099.719
                        41.000
                  94331925.374 4  22704599.461                    22704601.953
                        29.200
                  91642518.837 6  22018619.055                    22018620.195
                        41.700
                  82399181.603 6  19846516.984                    19846518.070
                        40.900
                  90208412.983 6  21681659.125                    21681658.605
                        37.500
 124863736.414 5                  23760779.031
        35.400
                  95154855.701 6  22926827.430                    22926829.031
                        37.000
 107910358.902 8  84085889.12546  20534658.758                    20534661.176
        50.600          37.900
 119262655.599 7  92931988.18645  22694934.477                    22694941.539
        45.400          32.900
 119480610.717 7  93101678.40945  22736374.758                    22736381.414
        46.700          33.200
 117956106.425 7  91913854.84144  22446308.938                    22446313.723
        44.700          29.900
 123535415.063 6  96261443.50444  23508021.961                    23508027.773
        40.700          24.600
 121608717.463 7  94760050.21345  23141367.969                    23141371.703
        45.800          34.600
 116780018.935 7  90997453.27144  22222505.039                    22222507.703
        42.400          25.200
 18  3 13 15  9  4.0000000  0 20R01G19G22G25R08R10R09R16R17R18R19G31
                                R02G12G06G03G32G24G17G14
                  86021297.459 6  20689803.766                    20689808.207
                        36.400
 114389007.131 7  89134294.33445  21767503.938                    21767505.441
        46.700          34.900
 122047702.968 7  95102104.05744  23224904.750                    23224905.559
        43.100          28.500
 116833505.746 7  91039035.76545  22232657.266                    22232663.254
        47.600          31.000
                  91757727.891 5  22030853.148                    22030854.930
                        35.600
                  86536982.833 6  20872433.289                    20872437.156
                        36.200
                  81136045.367 6  19535367.359                    19535367.176
                        40.900
                  94335648.821 4  22705494.469                    22705498.352
                        28.800
                  91645785.016 6  22019404.125                    22019405.781
                        41.500
                  82399587.557 6  19846614.297                    19846615.488
                        40.800
                  90205703.779 6  21681008.695                    21681007.633
                        37.900
 124860727.219 5                  23760207.313
        35.600
                  95152079.803 6  22926157.539                    22926160.266
                        36.900
 107910519.617 8  84086014.36146  20534689.070                    20534692.000
        50.600          38.300
 119260619.507 7  92930401.62545  22694547.539                    22694554.063
        45.200          32.300
 119480259.623 7  93101404.83545  22736307.859                    22736314.406
        46.400          33.600
 117958224.030 7  91915504.92544  22446711.703                    22446716.922
        45.000          29.400
 123539389.395 6  96264540.38544  23508778.203                    23508784.223
        40.700          24.100
 121611811.922 7  94762461.46945  23141956.891                    23141960.781
        46.100          34.000
 116780073.512 7  90997495.78644  22222515.430                    22222518.012
        42.200          26.000
 18  3 13 15  9  5.0000000  0 20R01G19G22G25R08R10R09R16R17R18R19G31
                                R02G12G06G03G32G24G17G14
                  86021683.279 6  20689896.727                    20689900.266
                        36.600
 114391329.277 7  89136103.79945  21767945.852                    21767947.223
        46.800          34.400
 122048788.664 7  95102950.03544  23225111.055                    23225112.348
        42.600          27.200
 116831005.521 7  91037087.53845  22232181.883                    22232187.527
        47.900          31.100
                  91760795.979 5  22031589.648                    22031591.008
                        35.500
                  86534745.513 6  20871893.711                    20871898.102
                        36.600
                  81137156.162 6  19535634.453                    19535634.773
                        40.900
                  94339372.513 4  22706389.828                    22706394.969
                        29.100
                  91649051.630 6  22020187.914                    22020190.586
                        40.400
                  82399994.293 6  19846712.477                    19846713.883
                        40.600
                  90202995.031 6  21680358.133                    21680356.461
                        38.000
 124857718.360 5                  23759634.688
        35.800
                  95149304.272 6  22925489.258                    22925491.242
                        36.900
 107910681.100 8  84086140.20046  20534720.008                    20534722.637
        50.300          38.400
 119258583.992 7  92928815.51745  22694159.781                    22694166.410
        45.600          32.800
 119479909.295 7  93101131.85845  22736241.102                    22736247.922
        46.400          33.200
 117960342.294 7  91917155.52544  22447114.953                    22447120.121
        44.600          29.300
 123543364.035 6  96267637.52644  23509534.656                    23509540.727
        41.500          25.100
 121614906.859 7  94764873.11345  23142546.438                    23142549.961
        45.800          34.100
 116780128.803 7  90997538.86744  22222525.859                    22222528.609
        42.000          26.400
 18  3 13 15  9  6.0000000  0 20R01G19G22G25R08R10R09R16R17R18R19G31
                                R02G12G06G03G32G24G17G14
                  86022069.897 6  20689989.891                    20689993.984
                        36.400
 114393652.110 7  89137913.79545  21768387.844                    21768389.199
        46.600          34.100
 122049875.033 7  95103796.55544  23225317.914                    23225318.750
        42.600          28.000
 116828505.782 7  91035139.68745  22231706.055                    22231711.906
        47.900          30.500
                  91763864.518 6  22032326.531                    22032327.832
                        36.200
                  86532508.640 6  20871354.875                    20871358.496
                        36.000
                  81138267.614 6  19535902.102                    19535902.293
                        41.000
                  94343096.441 4  22707287.414                    22707291.168
                        29.600
                  91652318.707 6  22020972.828                    22020975.211
                        41.100
                  82400401.782 6  19846810.383                    19846812.219
                        40.600
                  90200286.667 6  21679706.742                    21679705.691
                        37.400
 124854709.840 6                  23759061.977
        36.300
                  95146529.071 5  22924821.219                    22924822.887
                        33.700
 107910843.342 8  84086266.62046  20534750.719                    20534753.352
        50.200          38.500
 119256549.022 7  92927229.84045  22693772.961                    22693779.594
        45.100          32.300
 119479559.680 7  93100859.44145  22736174.750                    22736181.125
        46.700          34.800
 117962461.245 7  91918806.65444  22447518.008                    22447523.113
        44.800          29.400
 123547338.929 6  96270734.86543  23510290.664                    23510297.195
        41.500          23.500
 121618002.224 7  94767285.08445  23143135.227                    23143139.102
        46.300          35.000
 116780184.803 6  90997582.52444  22222535.969                    22222539.199
        41.100          26.700
 18  3 13 15  9  7.0000000  0 20R01G19G22G25R08R10R09R16R17R18R19G31
                                R02G12G06G03G32G24G17G14
                  86022457.193 6  20690083.438                    20690086.855
                        37.100
 114395975.559 7  89139724.27745  21768829.828                    21768831.367
        46.800          34.400
 122050961.963 7  95104643.51044  23225524.320                    23225525.859
        43.400          28.000
 116826006.486 8  91033192.18445  22231230.273                    22231236.340
        48.000          30.800
                  91766933.521 6  22033064.102                    22033064.152
                        36.300
                  86530272.184 6  20870815.281                    20870818.918
                        36.100
                  81139379.695 6  19536170.336                    19536169.828
                        41.400
                  94346820.495 4  22708183.742                    22708187.500
                        29.300
                  91655586.070 6  22021757.211                    22021760.594
                        39.200
                  82400809.957 6  19846908.688                    19846910.039
                        40.700
                  90197578.693 6  21679055.359                    21679054.145
                        37.400
 124851701.565 5                  23758488.781
        35.500
                  95143754.108 6  22924151.320                    22924154.344
                        36.500
 107911006.240 8  84086393.56246  20534781.688                    20534784.637
        50.500          38.500
 119254514.568 7  92925644.55945  22693385.492                    22693392.078
        44.600          31.900
 119479210.757 7  93100587.55144  22736108.594                    22736114.832
        44.500          27.800
 117964580.748 7  91920458.21244  22447921.695                    22447926.320
        45.000          29.400
 123551314.073 6  96273832.37643  23511047.406                    23511053.711
        41.200          22.300
 121621097.987 7  94769697.36145  23143723.836                    23143728.055
        46.100          34.700
 116780241.379 6  90997626.62844  22222546.711                    22222550.039
        40.500          26.200
 18  3 13 15  9  8.0000000  0 19R01G19G22G25R08R10R09R17R18R19G31R02
                                G12G06G03G32G24G17G14
                  86022845.265 6  20690176.094                    20690180.020
                        36.900
 114398299.694 7  89141535.28545  21769272.438                    21769273.676
        46.400          33.800
 122052049.498 7  95105490.93144  23225731.266                    23225732.621
        43.900          29.100
 116823507.680 7  91031245.06345  22230755.031                    22230760.844
        47.900          30.800
                  91770002.986 6  22033800.773                    22033802.199
                        36.000
                  86528036.212 5  20870275.438                    20870279.297
                        35.300
                  81140492.457 6  19536437.891                    19536438.039
                        41.200
                  91658853.834 7  22022543.852                    22022545.996
                        43.100
                  82401218.868 6  19847007.203                    19847009.098
                        40.400
                  90194871.058 6  21678404.633                    21678403.582
                        37.500
 124848693.675 5                  23757917.297
        35.300
                  95140979.559 6  22923484.172                    22923485.938
                        37.300
 107911169.883 8  84086521.07746  20534812.969                    20534815.902
        50.100          38.400
 119252480.649 7  92924059.69745  22692998.203                    22693004.801
        45.000          33.000
 119478862.500 6  93100316.20244  22736041.789                    22736048.527
        41.800          27.400
 117966700.900 7  91922110.28144  22448325.172                    22448330.082
        44.800          29.300
 123555289.512 6  96276930.12143  23511803.977                    23511810.074
        40.700          22.300
 121624194.135 7  94772109.94945  23144312.867                    23144317.020
        46.500          34.600
 116780298.639 6  90997671.26744  22222556.828                    22222561.000
        40.500          26.500
 18  3 13 15  9  9.0000000  0 19R01G19G22G25R08R10R09R17R18R19G31R02
                                G12G06G03G32G24G17G14
                  86023234.073 6  20690270.484                    20690273.762
                        37.400
 114400624.466 7  89143346.78845  21769714.555                    21769716.340
        46.700          34.200
 122053137.923 6  95106339.03743  23225938.602                    23225939.816
        39.600          22.000
 116821009.315 7  91029298.28745  22230279.352                    22230285.414
        47.800          31.400
                  91773072.889 6  22034538.617                    22034538.918
                        36.000
                  86525800.643 5  20869735.281                    20869739.980
                        35.800
                  81141605.847 6  19536706.383                    19536706.199
                        41.200
                  91662121.945 7  22023329.563                    22023330.953
                        42.300
                  82401628.482 6  19847105.570                    19847108.031
                        40.600
                  90192163.810 6  21677752.953                    21677752.707
                        37.900
 124845686.037 5                  23757344.922
        34.300
                  95138205.301 6  22922814.852                    22922817.023
                        37.500
 107911334.227 8  84086649.13746  20534844.313                    20534846.707
        50.300          38.500
 119250447.268 7  92922475.25845  22692611.203                    22692618.000
        45.100          33.200
 119478514.921 7  93100045.36445  22735976.273                    22735982.602
        46.900          34.800
 117968821.670 7  91923762.83545  22448728.539                    22448733.602
        45.100          30.100
 123559265.222 6  96280028.05743  23512560.445                    23512566.414
        40.900          22.600
 121627290.703 7  94774522.86745  23144902.852                    23144906.313
        46.600          34.800
 116780356.526 6  90997716.36944  22222568.453                    22222571.891
        40.600          25.300
 18  3 13 15  9 10.0000000  0 19R01G19G22G25R08R10R09R17R18R19G31R02
                                G12G06G03G32G24G17G14
                  86023623.604 5  20690363.492                    20690367.230
                        35.700
 114402949.883 7  89145158.80245  21770157.133                    21770158.398
        46.600          34.600
 122054226.604 6  95107187.36343  23226145.633                    23226146.668
        39.000          22.200
 116818511.409 7  91027351.86845  22229804.617                    22229810.219
        47.800          31.300
                  91776143.182 5  22035274.891                    22035276.672
                        35.300
                  86523565.513 5  20869196.641                    20869201.742
                        35.500
                  81142719.883 6  19536975.094                    19536974.641
                        41.000
                  91665390.440 6  22024114.703                    22024116.203
                        41.900
                  82402038.839 6  19847204.578                    19847205.988
                        40.900
                  90189456.880 6  21677103.914                    21677102.734
                        38.200
 124842678.669 5                  23756771.875
        35.000
                  95135431.439 6  22922147.539                    22922149.055
                        37.800
 107911499.263 8  84086777.73246  20534875.742                    20534878.469
        50.400          38.700
 119248414.357 7  92920891.18145  22692224.203                    22692231.234
        45.200          33.000
 119478168.048 7  93099775.08345  22735910.063                    22735916.297
        45.800          33.600
 117970943.025 7  91925415.84744  22449132.211                    22449137.367
        44.700          29.100
 123563241.151 6  96283126.18143  23513317.188                    23513323.336
        41.200          22.800
 121630387.659 7  94776936.08645  23145492.078                    23145495.969
        46.800          35.500
 116780415.144 6  90997762.04044  22222580.750                    22222583.273
        40.800          26.500
 18  3 13 15  9 11.0000000  0 20R01G19G22G25R08R10R09R16R17R18R19G31
                                R02G12G06G03G32G24G17G14
                  86024013.866 6  20690456.898                    20690460.512
                        36.000
 114405275.929 7  89146971.29445  21770600.109                    21770601.477
        46.400          34.600
 122055316.038 7  95108036.28844  23226353.398                    23226354.465
        42.500          24.900
 116816013.962 7  91025405.79945  22229328.500                    22229334.500
        47.900          30.900
                  91779213.903 6  22036011.156                    22036013.016
                        36.700
                  86521330.801 5  20868658.461                    20868662.117
                        35.600
                  81143834.543 6  19537242.609                    19537242.414
                        41.200
                  94361718.60414  22711770.992                    22711773.148
                        26.600
                  91668659.307 6  22024899.633                    22024901.469
                        41.900
                  82402449.912 6  19847303.250                    19847305.102
                        40.600
                  90186750.359 6  21676452.516                    21676452.145
                        37.600
 124839671.690 5                  23756198.961
        35.800
                  95132657.887 6  22921477.758                    22921480.715
                        38.500
 107911665.007 8  84086906.88746  20534907.016                    20534910.035
        50.200          38.400
 119246381.994 7  92919307.53345  22691837.953                    22691844.328
        45.600          33.600
 119477821.837 7  93099505.31145  22735843.969                    22735850.570
        45.800          34.300
 117973064.984 7  91927069.31544  22449535.781                    22449540.824
        44.800          29.000
 123567217.327 6  96286224.50843  23514073.977                    23514079.938
        41.600          23.000
 121633484.994 7  94779349.59845  23146080.945                    23146085.387
        46.400          34.800
 116780474.336 6  90997808.16644  22222591.391                    22222594.520
        41.300          26.500
 18  3 13 15  9 12.0000000  0 20R01G19G22G25R08R10R09R16R17R18R19G31
                                R02G12G06G03G32G24G17G14
                  86024404.888 6  20690551.688                    20690555.242
                        36.600
 114407602.643 7  89148784.31345  21771042.680                    21771044.023
        46.400          34.800
 122056406.150 7  95108885.74744  23226560.867                    23226561.887
        42.400          26.300
 116813517.004 7  91023460.12145  22228853.781                    22228859.617
        47.800          31.900
                  91782285.124 6  22036750.016                    22036750.488
                        36.600
                  86519096.527 6  20868118.953                    20868123.254
                        36.400
                  81144949.882 6  19537511.500                    19537511.098
                        41.200
                  94365443.544 4  22712667.797                    22712669.609
                        28.400
                  91671928.583 6  22025684.242                    22025686.813
                        41.900
                  82402861.730 6  19847402.844                    19847404.113
                        40.700
                  90184044.245 6  21675802.266                    21675801.969
                        37.900
 124836664.850 6                  23755627.430
        37.200
                  95129884.636 6  22920809.758                    22920812.609
                        37.900
 107911831.474 8  84087036.60146  20534938.703                    20534941.676
        49.800          38.600
 119244350.161 7  92917724.30145  22691451.531                    22691458.059
        45.200          33.100
 119477476.340 7  93099236.08545  22735778.195                    22735785.121
        45.900          34.100
 117975187.594 7  91928723.29944  22449939.695                    22449944.887
        45.100          28.800
 123571193.805 6  96289323.05043  23514830.359                    23514836.813
        41.900          23.200
 121636582.763 7  94781763.44245  23146670.609                    23146675.055
        45.700          34.800
 116780534.213 7  90997854.82644  22222603.258                    22222605.688
        42.000          27.000
 18  3 13 15  9 13.0000000  0 20R01G19G22G25R08R10R09R16R17R18R19G31
                                R02G12G06G03G32G24G17G14
                  86024796.609 6  20690646.164                    20690649.570
                        36.600
 114409929.985 7  89150597.81945  21771485.438                    21771487.023
        46.800          34.200
 122057496.874 6  95109735.66844  23226768.414                    23226769.480
        41.300          25.700
 116811020.479 7  91021514.78145  22228378.750                    22228384.652
        47.900          31.300
                  91785356.722 5  22037487.406                    22037488.406
                        35.900
                  86516862.656 5  20867580.641                    20867584.387
                        35.100
                  81146065.848 6  19537780.148                    19537779.422
                        40.900
                  94369168.735 4  22713564.383                    22713566.043
                        28.300
                  91675198.244 7  22026470.320                    22026472.977
                        42.100
                  82403274.242 6  19847501.805                    19847504.266
                        40.500
                  90181338.545 6  21675151.891                    21675151.805
                        37.200
 124833658.350 5                  23755055.250
        34.600
                  95127111.651 6  22920141.484                    22920143.941
                        38.500
 107911998.619 8  84087166.85146  20534970.523                    20534973.266
        49.900          38.800
 119242318.849 7  92916141.46345  22691064.695                    22691071.406
        45.300          33.000
 119477131.505 7  93098967.38145  22735712.891                    22735719.309
        45.500          33.200
 117977310.805 7  91930377.74144  22450343.594                    22450348.852
        45.100          28.700
 123575170.513 6  96292421.78243  23515587.203                    23515592.957
        41.800          21.700
 121639680.902 7  94784177.56745  23147260.422                    23147264.086
        46.000          34.900
 116780594.693 6  90997901.95544  22222615.063                    22222617.434
        40.900          25.400
 18  3 13 15  9 14.0000000  0 20R01G19G22G25R08R10R09R16R17R18R19G31
                                R02G12G06G03G32G24G17G14
                  86025189.099 6  20690740.156                    20690744.063
                        36.200
 114412258.019 7  89152411.86145  21771928.492                    21771929.555
        46.400          33.800
 122058588.220 6  95110586.08044  23226975.828                    23226976.699
        41.100          26.100
 116808524.438 7  91019569.80945  22227903.641                    22227909.871
        47.700          30.900
                  91788428.834 6  22038225.180                    22038225.660
                        36.500
                  86514629.203 5  20867041.930                    20867045.797
                        35.600
                  81147182.455 6  19538049.109                    19538048.578
                        41.200
                  94372894.056 4  22714461.070                    22714462.660
                        27.700
                  91678468.304 6  22027256.898                    22027258.805
                        41.600
                  82403687.505 6  19847601.945                    19847603.488
                        40.500
                  90178633.232 6  21674501.055                    21674501.297
                        37.500
 124830652.198 5                  23754483.648
        35.200
                  95124338.970 6  22919473.531                    22919476.770
                        38.600
 107912166.494 8  84087297.66746  20535002.477                    20535005.234
        49.300          38.300
 119240288.069 7  92914559.04845  22690678.047                    22690684.512
        45.700          33.000
 119476787.400 7  93098699.23745  22735647.234                    22735653.453
        45.800          33.100
 117979434.626 7  91932032.67044  22450747.734                    22450752.938
        44.800          28.700
 123579147.523 6  96295520.74243  23516343.930                    23516349.633
        41.800          22.500
 121642779.482 7  94786592.03845  23147850.055                    23147853.461
        45.700          35.200
 116780655.874 6  90997949.63644  22222626.617                    22222628.875
        40.700          25.500
 18  3 13 15  9 15.0000000  0 20R01G19G22G25R08R10R09R16R17R18R19G31
                                R02G12G06G03G32G24G17G14
                  86025582.348 5  20690834.609                    20690838.117
                        35.900
 114414586.725 7  89154226.43345  21772371.445                    21772373.105
        46.400          34.600
 122059680.249 6  95111437.02144  23227184.031                    23227184.785
        40.800          25.300
 116806028.884 7  91017625.21945  22227428.461                    22227434.457
        47.600          31.000
                  91791501.317 5  22038963.703                    22038963.180
                        35.700
                  86512396.175 5  20866503.008                    20866506.871
                        35.400
                  81148299.746 6  19538318.203                    19538318.285
                        40.900
                  94376619.599 4  22715358.648                    22715359.004
                        28.300
                  91681738.748 6  22028042.422                    22028043.879
                        41.700
                  82404101.505 6  19847701.469                    19847703.008
                        40.600
                  90175928.354 6  21673851.516                    21673850.879
                        38.000
 124827646.386 5                  23753911.492
        35.200
                  95121566.670 6  22918805.047                    22918808.832
                        38.700
 107912335.129 8  84087429.06346  20535034.688                    20535037.246
        49.400          38.400
 119238257.834 7  92912977.05545  22690292.016                    22690298.496
        46.000          33.200
 119476444.004 7  93098431.66145  22735582.063                    22735588.082
        46.300          33.300
 117981559.115 7  91933688.11644  22451151.906                    22451157.105
        44.500          29.300
 123583124.831 7  96298619.94343  23517100.969                    23517106.875
        42.200          22.200
 121645878.484 7  94789006.84645  23148439.570                    23148443.563
        45.500          35.100
 116780717.723 6  90997997.81344  22222637.664                    22222640.492
        40.400          26.100
 18  3 13 15  9 16.0000000  0 20R01G19G22G25R08R10R09R16R17R18R19G31
                                R02G12G06G03G32G24G17G14
                  86025976.371 5  20690929.289                    20690932.801
                        35.800
 114416916.104 7  89156041.52245  21772814.883                    21772816.488
        46.500          34.600
 122060772.900 6  95112288.45944  23227391.297                    23227392.504
        40.400          24.100
 116803533.837 7  91015681.02345  22226953.898                    22226959.863
        47.800          30.700
                  91794574.340 6  22039700.586                    22039701.203
                        36.200
                  86510163.630 5  20865965.172                    20865968.512
                        35.200
                  81149417.723 6  19538587.094                    19538587.172
                        41.300
                  94380345.358 4  22716253.961                    22716255.965
                        26.800
                  91685009.583 6  22028828.117                    22028829.965
                        41.600
                  82404516.260 6  19847801.188                    19847802.844
                        40.500
                  90173223.884 6  21673201.617                    21673200.695
                        38.100
 124824640.876 5                  23753339.977
        35.600
                  95118794.735 6  22918137.656                    22918141.129
                        38.500
 107912504.509 8  84087561.05046  20535066.805                    20535069.648
        49.300          38.300
 119236228.155 7  92911395.49845  22689905.734                    22689912.527
        45.900          32.500
 119476101.356 7  93098164.66845  22735516.508                    22735523.160
        46.500          33.500
 117983684.230 7  91935344.05744  22451556.555                    22451561.973
        44.400          29.800
 123587102.408 6  96301719.36943  23517857.703                    23517863.313
        41.700          22.800
 121648977.943 7  94791422.00745  23149029.813                    23149033.344
        44.900          34.100
 116780780.281 6  90998046.55544  22222649.406                    22222652.262
        40.100          26.500
 18  3 13 15  9 17.0000000  0 20R01G19G22G25R08R10R09R16R17R18R19G31
                                R02G12G06G03G32G24G17G14
                  86026371.110 6  20691024.125                    20691027.270
                        36.600
 114419246.116 7  89157857.10345  21773258.328                    21773259.840
        46.700          34.200
 122061866.145 6  95113140.35644  23227599.055                    23227600.367
        40.900          25.800
 116801039.231 7  91013737.17345  22226479.070                    22226485.387
        47.400          31.100
                  91797647.757 6  22040439.180                    22040439.617
                        36.000
                  86507931.503 6  20865426.523                    20865430.121
                        36.000
                  81150536.332 6  19538856.023                    19538856.219
                        41.400
                  94384071.310 4  22717150.484                    22717153.117
                        28.000
                  91688280.811 6  22029613.688                    22029615.699
                        41.800
                  82404931.735 6  19847901.250                    19847902.871
                        40.600
                  90170519.723 6  21672552.523                    21672550.910
                        37.900
 124821635.642 6                  23752767.797
        36.100
                  95116023.112 6  22917469.836                    22917472.977
                        38.700
 107912674.582 8  84087693.57946  20535099.164                    20535101.848
        49.800          38.400
 119234199.002 7  92909814.35045  22689519.586                    22689526.129
        45.700          32.600
 119475759.363 7  93097898.17945  22735451.906                    22735457.938
        46.800          33.100
 117985809.972 7  91937000.47944  22451961.391                    22451966.418
        44.500          29.200
 123591080.265 7  96304819.01443  23518614.531                    23518620.418
        42.200          23.000
 121652077.771 7  94793837.44645  23149619.383                    23149623.176
        45.800          33.100
 116780843.513 6  90998095.81644  22222661.047                    22222664.352
        40.500          25.400
 18  3 13 15  9 18.0000000  0 20R01G19G22G25R08R10R09R16R17R18R19G31
                                R02G12G06G03G32G24G17G14
                  86026766.580 6  20691119.547                    20691122.707
                        36.700
 114421576.777 7  89159673.19145  21773701.508                    21773703.277
        46.800          34.200
 122062960.001 6  95113992.73244  23227807.664                    23227808.703
        40.800          25.700
 116798545.087 7  91011793.68845  22226004.313                    22226010.672
        47.700          31.100
                  91800721.629 6  22041176.492                    22041177.582
                        36.000
                  86505699.823 5  20864888.164                    20864891.621
                        35.800
                  81151655.576 6  19539126.117                    19539125.836
                        41.000
                  94387797.401 4  22718047.930                    22718050.043
                        27.400
                  91691552.417 6  22030399.578                    22030401.828
                        41.800
                  82405347.950 6  19848001.023                    19848003.344
                        40.600
                  90167815.998 6  21671900.914                    21671900.621
                        38.500
 124818630.661 6                  23752196.039
        36.100
                  95113251.813 6  22916802.641                    22916805.492
                        38.600
 107912845.355 8  84087826.65346  20535131.508                    20535134.191
        50.300          38.200
 119232170.374 7  92908233.60845  22689133.492                    22689140.355
        45.700          33.500
 119475418.101 7  93097632.27145  22735386.875                    22735393.164
        46.200          33.400
 117987936.319 7  91938657.36744  22452365.813                    22452370.691
        44.700          28.900
 123595058.362 7  96307918.82643  23519371.883                    23519377.406
        42.200          22.600
 121655178.001 7  94796253.21545  23150209.352                    23150212.961
        46.100          34.300
 116780907.379 6  90998145.59444  22222673.180                    22222676.367
        40.400          24.800
 18  3 13 15  9 19.0000000  0 20R01G19G22G25R08R10R09R16R17R18R19G31
                                R02G12G06G03G32G24G17G14
                  86027162.831 6  20691215.148                    20691217.723
                        36.400
 114423908.148 7  89161489.83245  21774145.203                    21774146.930
        46.800          34.100
 122064054.556 6  95114845.62944  23228015.680                    23228016.762
        40.800          24.300
 116796051.467 7  91009850.59945  22225529.805                    22225536.512
        47.800          31.200
                  91803795.927 6  22041913.617                    22041915.277
                        36.100
                  86503468.612 5  20864349.609                    20864353.918
                        35.800
                  81152775.522 6  19539395.391                    19539395.820
                        41.000
                  94391523.745 4  22718943.813                    22718946.480
                        28.200
                  91694824.403 7  22031186.016                    22031188.027
                        42.300
                  82405764.932 6  19848102.117                    19848103.645
                        40.700
                  90165112.669 6  21671252.383                    21671251.438
                        38.300
 124815626.063 5                  23751624.320
        34.600
                  95110480.876 6  22916135.797                    22916137.949
                        38.100
 107913016.889 8  84087960.32246  20535164.523                    20535167.137
        50.100          38.400
 119230142.321 7  92906653.32145  22688747.664                    22688754.297
        45.800          33.900
 119475077.569 7  93097366.94145  22735321.867                    22735328.465
        46.400          33.300
 117990063.321 7  91940314.77244  22452770.594                    22452775.539
        45.200          29.700
 123599036.777 7  96311018.88943  23520128.352                    23520134.082
        42.600          22.500
 121658278.682 7  94798669.33245  23150799.156                    23150803.477
        45.800          34.000
 116780971.955 6  90998195.91244  22222686.117                    22222689.313
        40.300          24.400
 18  3 13 15  9 20.0000000  0 20R01G19G22G25R08R10R09R16R17R18R19G31
                                R02G12G06G03G32G24G17G14
                  86027559.820 6  20691310.773                    20691313.641
                        36.400
 114426240.111 7  89163306.93145  21774588.719                    21774590.734
        46.500          34.200
 122065149.701 6  95115698.97744  23228223.883                    23228225.434
        40.800          25.000
 116793558.313 8  91007907.88745  22225055.422                    22225061.566
        48.000          31.400
                  91806870.740 6  22042651.383                    22042653.516
                        36.200
                  86501237.818 5  20863811.453                    20863815.719
                        35.600
                  81153896.105 6  19539665.055                    19539665.223
                        41.100
                  94395250.270 4  22719841.117                    22719843.879
                        26.200
                  91698096.722 7  22031972.414                    22031974.961
                        42.100
                  82406182.618 6  19848202.492                    19848204.078
                        40.500
                  90162409.722 6  21670602.930                    21670601.875
                        38.100
 124812621.748 5                  23751052.680
        34.900
                  95107710.253 6  22915467.508                    22915470.398
                        38.400
 107913189.130 8  84088094.54346  20535197.180                    20535199.719
        50.500          38.100
 119228114.741 7  92905073.39045  22688361.641                    22688368.391
        45.500          33.300
 119474737.741 7  93097102.15945  22735257.266                    22735263.422
        46.600          33.700
 117992190.961 7  91941972.67044  22453175.648                    22453180.500
        44.700          29.300
 123603015.463 7  96314119.15943  23520885.977                    23520891.723
        42.300          22.600
 121661379.761 7  94801085.75545  23151389.438                    23151393.395
        45.800          34.100
 116781037.198 6  90998246.75944  22222699.258                    22222701.426
        40.900          25.800
 18  3 13 15  9 21.0000000  0 20R01G19G22G25R08R10R09R16R17R18R19G31
                                R02G12G06G03G32G24G17G14
                  86027957.555 6  20691405.805                    20691409.797
                        36.000
 114428572.765 7  89165124.57745  21775033.203                    21775034.445
        46.800          34.500
 122066245.451 6  95116552.80644  23228432.813                    23228433.684
        40.600          25.200
 116791065.598 7  91005965.51744  22224581.367                    22224587.590
        47.400          29.900
                  91809945.943 6  22043390.195                    22043391.754
                        36.400
                  86499007.443 5  20863273.227                    20863277.781
                        35.500
                  81155017.324 6  19539935.180                    19539935.586
                        41.200
                  94398976.973 4  22720736.766                    22720740.688
                        26.900
                  91701369.416 6  22032758.422                    22032760.750
                        41.600
                  82406601.016 6  19848303.938                    19848304.566
                        40.500
                  90159707.161 6  21669954.391                    21669952.254
                        38.100
 124809617.680 5                  23750480.031
        34.800
                  95104939.938 6  22914800.125                    22914802.930
                        38.400
 107913362.041 8  84088229.27946  20535229.828                    20535232.824
        50.800          38.400
 119226087.689 7  92903493.87245  22687976.078                    22687982.547
        45.700          33.600
 119474398.569 7  93096837.90245  22735192.570                    22735199.355
        46.800          32.800
 117994319.176 7  91943631.01444  22453580.023                    22453585.574
        44.500          29.700
 123606994.362 7  96317219.60943  23521642.836                    23521648.836
        42.100          22.500
 121664481.254 7  94803502.49645  23151979.766                    23151983.316
        45.800          34.600
 116781103.078 6  90998298.12744  22222711.047                    22222713.824
        41.200          25.600
 18  3 13 15  9 22.0000000  0 20R01G19G22G25R08R10R09R16R17R18R19G31
                                R02G12G06G03G32G24G17G14
                  86028356.049 6  20691501.391                    20691505.004
                        36.200
 114430906.073 7  89166942.73245  21775477.188                    21775478.359
        46.700          34.300
 122067341.896 6  95117407.17844  23228641.297                    23228642.922
        41.000          24.900
 116788573.375 7  91004023.52845  22224107.203                    22224113.188
        47.600          30.800
                  91813021.627 6  22044130.289                    22044130.824
                        36.500
                  86496777.514 5  20862735.711                    20862739.988
                        35.400
                  81156139.184 6  19540205.367                    19540205.715
                        41.200
                  94402703.853 4  22721633.281                    22721637.777
                        28.200
                  91704642.499 6  22033544.859                    22033547.043
                        41.500
                  82407020.136 6  19848404.570                    19848406.059
                        40.700
                  90157005.005 6  21669304.422                    21669303.070
                        37.900
 124806613.868 5                  23749909.281
        34.500
                  95102169.976 6  22914132.406                    22914135.664
                        38.800
 107913535.684 8  84088364.58846  20535263.023                    20535265.945
        50.700          38.400
 119224061.180 7  92901914.77045  22687590.734                    22687597.219
        45.800          33.100
 119474060.070 7  93096574.15845  22735128.086                    22735134.469
        46.500          33.600
 117996448.023 7  91945289.85344  22453985.516                    22453990.465
        44.300          29.500
 123610973.563 7  96320320.30143  23522400.094                    23522405.848
        42.500          22.600
 121667583.131 7  94805919.53845  23152570.328                    23152573.746
        45.900          34.700
 116781169.638 6  90998350.02444  22222723.859                    22222726.516
        41.800          24.500
 18  3 13 15  9 23.0000000  0 20R01G19G22G25R08R10R09R16R17R18R19G31
                                R02G12G06G03G32G24G17G14
                  86028755.318 6  20691597.719                    20691601.199
                        36.100
 114433240.059 7  89168761.41345  21775921.281                    21775922.484
        46.600          34.500
 122068438.963 6  95118262.04543  23228850.703                    23228851.551
        40.800          22.900
 116786081.621 7  91002081.90445  22223632.766                    22223639.152
        47.800          30.900
                  91816097.737 6  22044868.039                    22044868.922
                        36.100
                  86494548.031 5  20862197.703                    20862201.969
                        35.200
                  81157261.727 6  19540474.992                    19540475.367
                        41.100
                  94406430.983 4  22722531.203                    22722534.754
                        27.900
                  91707915.986 6  22034331.023                    22034333.574
                        41.500
                  82407440.002 6  19848505.883                    19848506.750
                        40.800
                  90154303.273 6  21668653.672                    21668653.277
                        37.600
 124803610.434 5                  23749337.813
        34.400
                  95099400.342 6  22913465.727                    22913468.148
                        38.600
 107913710.077 8  84088500.47046  20535296.180                    20535299.102
        50.900          38.100
 119222035.238 7  92900336.11745  22687204.938                    22687211.523
        45.400          33.300
 119473722.291 7  93096310.95745  22735063.594                    22735070.605
        46.100          33.300
 117998577.515 7  91946949.19744  22454390.844                    22454395.836
        44.700          29.300
 123614953.084 7  96323421.22843  23523156.961                    23523162.965
        42.200          22.800
 121670685.459 7  94808336.93845  23153159.820                    23153164.129
        45.800          34.700
 116781236.889 6  90998402.44343  22222736.664                    22222739.320
        41.800          23.900
 18  3 13 15  9 24.0000000  0 20R01G19G22G25R08R10R09R16R17R18R19G31
                                R02G12G06G03G32G24G17G14
                  86029155.311 6  20691694.430                    20691697.773
                        36.400
 114435574.695 7  89170580.59845  21776365.617                    21776366.945
        46.500          34.300
 122069536.661 6  95119117.40543  23229059.250                    23229060.473
        40.600          23.300
 116783590.380 8  91000140.67445  22223158.250                    22223164.992
        48.000          31.100
                  91819174.295 6  22045606.984                    22045607.863
                        36.400
                  86492318.988 5  20861660.531                    20861664.195
                        35.700
                  81158384.934 6  19540745.742                    19540745.883
                        41.200
                  94410158.357 4  22723428.055                    22723432.426
                        28.800
                  91711189.843 7  22035117.852                    22035119.688
                        42.100
                  82407860.610 6  19848606.820                    19848608.480
                        40.600
                  90151601.914 6  21668004.555                    21668003.605
                        37.700
 124800607.248 5                  23748765.750
        34.500
                  95096631.045 6  22912798.328                    22912800.793
                        38.600
 107913885.194 8  84088636.92646  20535329.641                    20535331.824
        50.500          38.600
 119220009.823 7  92898757.88145  22686819.180                    22686826.410
        45.400          33.100
 119473385.200 7  93096048.27845  22734999.875                    22735005.949
        46.400          33.000
 118000707.605 7  91948609.00044  22454796.094                    22454801.180
        43.800          29.300
 123618932.874 7  96326522.39643  23523914.648                    23523920.293
        42.200          23.000
 121673788.226 7  94810754.67645  23153750.406                    23153754.449
        46.300          34.800
 116781304.808 7  90998455.38244  22222749.336                    22222751.977
        42.000          25.100
 18  3 13 15  9 25.0000000  0 20R01G19G22G25R08R10R09R16R17R18R19G31
                                R02G12G06G03G32G24G17G14
                  86029556.032 5  20691790.992                    20691793.922
                        35.900
 114437909.985 7  89172400.28745  21776809.547                    21776811.465
        46.300          34.700
 122070634.997 6  95119973.27744  23229268.430                    23229269.563
        40.000          25.600
 116781099.571 7  90998199.78545  22222684.734                    22222690.969
        47.800          31.000
                  91822251.303 6  22046345.703                    22046346.441
                        36.000
                  86490090.348 5  20861122.508                    20861126.430
                        35.600
                  81159508.790 6  19541016.648                    19541016.430
                        41.300
                  94413885.846 4  22724326.469                    22724329.543
                        28.400
                  91714464.095 6  22035904.641                    22035906.859
                        41.800
                  82408281.974 6  19848709.164                    19848710.379
                        40.800
                  90148900.951 6  21667354.750                    21667354.648
                        37.700
 124797604.367 5                  23748194.977
        34.300
                  95093862.049 6  22912131.109                    22912133.512
                        38.700
 107914061.005 8  84088773.91946  20535363.000                    20535365.840
        50.500          38.900
 119217984.965 7  92897180.07345  22686434.344                    22686440.684
        45.600          32.700
 119473048.819 7  93095786.13845  22734936.008                    22734942.297
        46.500          34.100
 118002838.345 7  91950269.30344  22455201.547                    22455206.328
        44.100          28.900
 123622912.887 7  96329623.71043  23524672.406                    23524677.668
        42.100          22.200
 121676891.351 7  94813172.69045  23154341.266                    23154345.184
        47.000          35.000
 116781373.364 7  90998508.80744  22222762.539                    22222765.039
        42.200          25.800
 18  3 13 15  9 26.0000000  0 20R01G19G22G25R08R10R09R16R17R18R19G31
                                R02G12G06G03G32G24G17G14
                  86029957.499 5  20691887.547                    20691890.266
                        35.900
 114440245.934 7  89174220.49745  21777254.305                    21777256.180
        46.600          34.500
 122071733.942 6  95120829.61744  23229477.633                    23229478.348
        39.800          25.300
 116778609.250 7  90996259.28045  22222210.531                    22222216.855
        47.600          30.700
                  91825328.767 5  22047085.000                    22047085.363
                        35.400
                  86487862.163 5  20860585.742                    20860589.828
                        35.600
                  81160633.294 6  19541287.148                    19541287.523
                        41.200
                  94417613.525 4  22725224.445                    22725226.379
                        28.000
                  91717738.707 6  22036691.938                    22036694.223
                        41.800
                  82408704.072 6  19848810.328                    19848811.750
                        40.900
                  90146200.353 6  21666706.977                    21666705.711
                        37.800
 124794601.778 5                  23747623.000
        34.200
                  95091093.380 6  22911464.359                    22911466.984
                        38.700
 107914237.566 8  84088911.50046  20535396.883                    20535398.961
        50.700          38.400
 119215960.623 7  92895602.66945  22686048.938                    22686055.516
        45.800          33.600
 119472713.129 7  93095524.55145  22734872.094                    22734878.316
        46.700          33.400
 118004969.727 7  91951930.11545  22455607.258                    22455612.191
        44.500          30.000
 123626893.228 7  96332725.28543  23525430.008                    23525435.031
        42.200          22.300
 121679994.853 7  94815590.98445  23154931.477                    23154935.438
        45.500          33.900
 116781442.569 7  90998562.73044  22222775.922                    22222778.305
        42.400          25.000
 18  3 13 15  9 27.0000000  0 20R01G19G22G25R08R10R09R16R17R18R19G31
                                R02G12G06G03G32G24G17G14
                  86030359.712 5  20691983.352                    20691987.043
                        35.800
 114442582.534 7  89176041.20845  21777699.242                    21777700.824
        46.900          34.300
 122072833.515 6  95121686.43144  23229686.570                    23229687.754
        39.900          24.800
 116776119.372 7  90994319.10644  22221737.039                    22221743.426
        47.500          29.500
                  91828406.714 5  22047823.352                    22047823.844
                        35.400
                  86485634.387 5  20860048.797                    20860052.094
                        35.400
                  81161758.432 6  19541558.375                    19541558.145
                        41.000
                  94421341.431 4  22726120.016                    22726123.887
                        28.000
                  91721013.674 6  22037478.586                    22037480.809
                        41.900
                  82409126.903 6  19848912.398                    19848913.707
                        40.800
                  90143500.127 6  21666058.031                    21666056.855
                        37.700
 124791599.509 5                  23747051.430
        34.700
                  95088325.080 6  22910796.156                    22910799.910
                        37.800
 107914414.814 8  84089049.61846  20535430.453                    20535432.945
        50.200          38.300
 119213936.798 7  92894025.67345  22685663.328                    22685670.152
        45.700          33.200
 119472378.127 7  93095263.49845  22734808.266                    22734814.703
        46.700          33.500
 118007101.709 7  91953591.40044  22456012.875                    22456017.969
        45.100          29.900
 123630873.780 7  96335827.00543  23526187.273                    23526192.742
        42.400          22.500
 121683098.804 7  94818009.62545  23155522.750                    23155526.363
        46.000          34.700
 116781512.426 7  90998617.16544  22222788.711                    22222791.168
        42.800          26.000
 18  3 13 15  9 28.0000000  0 20R01G19G22G25R08R10R09R16R17R18R19G31
                                R02G12G06G03G32G24G17G14
                  86030762.706 6  20692080.984                    20692084.027
                        36.400
 114444919.800 7  89177862.44545  21778143.563                    21778145.246
        47.000          34.500
 122073933.721 6  95122543.74844  23229895.820                    23229896.980
        40.200          25.300
 116773629.971 7  90992379.30045  22221262.984                    22221269.586
        47.900          31.300
                  91831485.077 6  22048562.930                    22048563.574
                        36.000
                  86483407.058 5  20859510.367                    20859514.758
                        35.500
                  81162884.230 6  19541829.273                    19541829.477
                        41.100
                  94425069.534 4  22727018.109                    22727021.145
                        28.900
                  91724289.064 6  22038264.953                    22038268.156
                        41.500
                  82409550.447 6  19849014.352                    19849015.379
                        40.800
                  90140800.313 6  21665408.539                    21665407.555
                        37.500
 124788597.489 5                  23746480.086
        34.700
                  95085557.094 6  22910130.078                    22910132.527
                        37.700
 107914592.785 8  84089188.29446  20535464.516                    20535467.172
        50.700          38.100
 119211913.504 7  92892449.08645  22685278.789                    22685285.328
        46.000          33.700
 119472043.857 7  93095003.02045  22734744.188                    22734751.191
        47.000          33.300
 118009234.311 7  91955253.17244  22456418.305                    22456423.289
        44.900          28.600
 123634854.598 7  96338928.94143  23526944.547                    23526950.070
        42.300          23.200
 121686203.173 7  94820428.59345  23156113.180                    23156116.973
        45.800          34.600
 116781582.938 7  90998672.10744  22222801.891                    22222804.961
        42.000          25.100
 18  3 13 15  9 29.0000000  0 20R01G19G22G25R08R10R09R16R17R18R19G31
                                R02G12G06G03G32G24G17G14
                  86031166.476 6  20692177.453                    20692181.590
                        36.200
 114447257.737 7  89179684.20045  21778588.586                    21778590.402
        46.800          34.700
 122075034.567 6  95123401.56743  23230105.352                    23230106.676
        40.300          22.900
 116771141.056 7  90990439.87345  22220789.688                    22220796.039
        47.900          30.900
                  91834563.895 5  22049300.891                    22049303.152
                        35.800
                  86481180.176 5  20858974.047                    20858978.035
                        35.300
                  81164010.686 6  19542100.781                    19542100.777
                        41.300
                  94428797.840 4  22727916.656                    22727919.168
                        28.900
                  91727564.892 6  22039052.117                    22039054.723
                        41.400
                  82409974.737 6  19849116.375                    19849118.070
                        40.600
                  90138100.898 6  21664759.922                    21664759.277
                        37.200
 124785595.816 5                  23745909.094
        34.300
                  95082789.446 6  22909462.883                    22909465.449
                        37.400
 107914771.509 8  84089327.56646  20535498.352                    20535500.270
        50.200          38.300
 119209890.761 7  92890872.93245  22684893.820                    22684900.313
        46.200          33.800
 119471710.310 7  93094743.11745  22734680.953                    22734687.609
        46.800          33.200
 118011367.557 7  91956915.43944  22456824.633                    22456829.297
        45.200          29.100
 123638835.694 6  96342031.09443  23527701.945                    23527707.828
        41.900          22.500
 121689307.967 7  94822847.89945  23156704.227                    23156708.090
        45.300          34.000
 116781654.126 7  90998727.57544  22222815.688                    22222818.563
        42.400          24.500
 18  3 13 15  9 30.0000000  0 20R01G19G22G25R08R10R09R16R17R18R19G31
                                R02G12G06G03G32G24G17G14
                  86031570.967 6  20692275.586                    20692277.926
                        36.000
 114449596.328 7  89181506.46745  21779033.734                    21779035.223
        47.100          34.000
 122076136.056 6  95124259.86943  23230314.266                    23230315.805
        40.700          22.900
 116768652.625 7  90988500.82045  22220315.906                    22220322.176
        47.800          31.100
                  91837643.142 6  22050040.484                    22050041.797
                        36.000
                  86478953.733 5  20858436.578                    20858440.309
                        35.200
                  81165137.774 6  19542372.063                    19542372.352
                        41.200
                  94432526.318 4  22728813.438                    22728815.871
                        27.400
                  91730841.089 6  22039839.539                    22039841.371
                        41.900
                  82410399.758 6  19849219.055                    19849219.793
                        40.600
                  90135401.863 6  21664111.094                    21664110.340
                        37.500
 124782594.485 5                  23745337.953
        34.800
                  95080022.159 6  22908796.305                    22908799.082
                        37.700
 107914950.932 8  84089467.37646  20535532.461                    20535534.762
        50.400          38.100
 119207868.577 7  92889297.21045  22684509.359                    22684515.883
        46.200          33.600
 119471377.448 7  93094483.75645  22734617.977                    22734624.387
        46.500          33.500
 118013501.411 7  91958578.18044  22457230.523                    22457235.410
        45.200          29.300
 123642817.056 7  96345133.45843  23528459.438                    23528465.137
        42.000          22.900
 121692413.130 7  94825267.50545  23157295.383                    23157299.328
        45.300          33.600
 116781725.967 7  90998783.54844  22222830.109                    22222832.621
        42.600          26.000
 18  3 13 15  9 31.0000000  0 20R01G19G22G25R08R10R09R16R17R18R19G31
                                R02G12G06G03G32G24G17G14
                  86031976.249 6  20692372.992                    20692376.410
                        36.100
 114451935.626 7  89183329.29145  21779478.828                    21779480.613
        47.000          34.300
 122077238.148 6  95125118.62643  23230524.234                    23230525.879
        40.200          22.800
 116766164.707 7  90986562.17245  22219842.578                    22219848.605
        47.800          31.100
                  91840722.829 6  22050779.672                    22050781.523
                        36.200
                  86476727.775 5  20857900.406                    20857903.906
                        35.400
                  81166265.565 6  19542643.227                    19542643.379
                        41.200
                  94436255.068 4  22729710.953                    22729713.188
                        27.000
                  91734117.688 6  22040627.469                    22040629.109
                        41.900
                  82410825.576 6  19849321.555                    19849322.398
                        40.600
                  90132703.264 6  21663462.633                    21663461.754
                        37.700
 124779593.461 5                  23744767.844
        34.700
                  95077255.229 6  22908129.336                    22908132.207
                        37.600
 107915131.138 8  84089607.79646  20535566.883                    20535569.227
        50.300          38.400
 119205846.945 7  92887721.91445  22684124.578                    22684130.824
        46.200          33.800
 119471045.317 7  93094224.96345  22734554.781                    22734561.008
        46.700          34.000
 118015635.954 7  91960241.45144  22457636.695                    22457641.570
        45.400          29.200
 123646798.774 6  96348236.08343  23529217.211                    23529223.125
        41.800          23.000
 121695518.787 7  94827687.48945  23157886.070                    23157890.055
        45.000          33.900
 116781798.560 7  90998840.11544  22222844.070                    22222846.148
        43.300          25.800
 18  3 13 15  9 32.0000000  0 20R01G19G22G25R08R10R09R16R17R18R19G31
                                R02G12G06G03G32G24G17G14
                  86032382.254 6  20692470.836                    20692473.965
                        36.200
 114454275.582 7  89185152.62445  21779924.313                    21779925.484
        46.900          34.200
 122078340.919 6  95125977.93043  23230734.719                    23230735.637
        40.400          23.200
 116763677.239 8  90984623.87445  22219369.539                    22219375.613
        48.000          30.900
                  91843802.995 6  22051519.172                    22051521.238
                        36.400
                  86474502.227 5  20857363.039                    20857367.281
                        34.900
                  81167394.002 6  19542914.695                    19542915.180
                        41.200
                  94439983.958 4  22730607.148                    22730611.148
                        25.700
                  91737394.655 7  22041414.461                    22041416.109
                        42.200
                  82411252.079 6  19849424.125                    19849425.285
                        40.700
                  90130005.108 6  21662813.898                    21662812.691
                        37.900
 124776592.737 5                  23744196.609
        34.000
                  95074488.615 6  22907462.359                    22907465.684
                        37.900
 107915312.021 8  84089748.74446  20535601.188                    20535603.699
        50.400          38.600
 119203825.861 7  92886147.03945  22683739.539                    22683746.184
        46.300          33.500
 119470713.896 7  93093966.71545  22734491.453                    22734498.195
        46.600          33.400
 118017771.107 7  91961905.20744  22458043.250                    22458048.410
        45.700          28.500
 123650780.777 6  96351338.93643  23529974.984                    23529980.629
        41.300          22.600
 121698624.847 7  94830107.78245  23158476.688                    23158481.000
        45.700          34.200
 116781871.771 7  90998897.15944  22222858.016                    22222860.348
        43.400          25.500
 18  3 13 15  9 33.0000000  0 20R01G19G22G25R08R10R09R16R17R18R19G31
                                R02G12G06G03G32G24G17G14
                  86032789.033 6  20692567.727                    20692571.688
                        36.700
 114456616.229 7  89186976.49345  21780369.750                    21780371.258
        47.500          34.400
 122079444.376 6  95126837.76944  23230944.547                    23230945.598
        41.300          26.300
 116761190.313 8  90982685.99545  22218895.984                    22218902.461
        48.000          31.400
                  91846883.641 6  22052259.680                    22052260.281
                        36.700
                  86472277.141 5  20856826.984                    20856830.551
                        35.300
                  81168523.140 6  19543187.156                    19543186.656
                        41.200
                  94443713.125 4  22731505.422                    22731508.527
                        26.300
                  91740672.028 6  22042202.328                    22042203.617
                        41.900
                  82411679.371 6  19849526.492                    19849528.098
                        40.600
                  90127307.355 6  21662166.211                    21662164.938
                        37.700
 124773592.480 5                  23743625.984
        32.600
                  95071722.376 6  22906795.969                    22906798.492
                        37.800
 107915493.688 8  84089890.30446  20535635.680                    20535638.098
        50.200          38.400
 119201805.339 7  92884572.60845  22683355.094                    22683361.801
        46.000          33.900
 119470383.232 7  93093709.04545  22734428.445                    22734434.922
        46.500          34.100
 118019906.930 7  91963569.48444  22458449.742                    22458454.547
        45.800          28.800
 123654763.059 6  96354442.01643  23530732.961                    23530738.969
        41.400          22.300
 121701731.365 7  94832528.43845  23159068.617                    23159072.445
        45.900          34.700
 116781945.734 7  90998954.79344  22222871.641                    22222874.258
        43.300          25.200
 18  3 13 15  9 34.0000000  0 20R01G19G22G25R08R10R09R16R17R18R19G31
                                R02G12G06G03G32G24G17G14
                  86033196.542 6  20692666.070                    20692669.820
                        37.300
 114458957.532 7  89188800.87545  21780815.258                    21780816.621
        47.000          34.700
 122080548.429 7  95127698.06844  23231154.570                    23231155.422
        42.200          27.400
 116758703.818 8  90980748.45345  22218423.125                    22218429.047
        48.300          31.200
                  91849964.683 6  22053000.008                    22053000.293
                        37.000
                  86470052.501 5  20856290.141                    20856293.934
                        34.900
                  81169652.911 6  19543458.875                    19543458.586
                        41.300
                  94447442.480 4  22732403.203                    22732405.672
                        27.700
                  91743949.781 6  22042989.148                    22042991.887
                        41.400
                  82412107.372 6  19849629.648                    19849631.297
                        40.600
                  90124609.943 6  21661517.344                    21661516.188
                        37.800
 124770592.528 5                  23743054.750
        33.400
                  95068956.509 6  22906129.852                    22906132.797
                        38.100
 107915676.054 8  84090032.40046  20535670.133                    20535672.820
        50.500          38.300
 119199785.361 7  92882998.60645  22682970.781                    22682976.938
        45.800          33.400
 119470053.244 7  93093451.91845  22734365.648                    22734372.324
        46.400          33.800
 118022043.350 7  91965234.22444  22458856.156                    22458861.125
        45.200          29.100
 123658745.604 7  96357545.29643  23531490.531                    23531496.563
        42.300          22.200
 121704838.272 7  94834949.40345  23159659.117                    23159663.449
        45.900          34.300
 116782020.334 7  90999012.91444  22222885.516                    22222888.316
        43.400          25.400
 18  3 13 15  9 35.0000000  0 20R01G19G22G25R08R10R09R16R17R18R19G31
                                R02G12G06G03G32G24G17G14
                  86033604.789 6  20692764.336                    20692767.586
                        36.900
 114461299.477 7  89190625.75245  21781260.680                    21781262.531
        47.000          34.300
 122081653.106 7  95128558.84844  23231364.789                    23231365.301
        42.400          27.000
 116756217.777 8  90978811.27045  22217949.930                    22217955.813
        48.400          31.000
                  91853046.171 6  22053739.359                    22053739.816
                        36.900
                  86467828.286 5  20855753.445                    20855757.293
                        34.600
                  81170783.317 6  19543731.344                    19543731.324
                        41.600
                  94451172.020 4  22733300.922                    22733303.590
                        26.100
                  91747227.900 6  22043776.547                    22043778.875
                        41.400
                  82412536.096 6  19849733.008                    19849734.391
                        40.800
                  90121912.887 6  21660868.930                    21660868.387
                        37.900
 124767592.729 5                  23742483.633
        33.400
                  95066190.955 6  22905463.156                    22905466.094
                        38.000
 107915859.143 8  84090175.07046  20535705.383                    20535707.965
        50.900          38.400
 119197765.862 7  92881424.98045  22682586.500                    22682593.141
        45.800          33.000
 119469723.951 7  93093195.33645  22734303.391                    22734309.738
        46.200          34.100
 118024180.406 7  91966899.45944  22459262.914                    22459267.625
        45.100          29.300
 123662728.396 7  96360648.77543  23532248.680                    23532254.617
        42.000          22.600
 121707945.554 7  94837370.65845  23160250.813                    23160254.965
        46.100          34.900
 116782095.629 7  90999071.58744  22222900.078                    22222902.863
        42.700          25.800
 18  3 13 15  9 36.0000000  0 20R01G19G22G25R08R10R09R16R17R18R19G31
                                R02G12G06G03G32G24G17G14
                  86034013.797 6  20692862.688                    20692866.242
                        37.400
 114463642.091 7  89192451.15345  21781706.297                    21781707.887
        46.400          34.500
 122082758.451 7  95129420.15644  23231575.633                    23231576.000
        42.100          25.400
 116753732.238 7  90976874.45845  22217477.273                    22217483.211
        47.800          31.500
                  91856128.083 6  22054478.633                    22054479.973
                        36.800
                  86465604.557 5  20855216.766                    20855220.906
                        34.700
                  81171914.398 6  19544003.273                    19544003.559
                        41.600
                  94454901.659 4  22734198.266                    22734200.559
                        27.700
                  91750506.438 6  22044564.367                    22044566.734
                        41.800
                  82412965.578 6  19849836.602                    19849837.973
                        40.800
                  90119216.277 6  21660220.633                    21660220.031
                        37.700
 124764593.242 5                  23741912.242
        33.000
                  95063425.759 6  22904797.125                    22904800.160
                        38.500
 107916042.955 8  84090318.30746  20535740.219                    20535742.918
        51.300          38.000
 119195746.959 7  92879851.81645  22682202.602                    22682209.043
        45.600          33.100
 119469395.419 7  93092939.34545  22734240.867                    22734246.938
        46.100          33.900
 118026318.103 7  91968565.19744  22459669.570                    22459674.473
        45.100          29.100
 123666711.482 6  96363752.47743  23533006.594                    23533012.773
        41.400          23.800
 121711053.328 7  94839792.30145  23160842.023                    23160846.035
        46.300          34.100
 116782171.532 7  90999130.74944  22222914.016                    22222917.133
        42.700          25.400
 18  3 13 15  9 37.0000000  0 20R01G19G22G25R08R10R09R16R17R18R19G31
                                R02G12G06G03G32G24G17G14
                  86034423.594 6  20692961.492                    20692963.867
                        37.100
 114465985.407 7  89194277.10445  21782152.680                    21782154.184
        46.400          33.900
 122083864.429 7  95130281.95244  23231786.242                    23231786.719
        42.000          26.400
 116751247.214 7  90974938.04545  22217003.680                    22217009.855
        47.900          30.900
                  91859210.471 6  22055218.578                    22055220.633
                        36.400
                  86463381.303 5  20854680.133                    20854684.691
                        35.400
                  81173046.166 6  19544276.789                    19544276.613
                        41.700
                  94458631.544 4  22735096.063                    22735098.797
                        29.400
                  91753785.354 6  22045352.969                    22045354.262
                        41.500
                  82413395.838 6  19849940.094                    19849941.594
                        40.500
                  90116520.078 6  21659571.859                    21659571.113
                        38.100
 124761594.144 5                  23741342.250
        34.100
                  95060660.897 6  22904130.344                    22904133.875
                        38.900
 107916227.534 8  84090462.13946  20535775.484                    20535777.961
        51.000          37.900
 119193728.627 7  92878279.09245  22681818.344                    22681824.898
        45.800          32.700
 119469067.576 7  93092683.89345  22734178.828                    22734184.738
        46.100          34.200
 118028456.485 7  91970231.47744  22460076.656                    22460081.250
        45.700          29.800
 123670694.859 6  96366856.40243  23533764.328                    23533770.496
        41.300          22.000
 121714161.537 7  94842214.27445  23161433.836                    23161437.820
        46.000          34.200
 116782248.192 7  90999190.49744  22222928.914                    22222931.797
        43.100          26.200
 18  3 13 15  9 38.0000000  0 20R01G19G22G25R08R10R09R16R17R18R19G31
                                R02G12G06G03G32G24G17G14
                  86034834.112 6  20693060.594                    20693063.516
                        37.000
 114468329.355 7  89196103.54245  21782598.664                    21782600.023
        46.300          33.900
 122084971.014 7  95131144.21844  23231996.734                    23231996.984
        42.200          26.600
 116748762.640 7  90973001.98945  22216531.063                    22216537.270
        47.900          31.100
                  91862293.296 5  22055957.875                    22055960.563
                        35.600
                  86461158.459 5  20854144.977                    20854148.820
                        35.700
                  81174178.562 6  19544548.617                    19544548.668
                        41.600
                  94462361.612 4  22735994.258                    22735996.801
                        29.200
                  91757064.623 6  22046140.883                    22046142.555
                        41.200
                  82413826.811 6  19850044.039                    19850045.625
                        40.600
                  90113824.199 6  21658924.172                    21658923.492
                        37.600
 124758595.335 5                  23740772.047
        34.600
                  95057896.305 6  22903464.719                    22903468.066
                        38.700
 107916412.821 8  84090606.52246  20535810.656                    20535813.258
        49.900          38.000
 119191710.795 7  92876706.76045  22681434.273                    22681441.063
        45.600          32.800
 119468740.412 7  93092428.96245  22734115.961                    22734122.613
        46.300          33.600
 118030595.435 7  91971898.20444  22460483.539                    22460488.480
        44.600          29.100
 123674678.530 6  96369960.54743  23534522.969                    23534528.453
        41.600          22.600
 121717270.108 7  94844636.53645  23162025.461                    23162029.160
        45.100          34.600
 116782325.479 7  90999250.73944  22222943.320                    22222946.676
        43.400          26.100
 18  3 13 15  9 39.0000000  0 20R01G19G22G25R08R10R09R16R17R18R19G31
                                R02G12G06G03G32G24G17G14
                  86035245.377 6  20693159.125                    20693162.395
                        37.200
 114470673.923 7  89197930.46745  21783044.641                    21783046.035
        46.100          34.100
 122086078.230 6  95132006.98444  23232207.391                    23232207.836
        41.400          25.600
 116746278.475 7  90971066.23945  22216058.805                    22216064.621
        47.400          30.600
                  91865376.532 5  22056698.742                    22056700.398
                        35.700
                  86458936.047 5  20853608.508                    20853612.484
                        35.900
                  81175311.609 6  19544821.891                    19544821.652
                        41.500
                  94466091.869 4  22736892.531                    22736894.480
                        28.700
                  91760344.291 6  22046927.930                    22046930.418
                        41.000
                  82414258.492 6  19850147.219                    19850148.832
                        40.800
                  90111128.689 6  21658277.195                    21658275.762
                        37.700
 124755596.772 5                  23740200.852
        34.100
                  95055132.024 6  22902799.391                    22902802.004
                        38.100
 107916598.794 8  84090751.43546  20535846.070                    20535848.426
        50.000          38.100
 119189693.474 7  92875134.82745  22681050.180                    22681056.477
        45.500          33.100
 119468413.933 7  93092174.56345  22734053.844                    22734060.336
        46.000          33.600
 118032734.979 7  91973565.39544  22460890.711                    22460895.426
        44.800          29.600
 123678662.425 6  96373064.87143  23535280.969                    23535286.676
        41.700          22.900
 121720379.056 7  94847059.09545  23162616.805                    23162620.918
        45.100          34.300
 116782403.368 7  90999311.44744  22222958.523                    22222961.352
        43.500          25.300
 18  3 13 15  9 40.0000000  0 20R01G19G22G25R08R10R09R16R17R18R19G31
                                R02G12G06G03G32G24G17G14
                  86035657.395 6  20693258.047                    20693261.602
                        36.900
 114473019.190 7  89199757.93445  21783490.945                    21783492.230
        46.000          34.300
 122087186.093 6  95132870.24844  23232418.188                    23232418.605
        41.700          25.400
 116743794.858 7  90969130.92945  22215586.086                    22215592.148
        47.400          30.700
                  91868460.234 6  22057440.227                    22057441.383
                        36.500
                  86456714.068 6  20853072.367                    20853076.840
                        36.300
                  81176445.310 6  19545094.156                    19545093.754
                        41.500
                  94469822.400 4  22737789.758                    22737792.434
                        27.400
                  91763624.346 6  22047715.836                    22047717.895
                        41.200
                  82414690.912 6  19850251.750                    19850253.664
                        40.600
                  90108433.617 6  21657629.023                    21657629.027
                        37.700
 124752598.594 5                  23739631.094
        34.400
                  95052368.100 6  22902133.406                    22902136.086
                        38.800
 107916785.526 8  84090896.94346  20535881.398                    20535884.027
        49.700          38.100
 119187676.694 7  92873563.31945  22680666.719                    22680672.918
        45.600          33.600
 119468088.187 7  93091920.73045  22733992.211                    22733998.316
        45.900          33.300
 118034875.182 7  91975233.08244  22461297.789                    22461302.758
        44.600          29.300
 123682646.644 6  96376169.46443  23536039.484                    23536044.848
        41.800          22.500
 121723488.454 7  94849482.00145  23163208.539                    23163212.730
        45.100          34.200
 116782481.978 7  90999372.70644  22222973.414                    22222976.133
        42.500          26.200
 18  3 13 15  9 41.0000000  0 20R01G19G22G25R08R10R09R16R17R18R19G31
                                R02G12G06G03G32G24G17G14
                  86036070.172 6  20693357.172                    20693360.047
                        36.900
 114475365.126 7  89201585.93045  21783937.703                    21783938.902
        46.100          34.300
 122088294.578 6  95133734.01644  23232629.016                    23232629.703
        41.500          26.900
 116741311.697 7  90967195.97345  22215113.438                    22215119.277
        47.500          32.000
                  91871544.373 6  22058180.750                    22058181.422
                        36.600
                  86454492.521 5  20852537.773                    20852541.230
                        35.700
                  81177579.654 6  19545367.797                    19545367.328
                        41.500
                  94473553.055 4  22738687.266                    22738690.852
                        27.400
                  91766904.809 6  22048504.844                    22048506.293
                        41.500
                  82415124.081 6  19850355.945                    19850357.734
                        40.600
                  90105738.906 6  21656979.813                    21656980.961
                        38.200
 124749600.758 5                  23739060.180
        34.300
                  95049604.556 6  22901467.836                    22901470.137
                        38.700
 107916972.989 8  84091043.02646  20535917.070                    20535919.512
        49.800          38.100
 119185660.463 7  92871992.23145  22680282.789                    22680289.254
        45.400          33.700
 119467763.121 7  93091667.44345  22733930.023                    22733936.387
        46.300          33.600
 118037015.998 7  91976901.25144  22461705.656                    22461710.180
        44.000          29.500
 123686631.093 6  96379274.24543  23536797.258                    23536803.398
        41.800          22.800
 121726598.255 7  94851905.21245  23163800.273                    23163804.398
        45.300          34.000
 116782561.238 7  90999434.46844  22222988.563                    22222991.324
        42.500          27.200
 18  3 13 15  9 42.0000000  0 20R01G19G22G25R08R10R09R16R17R18R19G31
                                R02G12G06G03G32G24G17G14
                  86036483.664 6  20693456.609                    20693459.797
                        36.700
 114477711.698 7  89203414.41945  21784383.828                    21784385.586
        46.200          34.500
 122089403.670 6  95134598.23744  23232839.875                    23232840.719
        41.600          26.900
 116738829.034 7  90965261.40545  22214641.422                    22214646.957
        47.500          31.200
                  91874628.921 5  22058922.680                    22058922.551
                        35.900
                  86452271.405 5  20852001.055                    20852005.215
                        35.200
                  81178714.671 6  19545640.820                    19545640.648
                        41.500
                  94477283.948 4  22739585.070                    22739589.234
                        27.000
                  91770185.631 6  22049293.156                    22049294.887
                        41.600
                  82415557.969 6  19850460.898                    19850462.426
                        40.700
                  90103044.657 6  21656333.570                    21656333.461
                        37.400
 124746603.205 5                  23738489.539
        34.600
                  95046841.383 6  22900801.656                    22900804.109
                        39.300
 107917161.182 8  84091189.68246  20535952.547                    20535955.473
        50.000          38.300
 119183644.741 7  92870421.53345  22679899.422                    22679905.992
        45.300          33.600
 119467438.726 7  93091414.67945  22733868.656                    22733874.438
        46.200          34.000
 118039157.444 7  91978569.90945  22462113.242                    22462117.789
        44.500          30.200
 123690615.808 6  96382379.22943  23537555.727                    23537561.598
        41.100          23.000
 121729708.473 7  94854328.75045  23164392.203                    23164396.137
        45.300          34.600
 116782641.110 6  90999496.68944  22223003.461                    22223006.543
        41.600          25.900
 18  3 13 15  9 43.0000000  0 20R01G19G22G25R08R10R09R16R17R18R19G31
                                R02G12G06G03G32G24G17G14
                  86036897.938 6  20693556.484                    20693559.383
                        36.600
 114480058.962 7  89205243.44245  21784830.758                    21784832.059
        45.700          34.100
 122090513.442 6  95135463.00044  23233050.789                    23233052.078
        41.800          26.000
 116736346.859 7  90963327.22945  22214168.617                    22214174.613
        47.500          30.900
                  91877713.920 6  22059662.734                    22059663.254
                        36.200
                  86450050.729 5  20851464.961                    20851469.141
                        34.600
                  81179850.364 6  19545914.641                    19545914.410
                        41.200
                  94481015.069 4  22740485.234                    22740487.117
                        26.600
                  91773466.850 6  22050082.047                    22050084.215
                        41.300
                  82415992.638 6  19850565.648                    19850567.590
                        40.800
                  90100350.800 6  21655686.055                    21655685.590
                        37.500
 124743606.027 5                  23737919.273
        34.200
                  95044078.562 6  22900136.039                    22900138.895
                        39.500
 107917350.119 8  84091336.91946  20535989.055                    20535991.828
        50.300          37.900
 119181629.618 7  92868851.31045  22679515.531                    22679522.379
        45.100          33.700
 119467115.104 7  93091162.50545  22733806.805                    22733813.004
        45.900          33.700
 118041299.520 7  91980239.05945  22462520.469                    22462525.527
        44.200          30.200
 123694600.842 6  96385484.45143  23538314.172                    23538319.762
        41.600          22.500
 121732819.137 7  94856752.63645  23164984.484                    23164988.285
        45.700          33.600
 116782721.720 6  90999559.48544  22223018.648                    22223021.602
        41.300          26.400
 18  3 13 15  9 44.0000000  0 20R01G19G22G25R08R10R09R16R17R18R19G31
                                R02G12G06G03G32G24G17G14
                  86037312.980 6  20693655.898                    20693659.359
                        36.400
 114482406.918 7  89207073.01045  21785277.586                    21785278.969
        45.500          34.600
 122091623.872 6  95136328.26544  23233262.672                    23233263.066
        41.600          26.400
 116733865.215 7  90961393.46545  22213696.305                    22213702.820
        47.500          31.500
                  91880799.386 5  22060402.477                    22060403.754
                        35.700
                  86447830.531 5  20850930.609                    20850934.063
                        35.700
                  81180986.723 6  19546187.906                    19546187.766
                        41.500
                  94484746.272 4  22741381.578                    22741384.652
                        27.300
                  91776748.464 6  22050869.508                    22050871.691
                        41.300
                  82416428.037 6  19850671.250                    19850672.168
                        40.600
                  90097657.384 6  21655040.320                    21655037.883
                        37.800
 124740609.086 5                  23737349.672
        34.700
                  95041316.071 6  22899469.945                    22899473.695
                        39.200
 107917539.780 8  84091484.71546  20536025.086                    20536027.465
        51.000          38.200
 119179615.044 7  92867281.51345  22679132.438                    22679138.828
        44.800          33.400
 119466792.176 7  93090910.87245  22733745.359                    22733751.727
        45.900          34.100
 118043442.254 7  91981908.71945  22462928.297                    22462932.703
        44.700          30.000
 123698586.188 6  96388589.92643  23539072.391                    23539078.137
        41.600          22.800
 121735930.230 7  94859176.86845  23165576.477                    23165579.836
        45.600          33.700
 116782803.015 7  90999622.81244  22223034.203                    22223037.094
        42.000          25.900
 18  3 13 15  9 45.0000000  0 20R01G19G22G25R08R10R09R16R17R18R19G31
                                R02G12G06G03G32G24G17G14
                  86037728.768 6  20693756.102                    20693759.555
                        36.600
 114484755.553 7  89208903.10145  21785724.680                    21785726.105
        46.000          35.100
 122092734.942 6  95137194.03644  23233474.203                    23233474.676
        41.800          25.300
 116731384.033 7  90959460.05945  22213224.320                    22213230.406
        47.600          31.700
                  91883885.311 6  22061143.992                    22061144.797
                        36.200
                  86445610.787 5  20850394.906                    20850398.207
                        35.100
                  81182123.743 6  19546461.625                    19546461.875
                        41.500
                  94488477.807 4  22742280.281                    22742282.715
                        26.400
                  91780030.466 6  22051657.617                    22051660.266
                        41.500
                  82416864.189 6  19850775.570                    19850776.934
                        40.500
                  90094964.383 6  21654391.758                    21654391.113
                        38.300
 124737612.472 5                  23736778.945
        35.000
                  95038553.902 6  22898803.320                    22898807.738
                        39.000
 107917730.186 8  84091633.07746  20536061.320                    20536063.836
        51.300          38.300
 119177601.024 7  92865712.15045  22678749.461                    22678755.813
        45.600          33.600
 119466469.985 7  93090659.81345  22733683.992                    22733690.098
        45.900          34.200
 118045585.638 7  91983578.88944  22463336.273                    22463341.031
        44.900          29.600
 123702571.805 6  96391695.61743  23539830.695                    23539836.750
        41.500          21.500
 121739041.767 7  94861601.43845  23166167.984                    23166172.617
        45.500          33.400
 116782884.976 6  90999686.66644  22223050.156                    22223053.074
        41.900          25.600
 18  3 13 15  9 46.0000000  0 20R01G19G22G25R08R10R09R16R17R18R19G31
                                R02G12G06G03G32G24G17G14
                  86038145.322 6  20693855.906                    20693859.473
                        36.700
 114487104.858 7  89210733.71345  21786171.125                    21786173.625
        46.400          34.800
 122093846.672 7  95138060.31844  23233684.914                    23233686.258
        42.200          25.700
 116728903.374 8  90957527.06945  22212752.070                    22212758.605
        48.000          30.600
                  91886971.680 6  22061883.945                    22061885.934
                        36.200
                  86443391.497 5  20849860.281                    20849862.797
                        35.900
                  81183261.439 6  19546735.156                    19546735.508
                        41.300
                  94492209.489 4  22743177.609                    22743181.215
                        27.300
                  91783312.892 6  22052447.109                    22052448.605
                        41.600
                  82417301.093 6  19850880.555                    19850882.074
                        40.500
                  90092271.771 6  21653744.461                    21653743.984
                        37.900
 124734616.130 5                  23736208.914
        35.000
                  95035792.074 6  22898138.695                    22898141.988
                        38.900
 107917921.314 8  84091782.00646  20536097.742                    20536099.980
        51.400          38.000
 119175587.577 7  92864143.23845  22678365.844                    22678372.648
        45.400          33.500
 119466148.489 7  93090409.29445  22733622.914                    22733629.246
        46.000          33.900
 118047729.678 7  91985249.57145  22463744.109                    22463749.246
        44.900          30.600
 123706557.700 6  96394801.52443  23540589.258                    23540594.953
        41.700          22.500
 121742153.721 7  94864026.34145  23166760.836                    23166764.441
        46.200          34.100
 116782967.654 6  90999751.08644  22223065.547                    22223068.906
        41.500          25.300
 18  3 13 15  9 47.0000000  0 20R01G19G22G25R08R10R09R16R17R18R19G31
                                R02G12G06G03G32G24G17G14
                  86038562.621 6  20693956.820                    20693959.789
                        36.800
 114489454.784 7  89212564.81845  21786619.055                    21786620.262
        46.300          34.600
 122094958.994 7  95138927.06244  23233896.766                    23233898.641
        42.800          26.300
 116726423.179 7  90955594.43245  22212280.406                    22212286.836
        47.900          30.900
                  91890058.482 6  22062625.984                    22062626.977
                        36.200
                  86441172.632 6  20849324.516                    20849328.574
                        36.300
                  81184399.751 6  19547009.859                    19547009.566
                        41.100
                  94495941.408 4  22744078.023                    22744079.266
                        28.800
                  91786595.668 6  22053235.781                    22053237.570
                        41.600
                  82417738.712 6  19850986.000                    19850987.461
                        40.600
                  90089579.534 6  21653096.969                    21653097.105
                        38.100
 124731620.052 5                  23735638.820
        34.300
                  95033030.573 6  22897473.633                    22897476.883
                        39.300
 107918113.143 8  84091931.47946  20536134.328                    20536136.789
        51.200          38.100
 119173574.620 7  92862574.69345  22677982.766                    22677989.750
        45.300          33.400
 119465827.685 7  93090159.30845  22733562.039                    22733567.938
        45.900          34.000
 118049874.296 7  91986920.70544  22464152.281                    22464157.074
        44.900          29.900
 123710543.841 6  96397907.61843  23541347.672                    23541353.086
        41.300          22.000
 121745266.069 7  94866451.54945  23167352.750                    23167356.680
        46.600          33.600
 116783050.991 6  90999816.02144  22223081.445                    22223084.211
        41.700          25.900
 18  3 13 15  9 48.0000000  0 20R01G19G22G25R08R10R09R16R17R18R19G31
                                R02G12G06G03G32G24G17G14
                  86038980.621 6  20694056.977                    20694060.477
                        36.800
 114491805.399 7  89214396.46445  21787065.586                    21787067.574
        46.300          34.500
 122096071.968 7  95139794.31544  23234108.141                    23234109.848
        43.000          27.300
 116723943.448 7  90953662.17245  22211808.625                    22211814.918
        47.800          30.800
                  91893145.645 6  22063366.805                    22063368.043
                        36.300
                  86438954.199 5  20848789.633                    20848793.457
                        35.500
                  81185538.731 6  19547283.578                    19547283.734
                        41.200
                  94499673.456 4  22744977.070                    22744978.008
                        28.800
                  91789878.814 6  22054024.438                    22054026.000
                        41.000
                  82418177.032 6  19851091.570                    19851093.191
                        40.800
                  90086887.697 6  21652450.117                    21652450.063
                        38.100
 124728624.328 5                  23735068.922
        34.500
                  95030269.440 6  22896809.141                    22896812.098
                        39.100
 107918305.687 8  84092081.51746  20536170.961                    20536173.523
        51.100          38.100
 119171562.209 7  92861006.57845  22677599.859                    22677606.242
        45.600          34.300
 119465507.579 7  93089909.86545  22733501.242                    22733507.129
        46.200          33.500
 118052019.538 7  91988592.32444  22464560.164                    22464565.234
        44.700          28.900
 123714530.221 6  96401013.88343  23542106.172                    23542112.180
        41.300          22.500
 121748378.827 7  94868877.07645  23167945.188                    23167948.777
        46.800          33.900
 116783134.955 6  90999881.44944  22223096.953                    22223100.496
        41.000          24.200
 18  3 13 15  9 49.0000000  0 20R01G19G22G25R08R10R09R16R17R18R19G31
                                R02G12G06G03G32G24G17G14
                  86039399.426 6  20694158.297                    20694161.383
                        36.800
 114494156.672 7  89216228.61745  21787513.430                    21787515.066
        46.200          34.500
 122097185.556 7  95140662.04544  23234320.453                    23234322.027
        42.300          27.300
 116721464.225 7  90951730.31345  22211336.891                    22211342.980
        47.500          31.200
                  91896233.281 5  22064109.297                    22064109.219
                        35.800
                  86436736.221 5  20848253.906                    20848258.488
                        34.900
                  81186678.384 6  19547558.492                    19547558.164
                        40.900
                  94503405.711 4  22745873.672                    22745875.867
                        28.300
                  91793162.354 6  22054812.789                    22054815.215
                        41.500
                  82418616.111 6  19851197.547                    19851199.430
                        40.700
                  90084196.273 6  21651804.492                    21651803.039
                        37.900
 124725628.913 5                  23734498.703
        34.700
                  95027508.667 6  22896143.102                    22896146.145
                        38.900
 107918498.953 8  84092232.12146  20536207.641                    20536210.246
        51.300          37.700
 119169550.342 7  92859438.89345  22677217.148                    22677223.781
        46.000          33.600
 119465188.220 7  93089661.01245  22733440.180                    22733446.109
        46.400          33.900
 118054165.431 7  91990264.44944  22464968.797                    22464973.641
        45.100          29.100
 123718516.875 6  96404120.37143  23542864.273                    23542870.598
        41.100          23.000
 121751492.003 7  94871302.92945  23168537.086                    23168541.355
        46.600          34.600
 116783219.622 6  90999947.43844  22223113.609                    22223116.547
        40.400          25.100
 18  3 13 15  9 50.0000000  0 20R01G19G22G25R08R10R09R16R17R18R19G31
                                R02G12G06G03G32G24G17G14
                  86039818.983 6  20694258.758                    20694262.348
                        37.200
 114496508.643 7  89218061.31345  21787960.828                    21787962.703
        46.400          34.900
 122098299.811 7  95141530.28944  23234532.828                    23234534.016
        42.600          27.000
 116718985.517 7  90949798.84445  22210865.211                    22210871.496
        47.500          31.300
                  91899321.441 6  22064849.664                    22064850.898
                        36.300
                  86434518.726 5  20847718.922                    20847723.270
                        35.000
                  81187818.706 6  19547832.891                    19547832.914
                        40.800
                  94507138.195 4  22746771.250                    22746774.480
                        29.100
                  91796446.297 6  22055602.227                    22055605.367
                        41.800
                  82419055.959 6  19851303.344                    19851305.020
                        40.700
                  90081505.269 6  21651157.383                    21651156.293
                        37.600
 124722633.815 5                  23733929.133
        35.300
                  95024748.261 6  22895478.336                    22895481.402
                        38.800
 107918692.987 8  84092383.31546  20536244.578                    20536247.371
        50.700          38.100
 119167539.068 7  92857871.66745  22676834.570                    22676840.953
        45.900          33.600
 119464869.606 7  93089412.74745  22733379.422                    22733385.863
        46.600          33.900
 118056311.979 7  91991937.08444  22465376.688                    22465381.941
        45.300          29.300
 123722503.832 6  96407227.09143  23543623.867                    23543629.332
        41.000          21.700
 121754605.630 7  94873729.13645  23169129.438                    23169133.625
        45.200          33.700
 116783305.011 6  91000013.99144  22223129.984                    22223132.523
        41.000          26.800
