     2.11           OBSERVATION DATA    M (MIXED)           RINEX VERSION / TYPE
teqc  2018Mar15                         20180319 14:17:31UTCPGM / RUN BY / DATE
Linux 2.6.32-573.12.1.x86_64|x86_64|gcc -static|Linux 64|=+ COMMENT
END OF STATIC MODE OBSERVATION                              COMMENT
BIT 2 OF LLI FLAGS DATA COLLECTED UNDER A/S CONDITION       COMMENT
-Unknown-                                                   MARKER NAME
4625                                                        MARKER NUMBER
-Unknown-           -Unknown-                               OBSERVER / AGENCY
5127468778          TRIMBLE             4.63                REC # / TYPE / VERS
47477114                            NONE                    ANT # / TYPE
  -423755.2408   139337.2356  6341186.6938                  APPROX POSITION XYZ
        0.0000        0.0000        0.0000                  ANTENNA: DELTA H/E/N
     1     1                                                WAVELENGTH FACT L1/2
     7    L1    L2    C1    P1    P2    S1    S2            # / TYPES OF OBSERV
    18                                                      LEAP SECONDS
 SNR is mapped to RINEX snr flag value [0-9]                COMMENT
  L1 & L2: min(max(int(snr_dBHz/6), 0), 9)                  COMMENT
  2018     3    11    10    25   17.0000000     GPS         TIME OF FIRST OBS
                                                            END OF HEADER
 18  3 11 10 25 17.0000000  0 17R02G20R03R11R12R13R20R21R04G27G07G21
                                G30G28G08G15G13
                  94797688.963 6  22840776.227                    22840778.977
                        39.300
 114811659.243 7  89463706.33445  21847950.055                    21847951.551
        47.100          31.900
                  82761100.031 7  19877748.570                    19877749.754
                        43.100
                  90997213.204 7  21894283.492                    21894286.609
                        43.300
                                  19490980.664

                  89285933.815 6  21497641.867                    21497640.645
                        37.500
                  87327044.221 7  20996500.414                    20996504.578
                        43.500
                  89229603.408 7  21438881.516                    21438882.559
                        43.400
                  86973207.637 7  20882102.188                    20882103.797
                        43.800
 119583888.699 7  93182272.22945  22756058.055                    22756064.410
        44.700          32.600
 120104183.079 8  93587688.48445  22855068.016                    22855070.953
        49.800          33.900
 125970152.211 7  98158572.57744  23971323.633                    23971326.609
        42.700          26.200
 112639736.769 8  87771247.56246  21434630.156                    21434635.426
        50.800          37.600
 117235971.815 7  91352708.83444  22309262.961                    22309266.309
        43.400          26.800
 117428493.639 8  91502742.85645  22345899.266                    22345904.180
        48.400          35.500
 114468047.383 8  89195893.31945  21782545.633                    21782548.844
        48.000          34.900
 109588382.633 8  85393558.08046  20853976.320                    20853980.031
        48.800          37.200
 18  3 11 10 25 18.0000000  0 17R02G20R03R11R12R13R20R21R04G27G07G21
                                G30G28G08G15G13
                  94801455.552 6  22841682.484                    22841686.367
                        39.000
 114813312.880 7  89464994.91545  21848264.250                    21848266.250
        47.000          32.100
                  82762542.524 7  19878094.828                    19878096.012
                        42.300
                  91000531.816 7  21895081.602                    21895085.133
                        43.000
                                  19491170.359

                  89283193.111 6  21496981.781                    21496980.590
                        37.700
                  87328507.775 7  20996852.867                    20996856.605
                        42.600
                  89227679.093 7  21438418.820                    21438420.711
                        42.800
                  86971170.707 7  20881613.648                    20881614.402
                        43.400
 119586239.814 7  93184104.27645  22756505.281                    22756511.496
        44.600          31.400
 120107560.539 8  93590320.28845  22855709.766                    22855713.688
        48.600          33.600
 125972384.049 7  98160311.67944  23971748.141                    23971751.406
        42.100          26.100
 112641874.358 8  87772913.21846  21435036.531                    21435042.285
        50.200          37.200
 117234075.035 7  91351230.83844  22308902.633                    22308905.219
        43.500          26.800
 117428112.073 8  91502445.53045  22345826.281                    22345831.879
        48.300          35.300
 114466461.427 8  89194657.50345  21782243.734                    21782246.695
        48.200          34.400
 109588467.426 8  85393624.15746  20853992.680                    20853996.293
        48.800          36.900
 18  3 11 10 25 19.0000000  0 17R02G20R03R11R12R13R20R21R04G27G07G21
                                G30G28G08G15G13
                  94805222.382 6  22842591.445                    22842593.785
                        38.600
 114814967.245 7  89466284.04745  21848578.688                    21848581.344
        46.900          31.700
                  82763985.763 7  19878440.531                    19878442.742
                        42.200
                  91003850.825 7  21895879.383                    21895883.891
                        42.500
                                  19491359.789

                  89280452.788 6  21496321.414                    21496320.582
                        38.200
                  87329972.127 7  20997205.539                    20997207.930
                        42.400
                  89225755.388 7  21437955.992                    21437959.043
                        42.600
                  86969134.270 7  20881124.656                    20881125.707
                        42.700
 119588591.584 7  93185936.82445  22756952.617                    22756959.332
        44.300          31.400
 120110938.427 7  93592952.41345  22856352.000                    22856356.543
        47.300          32.900
 125974616.385 7  98162051.17144  23972173.016                    23972176.230
        42.400          26.700
 112644012.597 8  87774579.38046  21435443.375                    21435449.020
        49.900          37.700
 117232178.782 7  91349753.24344  22308541.766                    22308544.684
        43.900          27.300
 117427731.246 8  91502148.77545  22345754.242                    22345759.285
        48.400          34.600
 114464876.125 8  89193422.20145  21781942.039                    21781944.879
        48.500          34.600
 109588552.985 8  85393690.83146  20854009.055                    20854012.383
        48.300          36.500
 18  3 11 10 25 20.0000000  0 17R02G20R03R11R12R13R20R21R04G27G07G21
                                G30G28G08G15G13
                  94808989.451 6  22843497.648                    22843501.113
                        40.100
 114816622.313 7  89467573.72545  21848892.820                    21848896.289
        45.800          32.700
                  82765429.719 7  19878786.914                    19878789.305
                        42.400
                  91007170.167 7  21896678.422                    21896682.492
                        43.100
                                  19491550.414

                  89277712.850 6  21495659.828                    21495662.109
                        39.100
                  87331437.260 7  20997557.117                    20997560.770
                        43.100
                  89223832.296 7  21437494.422                    21437496.410
                        43.300
                  86967098.375 7  20880636.227                    20880636.762
                        43.500
 119590944.021 7  93187769.88945  22757400.750                    22757407.094
        43.600          31.900
 120114316.759 8  93595584.86745  22856995.648                    22856999.176
        48.200          33.800
 125976849.218 6  98163791.03744  23972598.188                    23972601.090
        41.600          27.600
 112646151.425 8  87776245.99946  21435850.375                    21435855.984
        49.800          37.900
 117230283.049 7  91348276.04644  22308181.188                    22308183.738
        43.800          27.500
 117427351.156 8  91501852.60446  22345681.555                    22345686.730
        48.700          36.200
 114463291.464 8  89192187.39745  21781640.523                    21781643.598
        48.400          34.800
 109588639.283 8  85393758.07846  20854025.563                    20854028.934
        48.100          37.500
 18  3 11 10 25 21.0000000  0 17R02G20R03R11R12R13R20R21R04G27G07G21
                                G30G28G08G15G13
                  94812756.766 6  22844405.508                    22844409.254
                        40.700
 114818278.106 7  89468863.94745  21849207.359                    21849211.234
        44.900          31.800
                  82766874.387 7  19879135.359                    19879136.090
                        43.100
                  91010489.870 7  21897478.328                    21897481.219
                        43.200
                                  19491740.703

                  89274973.360 6  21494999.945                    21495003.469
                        39.600
                  87332903.116 7  20997911.078                    20997913.297
                        43.400
                  89221909.834 7  21437032.266                    21437034.582
                        43.400
                  86965063.025 7  20880146.945                    20880148.723
                        43.900
 119593297.131 7  93189603.47845  22757848.273                    22757854.148
        44.200          32.500
 120117695.459 8  93598217.60145  22857639.063                    22857642.512
        48.600          33.200
 125979082.602 6  98165531.34544  23973023.156                    23973025.816
        40.900          27.300
 112648290.930 8  87777913.13946  21436257.594                    21436263.105
        49.800          38.100
 117228387.828 7  91346799.25044  22307819.609                    22307823.301
        43.200          28.600
 117426971.831 8  91501557.02446  22345609.391                    22345614.797
        48.600          36.200
 114461707.488 8  89190953.13045  21781339.219                    21781342.410
        48.500          35.800
 109588726.341 7  85393825.92146  20854042.117                    20854045.352
        47.900          37.800
 18  3 11 10 25 22.0000000  0 17R02G20R03R11R12R13R20R21R04G27G07G21
                                G30G28G08G15G13
                  94816524.276 6  22845312.992                    22845316.879
                        41.200
 114819934.645 7  89470154.75445  21849522.688                    21849526.121
        44.100          32.100
                  82768319.756 7  19879483.039                    19879483.516
                        43.500
                  91013809.893 7  21898277.266                    21898279.859
                        43.300
                                  19491931.242

                  89272234.280 6  21494340.016                    21494344.047
                        39.700
                  87334369.747 7  20998263.063                    20998265.762
                        43.900
                  89219987.959 7  21436570.828                    21436572.645
                        43.000
                  86963028.228 7  20879658.578                    20879659.480
                        43.800
 119595650.869 7  93191437.55645  22758296.891                    22758302.246
        44.900          32.300
 120121074.591 7  93600850.68745  22858281.383                    22858285.590
        47.700          33.600
 125981316.454 6  98167272.01544  23973447.961                    23973451.434
        41.300          28.200
 112650431.023 8  87779580.74546  21436664.711                    21436670.551
        49.900          37.900
 117226493.142 7  91345322.87744  22307459.563                    22307462.621
        43.500          28.600
 117426593.254 8  91501262.03046  22345537.273                    22345543.090
        48.700          36.300
 114460124.116 8  89189719.32645  21781037.742                    21781041.039
        48.400          35.500
 109588814.159 8  85393894.34646  20854058.734                    20854061.801
        48.100          37.900
 18  3 11 10 25 23.0000000  0 17R02G20R03R11R12R13R20R21R04G27G07G21
                                G30G28G08G15G13
                  94820291.976 6  22846220.648                    22846224.547
                        41.200
 114821591.845 7  89471446.05645  21849838.406                    21849841.711
        43.500          32.000
                  82769765.782 7  19879829.406                    19879831.063
                        43.600
                  91017130.236 7  21899076.922                    21899079.152
                        43.500
                                  19492122.250

                  89269495.594 6  21493681.031                    21493685.117
                        39.800
                  87335837.049 7  20998615.734                    20998619.352
                        44.000
                  89218066.683 7  21436109.016                    21436110.793
                        43.000
                  86960993.957 7  20879170.742                    20879171.441
                        44.100
 119598005.268 7  93193272.16045  22758744.813                    22758749.855
        43.700          32.500
 120124454.072 7  93603484.06145  22858924.250                    22858928.582
        47.500          33.000
 125983550.762 6  98169013.03144  23973873.422                    23973876.281
        40.800          27.400
 112652571.714 8  87781248.81646  21437072.391                    21437078.031
        49.800          38.000
 117224598.895 7  91343846.83944  22307098.820                    22307102.223
        42.500          27.800
 117426215.364 8  91500967.57246  22345465.484                    22345471.023
        48.700          36.200
 114458541.378 7  89188486.02745  21780736.477                    21780739.820
        47.800          35.200
 109588902.647 8  85393963.29946  20854075.430                    20854078.609
        48.400          37.500
 18  3 11 10 25 24.0000000  0 17R02G20R03R11R12R13R20R21R04G27G07G21
                                G30G28G08G15G13
                  94824059.907 6  22847128.711                    22847132.895
                        41.100
 114823249.692 7  89472737.86445  21850154.352                    21850156.926
        43.700          31.400
                  82771212.486 7  19880175.617                    19880178.527
                        43.400
                  91020450.898 7  21899876.438                    21899878.078
                        43.200
                                  19492312.914

                  89266757.228 6  21493022.922                    21493025.082
                        39.600
                  87337305.088 7  20998968.852                    20998971.539
                        43.500
                  89216146.010 7  21435647.758                    21435648.848
                        42.800
                  86958960.157 7  20878682.047                    20878682.977
                        44.000
 119600360.266 7  93195107.22745  22759193.836                    22759198.281
        44.100          33.100
 120127833.967 8  93606117.73445  22859568.055                    22859571.516
        48.700          33.700
 125985785.483 6  98170754.37544  23974298.977                    23974302.066
        40.700          28.200
 112654712.955 8  87782917.32646  21437479.328                    21437485.352
        49.600          38.500
 117222705.143 7  91342371.19344  22306738.492                    22306741.781
        42.900          28.100
 117425838.189 8  91500673.66745  22345393.688                    22345399.195
        48.700          35.500
 114456959.236 8  89187253.17945  21780435.531                    21780438.668
        48.200          35.900
 109588991.881 8  85394032.83346  20854092.719                    20854095.543
        48.200          37.700
 18  3 11 10 25 25.0000000  0 17R02G20R03R11R12R13R20R21R04G27G07G21
                                G30G28G08G15G13
                  94827828.025 6  22848037.828                    22848040.582
                        41.400
 114824908.231 7  89474030.21745  21850470.438                    21850472.398
        44.600          32.600
                  82772659.868 7  19880524.609                    19880525.727
                        43.600
                  91023771.911 7  21900674.961                    21900676.652
                        43.200
                                  19492503.281

                  89264019.223 6  21492363.883                    21492365.629
                        38.900
                  87338773.865 7  20999322.313                    20999324.863
                        43.800
                  89214225.920 7  21435186.820                    21435187.191
                        43.500
                  86956926.953 7  20878193.719                    20878194.508
                        44.500
 119602715.884 7  93196942.78045  22759640.758                    22759646.453
        43.400          32.000
 120131214.189 8  93608751.67045  22860211.836                    22860214.777
        48.800          34.000
 125988020.678 6  98172496.08144  23974723.953                    23974727.105
        40.000          27.800
 112656854.837 8  87784586.32746  21437887.094                    21437892.820
        49.700          38.300
 117220811.902 7  91340895.94544  22306378.422                    22306381.418
        43.000          28.900
 117425461.741 8  91500380.33045  22345322.094                    22345327.617
        48.100          35.400
 114455377.727 7  89186020.83345  21780134.609                    21780137.887
        47.900          35.700
 109589081.829 8  85394102.92646  20854109.977                    20854112.660
        48.500          37.700
 18  3 11 10 25 26.0000000  0 17R02G20R03R11R12R13R20R21R04G27G07G21
                                G30G28G08G15G13
                  94831596.354 6  22848946.188                    22848948.297
                        41.100
 114826567.464 7  89475323.11845  21850786.094                    21850788.070
        44.700          32.800
                  82774107.890 7  19880873.523                    19880873.617
                        43.600
                  91027093.272 7  21901473.969                    21901475.684
                        43.200
                                  19492694.828

                  89261281.542 6  21491705.016                    21491706.406
                        37.500
                  87340243.372 7  20999676.102                    20999677.844
                        43.400
                  89212306.424 7  21434725.719                    21434726.332
                        43.000
                  86954894.240 7  20877704.555                    20877706.914
                        44.100
 119605072.189 7  93198778.86045  22760089.031                    22760094.707
        43.400          30.900
 120134594.828 8  93611385.94245  22860853.906                    22860858.148
        48.100          33.600
 125990256.367 6  98174238.17744  23975149.195                    23975152.281
        39.200          27.300
 112658997.286 8  87786255.77046  21438294.797                    21438300.879
        49.800          38.300
 117218919.103 7  91339421.04244  22306018.023                    22306021.160
        43.000          28.100
 117425086.014 8  91500087.55945  22345250.320                    22345255.734
        48.100          35.700
 114453796.852 7  89184788.97445  21779834.039                    21779836.777
        47.800          35.500
 109589172.523 8  85394173.59346  20854127.430                    20854130.148
        48.800          37.600
 18  3 11 10 25 27.0000000  0 17R02G20R03R11R12R13R20R21R04G27G07G21
                                G30G28G08G15G13
                  94835364.921 6  22849855.625                    22849856.680
                        40.900
 114828227.399 7  89476616.57545  21851101.969                    21851104.363
        44.700          32.400
                  82775556.619 7  19881221.344                    19881221.945
                        43.400
                  91030415.004 7  21902271.602                    21902274.832
                        42.400
                                  19492886.531

                  89258544.235 6  21491046.438                    21491046.449
                        37.600
                  87341713.564 7  21000029.156                    21000031.551
                        43.600
                  89210387.495 7  21434263.938                    21434265.375
                        43.300
                  86952862.102 7  20877218.398                    20877219.070
                        44.400
 119607429.132 7  93200615.44645  22760537.578                    22760543.301
        43.000          31.000
 120137975.918 7  93614020.56345  22861496.914                    22861501.375
        47.200          34.200
 125992492.604 6  98175980.69144  23975574.578                    23975577.828
        38.600          26.700
 112661140.376 8  87787925.71146  21438702.508                    21438708.238
        50.000          37.900
 117217026.854 7  91337946.55744  22305657.609                    22305661.063
        42.500          27.400
 117424711.070 7  91499795.39345  22345178.617                    22345184.344
        47.600          35.700
 114452216.616 8  89183557.62145  21779532.719                    21779536.176
        48.100          34.800
 109589263.954 8  85394244.84146  20854144.672                    20854147.449
        49.200          37.700
 18  3 11 10 25 28.0000000  0 17R02G20R03R11R12R13R20R21R04G27G07G21
                                G30G28G08G15G13
                  94839133.653 6  22850763.906                    22850764.313
                        39.600
 114829888.050 7  89477910.60045  21851417.883                    21851420.352
        46.000          33.800
                  82777006.064 7  19881567.906                    19881570.363
                        43.600
                  91033737.053 6  21903071.930                    21903073.980
                        41.600
                                  19493077.445

                  89255807.271 6  21490386.492                    21490387.238
                        38.100
                  87343184.562 7  21000381.758                    21000384.879
                        43.700
                  89208469.200 7  21433802.773                    21433804.367
                        43.500
                  86950830.521 7  20876729.992                    20876731.059
                        43.700
 119609786.717 7  93202452.52145  22760985.852                    22760991.586
        42.600          30.800
 120141357.374 8  93616655.45745  22862142.336                    22862144.527
        48.400          32.500
 125994729.282 6  98177723.53744  23976001.125                    23976003.699
        38.300          26.000
 112663284.099 8  87789596.14446  21439110.531                    21439116.453
        48.800          37.300
 117215135.141 7  91336472.50144  22305298.141                    22305301.160
        44.200          29.400
 117424336.805 7  91499503.75546  22345107.047                    22345113.480
        47.500          36.100
 114450637.007 8  89182326.75945  21779232.453                    21779235.789
        48.300          34.500
 109589356.123 8  85394316.65546  20854162.188                    20854165.016
        49.200          37.500
 18  3 11 10 25 29.0000000  0 17R02G20R03R11R12R13R20R21R04G27G07G21
                                G30G28G08G15G13
                  94842902.639 6  22851672.094                    22851672.504
                        40.200
 114831549.391 7  89479205.15045  21851734.391                    21851736.168
        45.600          32.600
                  82778456.256 7  19881916.555                    19881918.379
                        43.300
                  91037059.469 7  21903870.406                    21903873.246
                        42.300
                                  19493269.266

                  89253070.747 6  21489726.133                    21489727.230
                        38.300
                  87344656.244 7  21000734.977                    21000738.332
                        43.400
                  89206551.562 7  21433341.992                    21433343.840
                        43.800
                  86948799.516 7  20876242.703                    20876243.344
                        44.100
 119612144.973 6  93204290.12445  22761435.281                    22761439.965
        41.800          31.800
 120144739.213 8  93619290.64645  22862785.906                    22862788.148
        49.500          34.100
 125996966.450 6  98179466.77044  23976426.469                    23976429.063
        39.300          26.500
 112665428.438 8  87791267.05246  21439518.992                    21439524.461
        49.600          38.100
 117213243.881 7  91334998.80244  22304938.555                    22304941.066
        43.500          29.500
 117423963.321 7  91499212.73145  22345036.320                    22345042.379
        47.200          35.700
 114449058.062 8  89181096.41145  21778931.891                    21778935.000
        48.000          34.700
 109589449.052 8  85394389.06546  20854179.695                    20854183.129
        49.300          37.500
 18  3 11 10 25 30.0000000  0 17R02G20R03R11R12R13R20R21R04G27G07G21
                                G30G28G08G15G13
                  94846671.840 6  22852580.117                    22852580.426
                        39.800
 114833211.478 7  89480500.28945  21852050.102                    21852052.805
        45.500          32.600
                  82779907.183 7  19882265.391                    19882266.496
                        43.400
                  91040382.266 7  21904670.102                    21904672.656
                        42.300
                                  19493461.188

                  89250334.675 6  21489066.836                    21489068.844
                        38.500
                  87346128.724 7  21001090.586                    21001092.707
                        43.600
                  89204634.540 7  21432881.602                    21432883.539
                        43.800
                  86946769.038 7  20875755.516                    20875756.238
                        44.200
 119614503.929 7  93206128.27745  22761883.688                    22761889.313
        42.300          31.200
 120148121.519 8  93621926.22545  22863428.617                    22863431.754
        49.300          33.400
 125999204.145 6  98181210.42444  23976853.047                    23976855.227
        40.100          28.600
 112667573.412 8  87792938.45346  21439926.789                    21439932.188
        49.800          37.800
 117211353.250 7  91333525.57744  22304578.484                    22304581.586
        43.100          29.200
 117423590.604 7  91498922.30545  22344965.563                    22344971.516
        46.800          35.300
 114447479.786 7  89179866.59245  21778631.500                    21778634.578
        47.800          34.800
 109589542.764 8  85394462.08046  20854197.531                    20854200.418
        49.200          37.600
 18  3 11 10 25 31.0000000  0 17R02G20R03R11R12R13R20R21R04G27G07G21
                                G30G28G08G15G13
                  94850441.300 6  22853487.641                    22853488.387
                        39.600
 114834874.294 7  89481795.98645  21852366.820                    21852368.965
        45.600          32.300
                  82781358.789 7  19882613.406                    19882615.688
                        43.400
                  91043705.409 7  21905470.250                    21905472.215
                        42.400
                                  19493653.375

                  89247598.955 6  21488409.445                    21488410.457
                        39.300
                  87347601.949 7  21001444.648                    21001447.512
                        43.400
                  89202718.138 7  21432420.805                    21432423.180
                        44.100
                  86944739.112 7  20875267.234                    20875268.523
                        44.200
 119616863.605 7  93207966.99745  22762332.789                    22762338.355
        42.500          30.800
 120151504.227 7  93624562.11245  22864071.641                    22864075.676
        47.800          34.200
 126001442.386 6  98182954.52444  23977278.109                    23977281.172
        39.700          27.500
 112669719.027 8  87794610.36046  21440335.039                    21440340.773
        49.900          38.400
 117209463.054 7  91332052.68844  22304218.539                    22304221.477
        43.200          28.500
 117423218.636 7  91498632.45645  22344894.711                    22344900.789
        46.500          35.000
 114445902.173 8  89178637.28045  21778331.336                    21778334.598
        48.400          34.900
 109589637.228 8  85394535.68946  20854215.313                    20854218.520
        48.700          37.700
 18  3 11 10 25 32.0000000  0 17R02G20R03R11R12R13R20R21R04G27G07G21
                                G30G28G08G15G13
                  94854210.991 6  22854396.078                    22854396.711
                        39.300
 114836537.825 7  89483092.24245  21852683.250                    21852685.980
        45.600          32.000
                  82782811.126 7  19882962.078                    19882964.469
                        43.400
                  91047028.882 7  21906269.430                    21906271.910
                        43.500
                                  19493845.367

                  89244863.660 6  21487752.289                    21487753.227
                        40.000
                  87349075.941 7  21001798.281                    21001801.805
                        43.900
                  89200802.346 7  21431960.930                    21431963.328
                        43.700
                  86942709.723 7  20874780.250                    20874780.859
                        44.300
 119619223.863 7  93209806.16945  22762782.633                    22762787.336
        42.600          31.300
 120154887.382 7  93627198.34745  22864714.734                    22864719.227
        46.800          33.700
 126003681.066 6  98184698.96444  23977704.844                    23977707.148
        39.900          26.900
 112671865.283 8  87796282.76846  21440743.547                    21440749.039
        49.500          38.500
 117207573.409 7  91330580.24044  22303859.813                    22303861.910
        44.000          28.500
 117422847.405 7  91498343.18445  22344824.211                    22344829.957
        46.700          35.500
 114444325.195 8  89177408.46245  21778031.320                    21778034.449
        48.300          35.200
 109589732.429 8  85394609.87346  20854233.492                    20854236.570
        48.100          37.500
 18  3 11 10 25 33.0000000  0 17R02G20R03R11R12R13R20R21R04G27G07G21
                                G30G28G08G15G13
                  94857980.942 6  22855303.891                    22855304.875
                        38.900
 114838202.057 7  89484389.04245  21852999.742                    21853002.234
        45.600          32.900
                  82784264.139 7  19883311.680                    19883312.586
                        43.500
                  91050352.667 7  21907070.539                    21907071.914
                        42.900
                                  19494037.953

                  89242128.716 6  21487094.250                    21487095.234
                        40.100
                  87350550.649 7  21002153.313                    21002156.285
                        43.600
                  89198887.188 7  21431500.820                    21431502.887
                        43.800
                  86940680.900 7  20874293.313                    20874293.914
                        44.400
 119621584.791 7  93211645.86245  22763231.070                    22763236.500
        42.900          31.300
 120158270.946 7  93629834.88045  22865360.063                    22865362.855
        47.600          33.800
 126005920.266 6  98186443.81044  23978130.594                    23978133.719
        40.200          27.100
 112674012.135 8  87797955.63646  21441152.203                    21441157.957
        49.100          38.000
 117205684.269 7  91329108.18344  22303499.219                    22303502.402
        43.400          28.600
 117422476.917 7  91498054.48845  22344754.031                    22344759.438
        47.100          35.300
 114442748.856 8  89176180.14745  21777731.289                    21777734.723
        48.400          34.700
 109589828.396 7  85394684.65346  20854252.133                    20854255.453
        47.900          37.300
 18  3 11 10 25 34.0000000  0 17R02G20R03R11R12R13R20R21R04G27G07G21
                                G30G28G08G15G13
                  94861751.109 6  22856212.031                    22856212.730
                        38.900
 114839867.011 7  89485686.40045  21853316.727                    21853319.477
        44.900          33.000
                  82785717.810 7  19883661.164                    19883662.836
                        43.600
                  91053676.852 7  21907869.711                    21907871.652
                        43.300
                                  19494230.328

                  89239394.170 6  21486436.078                    21486437.301
                        40.400
                  87352026.146 7  21002508.188                    21002511.023
                        43.800
                  89196972.633 7  21431039.680                    21431043.566
                        43.500
                  86938652.657 7  20873806.383                    20873807.363
                        44.400
 119623946.425 7  93213486.09245  22763680.219                    22763686.051
        42.300          32.200
 120161654.898 8  93632471.71045  22866004.078                    22866007.227
        48.600          34.000
 126008159.957 6  98188189.02444  23978556.578                    23978560.031
        40.200          26.400
 112676159.619 8  87799628.99646  21441560.500                    21441566.621
        48.800          38.100
 117203795.657 7  91327636.53844  22303140.406                    22303143.258
        43.300          28.500
 117422107.168 7  91497766.37346  22344684.109                    22344689.375
        46.900          36.300
 114441173.166 8  89174952.34045  21777431.578                    21777434.762
        48.300          34.700
 109589925.097 8  85394760.00646  20854269.992                    20854273.145
        48.000          38.100
 18  3 11 10 25 35.0000000  0 17R02G20R03R11R12R13R20R21R04G27G07G21
                                G30G28G08G15G13
                  94865521.545 6  22857118.945                    22857120.969
                        39.600
 114841532.667 7  89486984.31845  21853633.219                    21853636.359
        44.800          32.500
                  82787172.216 7  19884009.281                    19884011.563
                        43.900
                  91057001.383 7  21908669.313                    21908671.832
                        43.500
                                  19494423.336

                  89236659.972 6  21485777.898                    21485779.867
                        40.500
                  87353502.358 7  21002862.234                    21002866.070
                        43.800
                  89195058.675 7  21430580.336                    21430582.941
                        43.900
                  86936624.930 7  20873319.148                    20873320.348
                        44.700
 119626308.698 7  93215326.82545  22764130.023                    22764135.805
        42.800          32.100
 120165039.254 8  93635108.86145  22866648.109                    22866651.070
        48.400          33.700
 126010400.150 6  98189934.61244  23978982.734                    23978985.883
        39.900          27.000
 112678307.724 8  87801302.85046  21441969.477                    21441975.277
        48.400          37.600
 117201907.535 7  91326165.28344  22302780.859                    22302784.031
        43.300          28.500
 117421738.165 7  91497478.84045  22344613.219                    22344619.273
        46.700          35.800
 114439598.131 8  89173725.03345  21777131.984                    21777135.191
        48.300          35.200
 109590022.548 7  85394835.94046  20854288.945                    20854292.246
        47.900          37.700
 18  3 11 10 25 36.0000000  0 17R02G20R03R11R12R13R20R21R04G27G07G21
                                G30G28G08G15G13
                  94869292.157 6  22858027.305                    22858030.531
                        39.800
 114843199.050 7  89488282.79345  21853950.539                    21853953.367
        44.500          32.300
                  82788627.354 7  19884358.617                    19884361.031
                        43.600
                  91060326.263 7  21909469.203                    21909472.082
                        43.500
                                  19494616.281

                  89233926.182 6  21485118.555                    21485121.563
                        39.900
                  87354979.339 7  21003217.844                    21003221.520
                        43.500
                  89193145.348 7  21430121.094                    21430123.492
                        43.800
                  86934597.745 7  20872833.164                    20872833.758
                        44.500
 119628671.648 7  93217168.08845  22764579.188                    22764585.348
        42.700          32.400
 120168424.033 8  93637746.35145  22867292.297                    22867295.148
        48.800          33.700
 126012640.847 6  98191680.59844  23979408.984                    23979412.266
        40.500          26.400
 112680456.467 8  87802977.19346  21442378.305                    21442384.078
        48.800          37.500
 117200019.941 7  91324694.42644  22302422.031                    22302424.496
        43.900          27.700
 117421369.899 7  91497191.88546  22344543.313                    22344549.027
        46.200          36.200
 114438023.752 8  89172498.24645  21776832.328                    21776835.461
        48.200          34.900
 109590120.751 8  85394912.46446  20854307.102                    20854310.711
        48.300          38.000
 18  3 11 10 25 37.0000000  0 17R02G20R03R11R12R13R20R21R04G27G07G21
                                G30G28G08G15G13
                  94873062.958 6  22858935.844                    22858938.887
                        40.500
 114844866.108 7  89489581.79345  21854267.742                    21854270.742
        44.500          32.200
                  82790083.178 7  19884708.930                    19884710.570
                        43.800
                  91063651.491 7  21910269.031                    21910272.289
                        43.000
                                  19494808.750

                  89231192.736 6  21484459.508                    21484462.766
                        38.900
                  87356457.063 7  21003573.391                    21003576.891
                        43.900
                  89191232.604 7  21429660.984                    21429663.535
                        43.900
                  86932571.075 7  20872346.023                    20872346.387
                        44.800
 119631035.196 6  93219009.81345  22765029.453                    22765035.016
        41.700          31.900
 120171809.175 8  93640384.12045  22867936.906                    22867939.738
        49.500          34.600
 126014881.990 6  98193426.94844  23979835.391                    23979838.734
        41.100          26.200
 112682605.800 8  87804651.99146  21442787.258                    21442793.152
        48.100          37.200
 117198132.873 7  91323223.98644  22302062.977                    22302065.492
        43.500          27.800
 117421002.351 7  91496905.48145  22344473.875                    22344479.051
        46.500          35.800
 114436450.000 7  89171271.94445  21776532.703                    21776535.676
        47.900          35.200
 109590219.678 8  85394989.55346  20854326.352                    20854329.539
        48.300          37.900
 18  3 11 10 25 38.0000000  0 17R02G20R03R11R12R13R20R21R04G27G07G21
                                G30G28G08G15G13
                  94876833.908 6  22859844.633                    22859847.234
                        40.100
 114846533.892 7  89490881.36245  21854584.898                    21854588.141
        43.900          32.500
                  82791539.692 7  19885060.719                    19885060.348
                        43.500
                  91066977.049 7  21911068.211                    21911071.855
                        43.000
                                  19495002.773

                  89228459.726 6  21483799.344                    21483803.473
                        38.100
                  87357935.541 7  21003928.242                    21003932.594
                        43.700
                  89189320.479 7  21429202.359                    21429204.180
                        43.700
                  86930544.935 7  20871859.289                    20871860.133
                        44.400
 119633399.452 7  93220852.09745  22765479.336                    22765485.172
        42.000          30.700
 120175194.711 8  93643022.21545  22868580.617                    22868583.758
        49.200          34.100
 126017123.648 7  98195173.70944  23980262.891                    23980265.566
        42.100          27.300
 112684755.759 8  87806327.28146  21443196.969                    21443202.090
        48.600          37.600
 117196246.274 7  91321753.90544  22301703.477                    22301706.824
        43.400          26.700
 117420635.553 7  91496619.66646  22344403.445                    22344409.207
        46.500          36.000
 114434876.887 7  89170046.13545  21776233.414                    21776236.340
        47.500          34.900
 109590319.357 7  85395067.23146  20854345.313                    20854348.395
        47.800          38.100
 18  3 11 10 25 39.0000000  0 17R02G20R03R11R12R13R20R21R04G27G07G21
                                G30G28G08G15G13
                  94880605.123 6  22860752.758                    22860756.535
                        40.600
 114848202.372 7  89492181.46545  21854903.094                    21854905.480
        44.300          32.600
                  82792996.895 7  19885410.227                    19885410.742
                        43.400
                  91070302.958 7  21911869.898                    21911872.195
                        43.000
                                  19495196.203

                  89225727.091 6  21483143.070                    21483144.438
                        37.200
                  87359414.704 7  21004284.648                    21004287.496
                        43.500
                  89187408.956 7  21428743.680                    21428745.035
                        43.900
                  86928519.375 7  20871373.375                    20871373.695
                        44.400
 119635764.359 7  93222694.87445  22765929.570                    22765934.879
        42.000          32.700
 120178580.686 8  93645660.65045  22869224.258                    22869228.305
        48.700          33.700
 126019365.764 7  98196920.82044  23980689.578                    23980692.055
        42.100          25.800
 112686906.327 8  87808003.04846  21443605.938                    21443611.402
        49.100          37.500
 117194360.206 7  91320284.23744  22301345.734                    22301347.430
        43.700          27.400
 117420269.505 7  91496334.43045  22344333.773                    22344339.348
        46.000          35.500
 114433304.423 7  89168820.83845  21775934.063                    21775937.633
        47.800          35.300
 109590419.789 8  85395145.49046  20854364.516                    20854367.316
        48.300          37.700
 18  3 11 10 25 40.0000000  0 17R02G20R03R11R12R13R20R21R04G27G07G21
                                G30G28G08G15G13
                  94884376.535 6  22861661.422                    22861665.375
                        40.900
 114849871.526 7  89493482.10045  21855220.875                    21855223.195
        45.200          32.000
                  82794454.780 7  19885759.813                    19885761.156
                        43.300
                  91073629.171 7  21912669.719                    21912671.965
                        43.400
                                  19495389.969

                  89222994.790 6  21482486.148                    21482485.922
                        37.100
                  87360894.627 7  21004639.805                    21004643.313
                        43.700
                  89185498.021 7  21428283.563                    21428286.363
                        43.000
                  86926494.344 7  20870886.742                    20870888.371
                        44.400
 119638129.850 7  93224538.10445  22766380.383                    22766385.051
        42.400          32.100
 120181967.047 8  93648299.37345  22869868.984                    22869873.125
        48.600          33.500
 126021608.367 7  98198668.30844  23981115.172                    23981118.668
        42.300          27.300
 112689057.472 8  87809679.25546  21444015.141                    21444020.457
        49.600          37.300
 117192474.625 7  91318814.94044  22300985.758                    22300988.836
        42.700          28.200
 117419904.138 7  91496049.72946  22344264.336                    22344269.590
        45.800          36.200
 114431732.556 8  89167596.00645  21775635.188                    21775638.184
        48.000          35.100
 109590520.928 8  85395224.30146  20854384.328                    20854386.832
        48.600          37.500
 18  3 11 10 25 41.0000000  0 17R02G20R03R11R12R13R20R21R04G27G07G21
                                G30G28G08G15G13
                  94888148.190 6  22862570.133                    22862574.281
                        41.300
 114851541.333 7  89494783.24345  21855539.633                    21855541.441
        45.600          33.500
                  82795913.346 7  19886109.328                    19886111.309
                        43.300
                  91076955.719 7  21913471.133                    21913472.816
                        43.300
                                  19495584.141

                  89220262.818 6  21481830.016                    21481827.250
                        37.300
                  87362375.250 7  21004996.672                    21004999.137
                        44.000
                  89183587.715 7  21427825.281                    21427825.945
                        43.100
                  86924469.797 7  20870400.961                    20870402.465
                        43.900
 119640496.021 7  93226381.87045  22766830.305                    22766835.832
        42.800          32.100
 120185353.753 8  93650938.35745  22870513.383                    22870517.398
        48.700          33.500
 126023851.385 7  98200416.10744  23981541.961                    23981545.555
        42.500          26.400
 112691209.218 8  87811355.94546  21444424.914                    21444430.395
        50.200          37.500
 117190589.495 7  91317346.00344  22300626.758                    22300629.598
        43.400          27.800
 117419539.495 7  91495765.59146  22344194.813                    22344200.449
        45.600          36.000
 114430161.313 8  89166371.66345  21775336.156                    21775339.340
        48.100          34.800
 109590622.775 8  85395303.65546  20854403.625                    20854406.121
        49.200          37.600
 18  3 11 10 25 42.0000000  0 17R02G20R03R11R12R13R20R21R04G27G07G21
                                G30G28G08G15G13
                  94891920.034 6  22863480.586                    22863483.762
                        41.000
 114853211.829 7  89496084.93045  21855857.141                    21855858.613
        45.900          32.500
                  82797372.589 7  19886459.531                    19886461.551
                        43.300
                  91080282.553 7  21914271.719                    21914272.883
                        43.600
                                  19495777.047

                  89217531.204 6  21481172.641                    21481169.527
                        38.100
                  87363856.596 7  21005352.578                    21005355.609
                        43.700
                  89181677.952 7  21427366.563                    21427367.699
                        43.100
                  86922445.787 7  20869914.703                    20869915.918
                        43.800
 119642862.742 7  93228226.06445  22767280.289                    22767286.012
        42.800          31.200
 120188740.824 8  93653577.62445  22871158.602                    22871162.309
        48.900          33.600
 126026094.894 6  98202164.28744  23981968.500                    23981972.477
        41.300          28.100
 112693361.522 8  87813033.06846  21444833.984                    21444839.871
        48.500          37.800
 117188704.890 7  91315877.48244  22300268.734                    22300271.465
        43.000          26.700
 117419175.558 7  91495482.00945  22344126.094                    22344131.508
        45.800          35.400
 114428590.674 8  89165147.78945  21775037.031                    21775040.383
        48.200          34.900
 109590725.323 8  85395383.56146  20854422.758                    20854425.602
        48.200          37.600
 18  3 11 10 25 43.0000000  0 17R02G20R03R11R12R13R20R21R04G27G07G21
                                G30G28G08G15G13
                  94895692.106 6  22864388.617                    22864392.727
                        41.300
 114854883.006 7  89497387.14845  21856175.141                    21856176.887
        46.300          32.500
                  82798832.531 7  19886810.352                    19886812.375
                        43.500
                  91083609.778 7  21915072.297                    21915073.594
                        43.600
                                  19495970.766

                  89214799.961 6  21480514.969                    21480513.395
                        39.100
                  87365338.672 7  21005708.836                    21005711.684
                        43.900
                  89179768.797 7  21426907.586                    21426908.297
                        42.800
                  86920422.351 7  20869429.695                    20869430.395
                        43.900
 119645230.165 7  93230070.82145  22767731.000                    22767736.770
        43.300          31.900
 120192128.312 8  93656217.22745  22871802.297                    22871806.586
        48.200          34.200
 126028338.910 6  98203912.86244  23982395.680                    23982399.590
        40.600          26.500
 112695514.469 8  87814710.69146  21445243.695                    21445249.602
        48.700          37.600
 117186820.761 7  91314409.33544  22299909.578                    22299912.711
        42.500          27.700
 117418812.329 7  91495198.97345  22344056.922                    22344061.980
        45.900          35.900
 114427020.670 8  89163924.40945  21774738.297                    21774741.781
        48.600          35.000
 109590828.646 8  85395464.06346  20854442.555                    20854445.500
        48.700          38.100
 18  3 11 10 25 44.0000000  0 17R02G20R03R11R12R13R20R21R04G27G07G21
                                G30G28G08G15G13
                  94899464.433 6  22865298.695                    22865301.945
                        41.100
 114856554.897 7  89498689.93845  21856492.813                    21856495.207
        46.500          31.800
                  82800293.182 7  19887161.398                    19887163.176
                        43.600
                  91086937.342 7  21915872.430                    21915874.414
                        43.700
                                  19496166.094

                  89212069.129 6  21479857.094                    21479857.016
                        40.100
                  87366821.531 7  21006065.180                    21006068.883
                        44.200
                  89177860.263 7  21426448.883                    21426450.184
                        43.100
                  86918399.436 7  20868944.188                    20868944.152
                        44.100
 119647598.251 7  93231916.09245  22768181.805                    22768187.266
        43.000          32.300
 120195516.234 7  93658857.16745  22872446.508                    22872451.266
        47.600          33.500
 126030583.380 6  98205661.79444  23982823.047                    23982826.898
        40.200          27.000
 112697668.049 8  87816388.80646  21445653.445                    21445659.316
        49.300          38.100
 117184937.158 7  91312941.59744  22299551.469                    22299554.465
        42.900          27.500
 117418449.875 7  91494916.54045  22343988.219                    22343993.203
        45.900          35.700
 114425451.342 8  89162701.55745  21774439.578                    21774442.855
        48.500          34.900
 109590932.676 8  85395545.12346  20854461.828                    20854465.266
        49.000          37.300
 18  3 11 10 25 45.0000000  0 17R02G20R03R11R12R13R20R21R04G27G07G21
                                G30G28G08G15G13
                  94903236.912 6  22866207.727                    22866210.508
                        40.900
 114858227.473 7  89499993.25745  21856810.414                    21856813.555
        45.900          32.200
                  82801754.504 7  19887512.734                    19887514.246
                        43.800
                  91090265.231 7  21916673.148                    21916675.438
                        43.800
                                  19496360.313

                  89209338.669 6  21479197.828                    21479201.289
                        40.500
                  87368305.097 7  21006421.602                    21006425.043
                        44.100
                  89175952.324 7  21425990.211                    21425991.551
                        43.400
                  86916377.042 7  20868458.008                    20868459.262
                        44.200
 119649966.933 7  93233761.81345  22768632.508                    22768638.348
        43.700          32.200
 120198904.523 8  93661497.37645  22873092.586                    22873096.023
        48.300          34.200
 126032828.364 6  98207411.12244  23983250.078                    23983253.395
        39.500          28.200
 112699822.203 8  87818067.36646  21446063.336                    21446069.441
        49.500          38.400
 117183054.028 7  91311474.21644  22299192.984                    22299196.258
        42.900          27.900
 117418088.128 7  91494634.66245  22343919.016                    22343924.320
        45.700          35.500
 114423882.625 8  89161479.18045  21774141.008                    21774144.313
        48.400          34.900
 109591037.474 8  85395626.77946  20854481.609                    20854485.387
        48.300          37.900
 18  3 11 10 25 46.0000000  0 17R02G20R03R11R12R13R20R21R04G27G07G21
                                G30G28G08G15G13
                  94907009.596 6  22867116.828                    22867119.609
                        41.000
 114859900.820 7  89501297.17645  21857127.992                    21857131.688
        45.400          33.000
                  82803216.570 7  19887863.336                    19887865.219
                        43.700
                  91093593.486 7  21917473.055                    21917476.336
                        44.300
                                  19496554.609

                  89206608.633 6  21478538.258                    21478544.000
                        40.900
                  87369789.416 7  21006778.156                    21006781.926
                        43.600
                  89174045.047 7  21425532.961                    21425533.441
                        43.200
                  86914355.223 7  20867972.781                    20867973.785
                        44.200
 119652336.342 7  93235608.10545  22769083.273                    22769089.645
        44.400          32.400
 120202293.259 7  93664137.93945  22873736.805                    22873740.867
        47.800          34.400
 126035073.893 6  98209160.85544  23983677.773                    23983680.965
        38.900          27.900
 112701977.011 8  87819746.43346  21446473.867                    21446479.242
        50.200          37.900
 117181171.486 7  91310007.30544  22298835.398                    22298837.734
        43.800          27.600
 117417727.191 7  91494353.41946  22343850.883                    22343855.934
        45.900          36.000
 114422314.580 8  89160257.32045  21773842.352                    21773845.938
        48.600          34.600
 109591143.023 8  85395709.02446  20854501.453                    20854505.008
        48.300          37.900
 18  3 11 10 25 47.0000000  0 17R02G20R03R11R12R13R20R21R04G27G07G21
                                G30G28G08G15G13
                  94910782.470 6  22868024.680                    22868028.020
                        40.700
 114861574.869 7  89502601.63145  21857446.234                    21857450.398
        44.400          32.500
                  82804679.353 7  19888214.000                    19888216.746
                        43.800
                  91096922.090 7  21918274.156                    21918277.332
                        43.800
                                  19496749.656

                  89203879.052 6  21477882.453                    21477886.602
                        40.600
                  87371274.487 7  21007135.367                    21007138.770
                        43.900
                  89172138.369 7  21425074.516                    21425075.375
                        43.500
                  86912333.932 7  20867487.484                    20867487.934
                        44.200
 119654706.406 7  93237454.91345  22769534.977                    22769540.738
        45.300          32.100
 120205682.427 7  93666778.83845  22874382.422                    22874385.863
        47.500          34.100
 126037319.838 6  98210910.93244  23984105.508                    23984108.195
        37.500          27.000
 112704132.446 8  87821425.98546  21446884.164                    21446889.387
        50.300          38.100
 117179289.432 7  91308540.76544  22298476.695                    22298479.996
        42.900          26.900
 117417366.979 7  91494072.73745  22343781.930                    22343786.984
        46.000          35.900
 114420747.195 8  89159035.98045  21773544.672                    21773547.695
        48.300          35.400
 109591249.312 8  85395791.85146  20854522.070                    20854525.398
        48.700          38.000
 18  3 11 10 25 48.0000000  0 17R02G20R03R11R12R13R20R21R04G27G07G21
                                G30G28G08G15G13
                  94914555.598 6  22868934.547                    22868936.965
                        40.500
 114863249.634 7  89503906.63345  21857765.055                    21857769.137
        43.400          31.900
                  82806142.863 7  19888565.875                    19888568.156
                        43.700
                  91100251.048 7  21919073.953                    21919078.340
                        43.500
                                  19496944.156

                  89201149.836 6  21477226.523                    21477229.176
                        39.300
                  87372760.289 7  21007493.664                    21007496.070
                        44.000
                  89170232.293 7  21424615.453                    21424617.453
                        43.400
                  86910313.185 7  20867001.539                    20867002.688
                        44.000
 119657077.082 7  93239302.19645  22769986.172                    22769991.762
        45.300          31.600
 120209071.967 8  93669420.02745  22875027.977                    22875030.543
        48.300          33.900
 126039566.323 6  98212661.44744  23984533.148                    23984535.570
        38.400          27.800
 112706288.483 8  87823106.01446  21447294.492                    21447300.020
        50.300          38.300
 117177407.896 7  91307074.63644  22298118.320                    22298121.301
        42.600          27.000
 117417007.501 7  91493792.62945  22343713.852                    22343718.773
        46.400          35.700
 114419180.431 8  89157815.12445  21773246.227                    21773249.758
        48.000          35.100
 109591356.352 8  85395875.25946  20854542.391                    20854545.590
        48.500          37.900
 18  3 11 10 25 49.0000000  0 17R02G20R03R11R12R13R20R21R04G27G07G21
                                G30G28G08G15G13
                  94918328.986 6  22869843.219                    22869846.453
                        40.100
 114864925.066 7  89505212.14545  21858083.891                    21858087.625
        43.100          32.100
                  82807607.062 7  19888917.711                    19888919.453
                        43.600
                  91103580.327 7  21919875.039                    21919879.375
                        43.000
                                  19497139.258

                  89198420.993 6  21476571.156                    21476571.895
                        38.900
                  87374246.820 7  21007849.633                    21007853.863
                        43.800
                  89168326.834 7  21424158.461                    21424159.625
                        43.500
                  86908293.004 7  20866517.281                    20866517.684
                        44.000
 119659448.429 7  93241150.01445  22770437.273                    22770443.441
        45.200          31.700
 120212461.857 8  93672061.50845  22875673.195                    22875676.055
        49.400          33.900
 126041813.242 6  98214412.29244  23984960.797                    23984963.617
        38.100          26.900
 112708445.141 8  87824786.52846  21447704.352                    21447710.078
        50.200          38.300
 117175526.838 7  91305608.88244  22297761.516                    22297763.402
        42.800          27.400
 117416648.767 7  91493513.09746  22343645.383                    22343650.527
        47.000          36.000
 114417614.315 7  89156594.77545  21772948.336                    21772951.430
        47.900          35.500
 109591464.137 8  85395959.23946  20854562.898                    20854566.184
        48.400          37.000
 18  3 11 10 25 50.0000000  0 17R02G20R03R11R12R13R20R21R04G27G07G21
                                G30G28G08G15G13
                  94922102.636 6  22870752.898                    22870755.262
                        40.400
 114866601.298 7  89506518.28545  21858404.125                    21858406.316
        43.300          32.800
                  82809071.959 7  19889270.148                    19889271.832
                        43.600
                  91106909.949 7  21920677.359                    21920680.137
                        43.100
                                  19497335.133

                  89195692.516 6  21475914.750                    21475914.281
                        37.000
                  87375734.127 7  21008206.891                    21008211.086
                        43.800
                  89166421.987 7  21423701.094                    21423702.469
                        43.800
                  86906273.397 7  20866031.898                    20866033.098
                        44.100
 119661820.445 7  93242998.36145  22770887.789                    22770894.633
        44.600          33.000
 120215852.202 8  93674703.34545  22876317.563                    22876321.059
        48.800          33.500
 126044060.733 6  98216163.58244  23985389.070                    23985390.938
        38.800          27.600
 112710602.438 8  87826467.54746  21448115.000                    21448120.656
        50.200          38.100
 117173646.351 7  91304143.56344  22297403.281                    22297406.027
        43.000          27.900
 117416290.787 7  91493234.16245  22343577.398                    22343582.629
        46.400          35.700
 114416048.841 8  89155374.92645  21772650.484                    21772653.836
        48.000          35.200
 109591572.683 8  85396043.82446  20854583.117                    20854586.930
        48.300          36.700
 18  3 11 10 25 51.0000000  0 17R02G20R03R11R12R13R20R21R04G27G07G21
                                G30G28G08G15G13
                  94925876.511 6  22871663.438                    22871664.641
                        40.200
 114868278.141 7  89507824.89945  21858723.484                    21858725.551
        44.100          32.100
                  82810537.520 7  19889622.344                    19889623.586
                        43.600
                  91110239.933 7  21921478.703                    21921480.758
                        43.200
                                  19497529.945

                  89192964.349 6  21475258.523                    21475256.531
                        36.500
                  87377222.148 7  21008566.227                    21008569.426
                        43.900
                  89164517.760 7  21423243.047                    21423244.086
                        43.800
                  86904254.327 7  20865547.211                    20865548.441
                        44.000
 119664193.106 7  93244847.19445  22771338.492                    22771345.906
        43.500          30.900
 120219242.949 8  93677345.49545  22876962.352                    22876966.324
        48.700          33.300
 126046308.661 6  98217915.20444  23985816.805                    23985819.074
        39.100          27.400
 112712760.331 8  87828149.02146  21448525.750                    21448531.367
        50.000          37.700
 117171766.329 7  91302678.60544  22297045.758                    22297048.059
        43.600          27.000
 117415933.531 7  91492955.78045  22343509.195                    22343514.582
        46.900          35.900
 114414484.014 8  89154155.58245  21772352.695                    21772356.184
        48.200          35.100
 109591681.950 8  85396128.96046  20854604.531                    20854607.926
        48.800          37.100
 18  3 11 10 25 52.0000000  0 17R02G20R03R11R12R13R20R21R04G27G07G21
                                G30G28G08G15G13
                  94929650.585 6  22872571.766                    22872574.297
                        40.000
 114869955.698 7  89509132.07545  21859043.734                    21859044.977
        44.900          32.500
                  82812003.781 7  19889974.734                    19889975.633
                        43.900
                  91113570.242 7  21922280.516                    21922281.711
                        43.000
                                  19497726.227

                  89190236.559 6  21474601.758                    21474598.277
                        37.500
                  87378710.931 7  21008924.344                    21008927.316
                        44.000
                  89162614.135 7  21422785.219                    21422787.469
                        43.600
                  86902235.822 7  20865062.336                    20865063.176
                        44.200
 119666566.407 7  93246696.52145  22771790.039                    22771797.523
        42.700          30.900
 120222634.100 8  93679987.94645  22877607.867                    22877611.133
        48.600          33.800
 126048557.087 6  98219667.21844  23986244.906                    23986247.121
        39.600          27.300
 112714918.851 8  87829830.97946  21448936.055                    21448942.012
        49.800          38.200
 117169886.832 7  91301214.04944  22296687.984                    22296690.727
        43.500          26.800
 117415577.032 7  91492677.98945  22343441.219                    22343446.840
        46.800          35.300
 114412919.827 8  89152936.73145  21772055.203                    21772058.332
        48.400          35.800
 109591791.956 8  85396214.67746  20854624.977                    20854628.445
        48.400          37.100
 18  3 11 10 25 53.0000000  0 17R02G20R03R11R12R13R20R21R04G27G07G21
                                G30G28G08G15G13
                  94933424.896 6  22873481.930                    22873482.945
                        39.400
 114871633.974 7  89510439.82145  21859362.633                    21859364.273
        45.300          32.000
                  82813470.766 7  19890326.117                    19890328.457
                        43.600
                  91116900.875 7  21923081.961                    21923083.512
                        42.700
                                  19497922.227

                  89187509.160 6  21473944.125                    21473942.598
                        38.800
                  87380200.427 7  21009282.055                    21009285.199
                        43.400
                  89160711.128 7  21422328.469                    21422330.117
                        43.300
                  86900217.855 7  20864578.422                    20864579.113
                        44.000
 119668940.408 7  93248546.39545  22772241.969                    22772248.996
        42.800          31.700
 120226025.648 8  93682630.70845  22878253.992                    22878256.848
        49.000          33.600
 126050806.023 6  98221419.62144  23986672.039                    23986675.082
        40.800          28.200
 112717077.966 8  87831513.39946  21449347.625                    21449353.254
        50.300          38.600
 117168007.829 7  91299749.89044  22296329.844                    22296332.813
        43.200          28.300
 117415221.262 7  91492400.76346  22343373.633                    22343379.000
        47.200          36.100
 114411356.282 7  89151718.38846  21771757.555                    21771760.695
        47.800          36.100
 109591902.722 8  85396300.99046  20854646.297                    20854649.316
        48.400          37.300
 18  3 11 10 25 54.0000000  0 17R02G20R03R11R12R13R20R21R04G27G07G21
                                G30G28G08G15G13
                  94937199.356 6  22874391.180                    22874392.387
                        39.900
 114873312.912 7  89511748.09445  21859682.328                    21859684.020
        45.800          31.800
                  82814938.442 7  19890679.016                    19890680.230
                        43.600
                  91120231.901 7  21923884.203                    21923884.398
                        43.000
                                  19498118.047

                  89184782.154 6  21473284.891                    21473286.645
                        39.500
                  87381690.661 7  21009640.367                    21009643.898
                        43.400
                  89158808.703 7  21421871.508                    21421873.313
                        43.700
                  86898200.387 7  20864093.086                    20864094.434
                        43.900
 119671315.003 7  93250396.72545  22772694.289                    22772701.145
        42.900          31.400
 120229417.558 8  93685273.75845  22878899.109                    22878902.055
        49.300          34.400
 126053055.396 6  98223172.38044  23987099.672                    23987102.773
        40.100          26.100
 112719237.706 8  87833196.31146  21449759.008                    21449764.063
        50.200          38.000
 117166129.383 7  91298286.15844  22295972.828                    22295975.695
        42.700          26.900
 117414866.205 7  91492124.09746  22343305.977                    22343311.305
        47.300          36.000
 114409793.360 8  89150500.53445  21771460.398                    21771463.426
        48.400          35.300
 109592014.210 8  85396387.87046  20854667.805                    20854670.781
        48.800          37.800
 18  3 11 10 25 55.0000000  0 17R02G20R03R11R12R13R20R21R04G27G07G21
                                G30G28G08G15G13
                  94940973.997 6  22875300.227                    22875301.191
                        39.600
 114874992.552 7  89513056.91845  21860001.367                    21860003.926
        45.800          32.100
                  82816406.789 7  19891032.250                    19891033.016
                        43.900
                  91123563.254 7  21924684.656                    21924686.148
                        43.200
                                  19498314.375

                  89182055.535 6  21472626.250                    21472630.574
                        39.600
                  87383181.626 7  21009999.211                    21010002.309
                        43.800
                  89156906.919 7  21421414.383                    21421416.746
                        43.600
                  86896183.484 7  20863609.258                    20863610.258
                        44.000
 119673690.244 7  93252247.55745  22773145.953                    22773152.934
        43.200          31.200
 120232809.897 8  93687917.15245  22879543.469                    22879548.031
        48.200          33.700
 126055305.245 6  98224925.52944  23987528.016                    23987531.391
        39.600          27.500
 112721398.052 8  87834879.70046  21450169.805                    21450174.859
        50.500          38.400
 117164251.376 7  91296822.77644  22295614.305                    22295617.801
        42.600          28.200
 117414511.880 7  91491848.00246  22343238.656                    22343243.648
        47.300          36.300
 114408231.090 8  89149283.18145  21771163.367                    21771165.988
        48.600          35.200
 109592126.428 8  85396475.31546  20854689.484                    20854691.949
        49.000          37.000
 18  3 11 10 25 56.0000000  0 17R02G20R03R11R12R13R20R21R04G27G07G21
                                G30G28G08G15G13
                  94944748.851 6  22876208.805                    22876210.734
                        38.800
 114876672.900 7  89514366.29545  21860320.328                    21860323.383
        45.300          32.100
                  82817875.821 7  19891384.039                    19891385.996
                        43.800
                  91126894.951 7  21925485.867                    21925488.035
                        43.000
                                  19498510.086

                  89179329.364 6  21471970.281                    21471974.516
                        40.400
                  87384673.307 7  21010356.570                    21010360.254
                        43.600
                  89155005.752 7  21420958.070                    21420959.551
                        43.500
                  86894167.104 7  20863124.859                    20863126.012
                        44.100
 119676066.165 7  93254098.92245  22773598.047                    22773604.719
        43.500          31.600
 120236202.637 7  93690560.85545  22880188.367                    22880193.281
        47.700          34.100
 126057555.605 6  98226679.06644  23987955.352                    23987959.254
        39.900          27.400
 112723559.000 8  87836563.55946  21450580.930                    21450586.461
        50.700          38.100
 117162373.894 7  91295359.79944  22295257.891                    22295261.086
        42.800          27.500
 117414158.270 7  91491572.45346  22343171.328                    22343176.484
        47.400          36.400
 114406669.437 8  89148066.30345  21770865.852                    21770868.645
        48.500          35.100
 109592239.399 8  85396563.35046  20854711.297                    20854713.855
        49.300          37.200
 18  3 11 10 25 57.0000000  0 17R02G20R03R11R12R13R20R21R04G27G07G21
                                G30G28G08G15G13
                  94948524.060 6  22877118.203                    22877120.043
                        38.600
 114878354.036 7  89515676.27545  21860639.938                    21860643.281
        45.000          31.800
                  82819345.623 7  19891736.594                    19891739.219
                        44.000
                  91130227.053 7  21926287.453                    21926289.754
                        43.300
                                  19498707.133

                  89176603.680 6  21471315.320                    21471318.828
                        40.500
                  87386165.798 7  21010716.156                    21010719.262
                        43.800
                  89153105.220 7  21420500.484                    21420502.891
                        43.700
                  86892151.371 7  20862642.195                    20862641.520
                        44.200
 119678442.781 7  93255950.83245  22774050.227                    22774056.688
        43.300          31.200
 120239595.857 8  93693204.91345  22880835.203                    22880838.902
        48.200          34.000
 126059806.521 6  98228433.02744  23988383.383                    23988387.586
        39.600          27.000
 112725720.642 8  87838247.95446  21450991.945                    21450997.902
        50.300          37.500
 117160497.020 7  91293897.30744  22294900.625                    22294903.637
        42.800          27.500
 117413805.501 7  91491297.56645  22343103.711                    22343109.734
        47.500          35.700
 114405108.521 8  89146850.00045  21770568.570                    21770572.105
        48.400          35.100
 109592353.197 8  85396652.02446  20854733.391                    20854735.359
        49.600          37.600
 18  3 11 10 25 58.0000000  0 17R02G20R03R11R12R13R20R21R04G27G07G21
                                G30G28G08G15G13
                  94952299.440 6  22878027.398                    22878030.324
                        39.100
 114880035.856 7  89516986.78345  21860960.344                    21860963.188
        43.900          32.600
                  82820816.116 7  19892090.383                    19892092.285
                        43.500
                  91133559.478 7  21927087.961                    21927091.031
                        43.300
                                  19498903.906

                  89173878.308 6  21470660.297                    21470662.707
                        40.400
                  87387658.998 7  21011074.945                    21011077.813
                        44.000
                  89151205.283 7  21420044.406                    21420045.902
                        43.600
                  86890136.152 7  20862157.188                    20862158.297
                        44.800
 119680820.034 7  93257803.23045  22774502.531                    22774509.395
        42.500          30.700
 120242989.436 7  93695849.24945  22881480.523                    22881484.973
        47.500          33.900
 126062057.905 6  98230187.34844  23988812.656                    23988816.172
        39.800          27.500
 112727882.863 8  87839932.80446  21451403.164                    21451409.074
        49.800          37.900
 117158620.639 7  91292435.20144  22294544.398                    22294546.512
        42.600          28.000
 117413453.447 7  91491023.23246  22343036.945                    22343042.453
        47.500          36.200
 114403548.223 8  89145634.18245  21770271.602                    21770274.793
        48.300          35.500
 109592467.726 8  85396741.25946  20854755.047                    20854757.359
        49.900          37.100
 18  3 11 10 25 59.0000000  0 17R02G20R03R11R12R13R20R21R04G27G07G21
                                G30G28G08G15G13
                  94956075.074 6  22878936.617                    22878939.527
                        39.200
 114881718.344 7  89518297.80045  21861280.602                    21861283.426
        43.900          32.400
                  82822287.271 7  19892444.367                    19892445.633
                        43.800
                  91136892.217 7  21927890.570                    21927893.500
                        43.600
                                  19499099.867

                  89171153.275 6  21470005.898                    21470007.137
                        39.600
                  87389152.913 7  21011433.930                    21011437.980
                        43.500
                  89149305.972 7  21419588.703                    21419589.414
                        43.600
                  86888121.448 7  20861673.172                    20861674.086
                        44.600
 119683197.920 7  93259656.11145  22774955.555                    22774961.875
        42.200          30.900
 120246383.421 7  93698493.90045  22882127.094                    22882130.680
        47.800          33.000
 126064309.764 6  98231942.02844  23989240.969                    23989244.480
        39.900          27.200
 112730045.696 8  87841618.12946  21451814.758                    21451820.977
        50.000          38.300
 117156744.703 7  91290973.43144  22294187.367                    22294189.691
        42.600          28.100
 117413102.102 7  91490749.45546  22342969.938                    22342975.621
        47.300          36.200
 114401988.537 8  89144418.84045  21769974.359                    21769978.020
        48.500          35.000
 109592582.961 8  85396831.04446  20854776.406                    20854778.816
        49.800          37.400
 18  3 11 10 26  0.0000000  0 17R02G20R03R11R12R13R20R21R04G27G07G21
                                G30G28G08G15G13
                  94959850.862 6  22879846.273                    22879849.676
                        39.900
 114883401.518 7  89519609.35345  21861601.156                    21861603.520
        44.300          32.600
                  82823759.112 7  19892797.359                    19892799.191
                        43.900
                  91140225.286 7  21928692.961                    21928696.031
                        43.700
                                  19499297.625

                  89168428.589 6  21469350.305                    21469350.172
                        38.500
                  87390647.610 7  21011793.625                    21011796.441
                        43.500
                  89147407.265 7  21419132.383                    21419133.852
                        43.500
                  86886107.295 7  20861189.633                    20861191.070
                        44.400
 119685576.448 7  93261509.49745  22775408.727                    22775414.227
        42.000          31.900
 120249777.770 7  93701138.84545  22882773.234                    22882776.707
        47.900          33.600
 126066562.086 6  98233697.06644  23989670.336                    23989672.863
        40.300          27.300
 112732209.126 8  87843303.91046  21452226.242                    21452232.195
        49.500          37.700
 117154869.279 7  91289512.06344  22293829.961                    22293833.203
        42.800          27.300
 117412751.479 7  91490476.23946  22342903.195                    22342909.207
        47.400          36.200
 114400429.454 8  89143203.96845  21769678.000                    21769681.406
        48.700          35.400
 109592698.935 8  85396921.41046  20854798.195                    20854801.227
        49.400          37.500
 18  3 11 10 26  1.0000000  0 17R02G20R03R11R12R13R20R21R04G27G07G21
                                G30G28G08G15G13
                  94963626.870 6  22880757.391                    22880759.234
                        39.900
 114885085.432 7  89520921.47745  21861922.109                    21861923.680
        44.800          32.300
                  82825231.671 7  19893150.617                    19893153.055
                        43.600
                  91143558.697 7  21929495.836                    21929497.809
                        43.600
                                  19499494.875

                  89165704.291 6  21468693.578                    21468693.406
                        37.700
                  87392143.030 7  21012153.531                    21012156.520
                        43.500
                  89145509.123 7  21418675.125                    21418677.465
                        43.800
                  86884093.701 7  20860707.117                    20860707.559
                        44.400
 119687955.655 7  93263363.41645  22775861.508                    22775866.703
        42.000          31.500
 120253172.518 8  93703784.09845  22883419.680                    22883422.602
        48.600          33.400
 126068814.935 6  98235452.51544  23990099.234                    23990101.695
        41.400          26.500
 112734373.182 8  87844990.18346  21452638.508                    21452644.180
        50.000          38.100
 117152994.405 7  91288051.12244  22293473.406                    22293475.961
        43.500          28.100
 117412401.631 7  91490203.63245  22342836.836                    22342842.785
        47.000          35.400
 114398871.055 8  89141989.63746  21769381.711                    21769384.691
        48.600          36.200
 109592815.653 8  85397012.35046  20854819.938                    20854823.188
        49.200          37.600
 18  3 11 10 26  2.0000000  0 17R02G20R03R11R12R13R20R21R04G27G07G21
                                G30G28G08G15G13
                  94967403.038 6  22881666.969                    22881669.625
                        39.900
 114886769.996 7  89522234.12345  21862242.719                    21862244.707
        45.100          33.200
                  82826704.891 7  19893504.680                    19893506.418
                        43.400
                  91146892.436 7  21930298.609                    21930299.973
                        43.700
                                  19499691.945

                  89162980.355 6  21468037.125                    21468037.309
                        37.200
                  87393639.188 7  21012513.461                    21012515.879
                        44.400
                  89143611.587 7  21418219.891                    21418221.527
                        43.700
                  86882080.584 7  20860223.375                    20860224.168
                        43.800
 119690335.458 7  93265217.80745  22776315.094                    22776319.605
        42.900          30.700
 120256567.636 8  93706429.65245  22884065.336                    22884069.023
        48.300          32.800
 126071068.203 6  98237208.31644  23990528.422                    23990530.855
        41.100          26.800
 112736537.796 8  87846676.89546  21453050.828                    21453056.262
        50.800          38.000
 117151119.979 7  91286590.53244  22293116.539                    22293119.375
        43.100          27.700
 117412052.467 7  91489931.55946  22342770.297                    22342776.203
        47.700          36.200
 114397313.262 8  89140775.77846  21769085.367                    21769088.316
        48.600          36.300
 109592933.079 8  85397103.85546  20854842.258                    20854845.406
        48.800          37.500
 18  3 11 10 26  3.0000000  0 17R02G20R03R11R12R13R20R21R04G27G07G21
                                G30G28G08G15G13
                  94971179.444 6  22882577.633                    22882579.664
                        39.100
 114888455.261 7  89523547.32245  21862563.656                    21862565.223
        46.200          32.300
                  82828178.818 7  19893859.906                    19893860.508
                        43.800
                  91150226.488 7  21931101.852                    21931102.266
                        43.900
                                  19499888.539

                  89160256.742 6  21467380.258                    21467380.680
                        38.500
                  87395136.092 7  21012872.438                    21012876.281
                        43.900
                  89141714.650 7  21417764.438                    21417765.488
                        43.400
                  86880068.055 7  20859739.352                    20859740.906
                        44.000
 119692715.924 7  93267072.72145  22776767.430                    22776772.668
        42.900          30.500
 120259963.185 7  93709075.54345  22884710.555                    22884715.059
        47.200          33.000
 126073321.983 6  98238964.52144  23990956.359                    23990959.449
        41.400          26.000
 112738703.049 8  87848364.10446  21453462.828                    21453468.328
        50.500          36.100
 117149246.066 7  91285130.32944  22292760.602                    22292762.543
        43.500          27.800
 117411704.089 7  91489660.09345  22342704.047                    22342710.191
        47.200          35.000
 114395756.162 8  89139562.44945  21768789.172                    21768792.113
        48.000          35.400
 109593051.296 8  85397195.98046  20854865.180                    20854868.250
        48.800          38.200
 18  3 11 10 26  4.0000000  0 17R02G20R03R11R12R13R20R21R04G27G07G21
                                G30G28G08G15G13
                  94974956.049 6  22883487.508                    22883489.777
                        39.200
 114890141.269 7  89524861.09445  21862884.102                    21862886.504
        45.800          32.400
                  82829653.389 7  19894213.406                    19894214.523
                        43.000
                  91153560.923 7  21931904.078                    21931905.109
                        43.800
                                  19500087.305

                  89157533.547 6  21466723.516                    21466725.410
                        39.700
                  87396633.688 7  21013233.219                    21013236.582
                        43.000
                  89139818.424 7  21417308.852                    21417310.652
                        43.600
                  86878056.077 7  20859257.336                    20859258.086
                        44.100
 119695097.075 7  93268928.16545  22777220.289                    22777225.676
        42.500          31.600
 120263359.156 7  93711721.75245  22885356.836                    22885361.602
        47.300          33.600
 126075576.239 6  98240721.09744  23991385.336                    23991388.461
        41.700          27.300
 112740868.927 8  87850051.80746  21453874.750                    21453880.652
        50.600          37.500
 117147372.682 7  91283670.53344  22292402.945                    22292406.586
        42.200          27.900
 117411356.464 7  91489389.21345  22342637.781                    22342643.613
        47.900          35.600
 114394199.658 8  89138349.60346  21768492.617                    21768495.723
        48.500          36.400
 109593170.168 8  85397288.60446  20854887.641                    20854890.582
        48.300          37.100
 18  3 11 10 26  5.0000000  0 17R02G20R03R11R12R13R20R21R04G27G07G21
                                G30G28G08G15G13
                  94978732.902 6  22884397.656                    22884399.574
                        40.200
 114891827.869 7  89526175.33745  21863204.914                    21863206.910
        45.900          31.900
                  82831128.731 7  19894567.367                    19894569.004
                        42.500
                  91156895.699 7  21932705.375                    21932707.063
                        43.700
                                  19500284.992

                  89154810.762 6  21466067.586                    21466069.598
                        39.400
                  87398132.050 7  21013593.719                    21013596.328
                        43.500
                  89137922.735 7  21416853.680                    21416854.754
                        42.900
                  86876044.614 7  20858773.961                    20858775.293
                        44.000
 119697478.811 7  93270784.07545  22777673.727                    22777678.988
        42.300          32.200
 120266755.514 8  93714368.24645  22886004.625                    22886007.637
        48.300          33.400
 126077831.012 6  98242478.07744  23991814.648                    23991817.418
        41.800          27.900
 112743035.420 8  87851739.99446  21454286.938                    21454292.355
        50.300          38.300
 117145499.815 7  91282211.15444  22292047.266                    22292049.773
        42.900          27.300
 117411009.534 7  91489118.87645  22342571.625                    22342577.469
        47.500          35.100
 114392643.771 8  89137137.21945  21768196.859                    21768199.660
        48.200          35.500
 109593289.866 7  85397381.89146  20854910.508                    20854913.781
        47.800          36.600
 18  3 11 10 26  6.0000000  0 17R02G20R03R11R12R13R20R21R04G27G07G21
                                G30G28G08G15G13
                  94982509.996 6  22885308.055                    22885310.043
                        40.600
 114893515.293 7  89527490.21945  21863525.672                    21863528.402
        46.300          34.100
                  82832604.795 7  19894922.016                    19894924.219
                        42.900
                  91160230.825 7  21933508.102                    21933510.074
                        43.600
                                  19500483.609

                  89152088.431 6  21465413.609                    21465415.180
                        38.600
                  87399631.136 7  21013953.883                    21013956.910
                        42.700
                  89136027.715 7  21416397.203                    21416399.387
                        43.200
                  86874033.813 7  20858290.867                    20858292.344
                        44.900
 119699861.293 6  93272640.56745  22778126.125                    22778132.129
        41.800          31.800
 120270152.247 8  93717015.03345  22886651.250                    22886653.871
        49.700          33.400
 126080086.273 6  98244235.41744  23992243.250                    23992246.504
        41.200          28.100
 112745202.545 8  87853428.66746  21454699.188                    21454704.887
        50.200          39.100
 117143627.462 6  91280752.18944  22291690.594                    22291693.582
        41.600          27.500
 117410663.355 7  91488849.12445  22342505.430                    22342511.648
        47.300          35.600
 114391088.607 7  89135925.40045  21767901.172                    21767903.684
        47.800          35.800
 109593410.273 7  85397475.72246  20854933.359                    20854936.602
        47.500          36.900
 18  3 11 10 26  7.0000000  0 17R02G20R03R11R12R13R20R21R04G27G07G21
                                G30G28G08G15G13
                  94986287.299 6  22886217.898                    22886220.465
                        40.600
 114895203.381 7  89528805.62945  21863846.734                    21863849.500
        45.900          33.700
                  82834081.525 7  19895277.156                    19895278.375
                        43.200
                  91163566.298 7  21934309.203                    21934312.109
                        42.600
                                  19500681.117

                  89149366.464 6  21464758.438                    21464760.422
                        38.500
                  87401130.930 7  21014313.953                    21014317.141
                        43.600
                  89134133.217 7  21415943.414                    21415944.262
                        42.800
                  86872023.482 7  20857808.109                    20857809.113
                        44.000
 119702244.361 7  93274497.50145  22778579.922                    22778585.699
        42.500          31.400
 120273549.367 8  93719662.15145  22887296.961                    22887300.332
        48.700          33.700
 126082341.979 6  98245993.10744  23992672.789                    23992675.977
        41.800          28.600
 112747370.280 8  87855117.80746  21455111.438                    21455117.480
        50.100          39.200
 117141755.589 6  91279293.59544  22291334.664                    22291337.348
        41.100          27.700
 117410317.916 7  91488579.95346  22342440.172                    22342446.508
        47.800          36.300
 114389534.047 8  89134714.06746  21767605.023                    21767607.980
        48.200          36.300
 109593531.402 8  85397570.10446  20854956.242                    20854959.418
        48.100          37.000
 18  3 11 10 26  8.0000000  0 17R02G20R03R11R12R13R20R21R04G27G07G21
                                G30G28G08G15G13
                  94990064.877 6  22887128.945                    22887130.574
                        41.600
 114896892.104 7  89530121.51945  21864167.719                    21864170.668
        45.500          33.000
                  82835558.978 7  19895631.438                    19895633.375
                        42.300
                  91166902.134 7  21935110.625                    21935114.563
                        42.700
                                  19500879.531

                  89146644.857 6  21464104.203                    21464105.523
                        39.300
                  87402631.506 7  21014674.672                    21014677.988
                        43.300
                  89132239.383 7  21415487.922                    21415489.063
                        43.100
                  86870013.666 7  20857326.313                    20857326.879
                        43.100
 119704628.071 7  93276354.91245  22779034.336                    22779039.344
        42.300          33.400
 120276946.914 8  93722309.60845  22887943.109                    22887947.215
        48.400          34.000
 126084598.132 6  98247751.14644  23993102.133                    23993105.520
        40.800          25.300
 112749538.597 8  87856807.40246  21455523.820                    21455530.145
        50.000          38.700
 117139884.205 6  91277835.36844  22290979.031                    22290981.824
        41.600          27.800
 117409973.231 7  91488311.36946  22342374.445                    22342380.746
        47.300          36.200
 114387980.054 8  89133503.15146  21767309.141                    21767312.398
        49.400          36.900
 109593653.299 7  85397665.09045  20854978.938                    20854982.555
        46.700          35.100
 18  3 11 10 26  9.0000000  0 17R02G20R03R11R12R13R20R21R04G27G07G21
                                G30G28G08G15G13
                  94993842.476 6  22888038.703                    22888040.977
                        40.400
 114898581.547 7  89531437.95745  21864488.688                    21864492.004
        45.200          34.600
                  82837037.070 7  19895986.063                    19895988.875
                        43.400
                  91170238.174 7  21935912.766                    21935917.297
                        42.700
                                  19501078.406

                  89143923.553 6  21463448.648                    21463450.297
                        38.600
                  87404132.692 7  21015035.891                    21015039.516
                        43.700
                  89130346.040 7  21415032.516                    21415034.309
                        43.500
                  86868004.304 7  20856843.211                    20856844.816
                        43.600
 119707012.364 7  93278212.80745  22779488.445                    22779493.262
        42.900          31.700
 120280344.762 7  93724957.28245  22888589.406                    22888593.695
        47.900          33.300
 126086854.720 6  98249509.51344  23993531.047                    23993534.797
        40.600          28.000
 112751707.459 8  87858497.41546  21455937.234                    21455943.000
        51.000          38.300
 117138013.315 7  91276377.54744  22290622.266                    22290625.441
        42.200          29.200
 117409629.154 7  91488043.24545  22342309.234                    22342315.324
        46.000          35.100
 114386426.716 8  89132292.74346  21767013.883                    21767016.684
        48.300          36.400
 109593775.836 7  85397760.57446  20855002.430                    20855006.102
        47.700          37.000
 18  3 11 10 26 10.0000000  0 17R02G20R03R11R12R13R20R21R04G27G07G21
                                G30G28G08G15G13
                  94997620.345 6  22888949.477                    22888951.020
                        40.200
 114900271.628 7  89532754.90545  21864810.711                    21864814.094
        44.700          33.600
                  82838515.825 7  19896341.859                    19896343.273
                        43.100
                  91173574.563 7  21936714.867                    21936719.430
                        43.300
                                  19501276.734

                  89141202.608 6  21462792.750                    21462794.594
                        38.300
                  87405634.654 7  21015396.992                    21015400.078
                        43.600
                  89128453.346 7  21414578.023                    21414579.445
                        43.400
                  86865995.598 7  20856361.781                    20856362.004
                        44.200
 119709397.290 7  93280071.20345  22779941.523                    22779946.656
        43.300          33.000
 120283742.984 7  93727605.24745  22889235.953                    22889240.469
        47.800          33.000
 126089111.819 6  98251268.30044  23993960.789                    23993964.137
        40.000          26.600
 112753876.878 8  87860187.87546  21456349.969                    21456355.820
        50.000          37.900
 117136142.834 7  91274920.01644  22290267.344                    22290269.320
        44.700          28.600
 117409285.790 7  91487775.69845  22342243.125                    22342249.707
        46.100          35.600
 114384873.980 7  89131082.83245  21766718.086                    21766720.977
        47.700          35.300
 109593899.097 7  85397856.62646  20855026.211                    20855029.324
        47.900          36.400
 18  3 11 10 26 11.0000000  0 17R02G20R03R11R12R13R20R21R04G27G07G21
                                G30G28G08G15G13
                  95001398.340 6  22889859.414                    22889861.168
                        41.100
 114901962.419 7  89534072.40745  21865132.539                    21865135.727
        44.200          33.400
                  82839995.208 7  19896697.867                    19896698.758
                        43.000
                  91176911.306 7  21937518.773                    21937522.039
                        43.800
                                  19501475.992

                  89138482.005 6  21462137.883                    21462138.871
                        37.500
                  87407137.309 7  21015757.820                    21015761.805
                        44.300
                  89126561.247 7  21414122.984                    21414125.207
                        42.600
                  86863987.382 7  20855879.438                    20855879.801
                        43.800
 119711782.875 7  93281930.11445  22780395.781                    22780400.836
        43.700          32.800
 120287141.627 8  93730253.52745  22889883.633                    22889887.121
        48.000          33.200
 126091369.310 6  98253027.36944  23994390.852                    23994393.824
        40.800          28.000
 112756046.931 8  87861878.83446  21456763.094                    21456768.750
        50.200          38.300
 117134272.936 7  91273462.96044  22289910.914                    22289913.281
        42.200          26.800
 117408943.162 7  91487508.72445  22342178.711                    22342185.160
        46.800          35.900
 114383321.840 7  89129873.36745  21766422.438                    21766425.887
        47.500          35.000
 109594023.065 8  85397953.23546  20855050.227                    20855052.742
        48.700          37.100
 18  3 11 10 26 12.0000000  0 17R02G20R03R11R12R13R20R21R04G27G07G21
                                G30G28G08G15G13
                  95005176.594 6  22890768.922                    22890771.734
                        40.300
 114903653.912 7  89535390.44245  21865454.352                    21865457.840
        44.300          33.500
                  82841475.334 7  19897052.320                    19897054.730
                        43.000
                  91180248.336 7  21938324.477                    21938325.586
                        43.000
                                  19501675.219

                  89135761.826 6  21461482.227                    21461484.059
                        36.900
                  87408640.782 7  21016119.625                    21016123.238
                        44.400
                  89124669.795 7  21413669.273                    21413670.289
                        43.000
                  86861979.688 7  20855397.117                    20855397.684
                        43.700
 119714169.078 7  93283789.50445  22780849.969                    22780854.805
        43.900          32.800
 120290540.654 8  93732902.12545  22890530.148                    22890533.641
        48.100          33.000
 126093627.324 6  98254786.85144  23994820.430                    23994823.477
        40.900          27.000
 112758217.594 8  87863570.26146  21457176.250                    21457181.582
        50.500          38.200
 117132403.494 7  91272006.24344  22289554.914                    22289557.848
        42.700          27.800
 117408601.286 7  91487242.34546  22342113.055                    22342119.742
        46.500          36.000
 114381770.380 7  89128664.43446  21766127.250                    21766130.656
        47.200          36.600
 109594147.815 8  85398050.44146  20855074.203                    20855076.832
        49.500          37.400
 18  3 11 10 26 13.0000000  0 17R02G20R03R11R12R13R20R21R04G27G07G21
                                G30G28G08G15G13
                  95008955.037 6  22891679.938                    22891681.594
                        39.900
 114905346.055 7  89536708.96945  21865776.672                    21865779.695
        44.600          33.600
                  82842956.131 7  19897408.305                    19897409.938
                        43.000
                  91183585.667 7  21939127.438                    21939128.105
                        42.500
                                  19501873.359

                  89133042.042 6  21460826.633                    21460828.402
                        37.200
                  87410144.913 7  21016481.445                    21016484.648
                        44.400
                  89122778.919 7  21413214.672                    21413216.234
                        43.300
                  86859972.495 7  20854914.672                    20854915.754
                        43.300
 119716555.935 7  93285649.38945  22781303.438                    22781309.230
        44.200          32.800
 120293940.059 8  93735551.00645  22891177.375                    22891180.363
        48.300          34.200
 126095885.831 6  98256546.71044  23995250.492                    23995253.262
        41.600          27.400
 112760388.869 8  87865262.16646  21457589.070                    21457594.992
        50.800          38.900
 117130534.603 7  91270549.96044  22289199.688                    22289202.016
        42.500          27.900
 117408260.135 7  91486976.52146  22342048.586                    22342054.715
        46.100          36.100
 114380219.516 7  89127455.96046  21765832.414                    21765835.621
        47.300          36.700
 109594273.296 8  85398148.22146  20855098.352                    20855100.469
        50.000          37.400
 18  3 11 10 26 14.0000000  0 17R02G20R03R11R12R13R20R21R04G27G07G21
                                G30G28G08G15G13
                  95012733.745 6  22892589.516                    22892592.238
                        40.200
 114907038.941 7  89538028.08345  21866099.258                    21866101.621
        45.100          33.200
                  82844437.659 7  19897763.953                    19897765.887
                        43.200
                  91186923.382 7  21939930.633                    21939930.770
                        42.800
                                  19502073.859

                  89130322.677 6  21460173.078                    21460173.566
                        37.500
                  87411649.832 7  21016843.305                    21016846.875
                        44.200
                  89120888.683 7  21412759.805                    21412761.734
                        43.300
                  86857965.882 7  20854433.883                    20854434.246
                        43.400
 119718943.429 7  93287509.77745  22781757.930                    22781763.641
        44.100          32.300
 120297339.894 8  93738200.23645  22891823.992                    22891827.352
        48.200          34.100
 126098144.809 7  98258306.94544  23995680.938                    23995683.082
        42.100          27.000
 112762560.755 8  87866954.54846  21458002.555                    21458008.289
        50.400          38.700
 117128666.223 6  91269094.07644  22288843.422                    22288846.969
        41.100          28.000
 117407919.742 7  91486711.28246  22341983.961                    22341990.035
        46.000          36.200
 114378669.328 7  89126248.01646  21765537.297                    21765540.535
        47.600          37.200
 109594399.521 8  85398246.57446  20855122.359                    20855124.598
        50.200          37.500
 18  3 11 10 26 15.0000000  0 17R02G20R03R11R12R13R20R21R04G27G07G21
                                G30G28G08G15G13
                  95016512.717 6  22893499.805                    22893502.109
                        39.500
 114908732.551 7  89539347.77145  21866421.875                    21866424.125
        45.800          33.500
                  82845919.901 7  19898121.008                    19898121.563
                        42.400
                  91190261.486 7  21940734.000                    21940734.824
                        42.900
                                  19502272.516

                  89127603.706 6  21459519.375                    21459519.430
                        38.000
                  87413155.504 7  21017205.977                    21017208.352
                        43.800
                  89118999.102 7  21412306.008                    21412308.086
                        42.900
                  86855959.827 7  20853951.977                    20853953.090
                        44.000
 119721331.670 7  93289370.74245  22782212.820                    22782217.949
        44.700          32.600
 120300740.155 7  93740849.79645  22892470.234                    22892474.352
        47.600          34.000
 126100404.310 7  98260067.59344  23996111.023                    23996113.387
        42.800          27.700
 112764733.296 8  87868647.43746  21458415.750                    21458421.816
        50.100          38.700
 117126798.334 6  91267638.58544  22288488.398                    22288491.355
        41.500          26.900
 117407580.151 7  91486446.66245  22341919.563                    22341925.262
        46.200          35.900
 114377119.806 7  89125040.59646  21765242.203                    21765245.965
        47.800          36.600
 109594526.544 8  85398345.54646  20855146.461                    20855148.609
        49.600          36.700
 18  3 11 10 26 16.0000000  0 17R02G20R03R11R12R13R20R21R04G27G07G21
                                G30G28G08G15G13
                  95020291.914 6  22894410.570                    22894413.066
                        39.400
 114910426.875 7  89540668.04045  21866744.781                    21866746.633
        45.200          31.700
                  82847402.821 7  19898476.789                    19898477.875
                        42.400
                  91193599.977 7  21941536.852                    21941537.250
                        43.000
                                  19502472.625

                  89124885.143 6  21458865.086                    21458864.961
                        40.200
                  87414661.877 7  21017567.523                    21017570.125
                        43.600
                  89117110.071 7  21411852.742                    21411853.738
                        43.600
                  86853954.280 7  20853469.336                    20853470.852
                        43.800
 119723720.522 7  93291232.18645  22782667.828                    22782672.836
        44.300          32.400
 120304140.844 8  93743499.68345  22893117.883                    22893121.348
        48.200          33.300
 126102664.277 7  98261828.61044  23996540.680                    23996543.520
        43.200          27.500
 112766906.441 8  87870340.79546  21458829.320                    21458835.320
        51.000          37.900
 117124930.985 7  91266183.50944  22288132.227                    22288135.625
        42.300          26.600
 117407241.257 7  91486182.56745  22341854.742                    22341860.895
        45.600          35.700
 114375570.922 7  89123833.69545  21764947.781                    21764951.254
        47.300          34.800
 109594654.326 8  85398445.11345  20855170.422                    20855173.242
        48.400          35.400
 18  3 11 10 26 17.0000000  0 17R02G20R03R11R12R13R20R21R04G27G07G21
                                G30G28G08G15G13
                  95024071.235 6  22895321.508                    22895323.398
                        39.000
 114912121.845 7  89541988.81945  21867066.727                    21867068.930
        46.000          32.300
                  82848886.399 7  19898832.734                    19898834.426
                        43.100
                  91196938.775 7  21942338.656                    21942341.066
                        42.800
                                  19502672.391

                  89122166.924 6  21458210.406                    21458211.262
                        39.700
                  87416169.017 7  21017929.477                    21017932.750
                        43.200
                  89115221.617 7  21411398.984                    21411400.637
                        42.700
                  86851949.351 7  20852988.883                    20852989.637
                        44.100
 119726109.975 7  93293094.10645  22783122.195                    22783127.316
        44.600          32.300
 120307541.893 8  93746149.83545  22893765.289                    22893768.367
        48.900          33.100
 126104924.729 7  98263590.02044  23996970.039                    23996973.539
        42.500          26.400
 112769080.204 8  87872034.63746  21459243.188                    21459248.695
        50.200          37.900
 117123064.158 7  91264728.85644  22287778.445                    22287780.395
        42.900          27.000
 117406903.130 7  91485919.09245  22341790.367                    22341796.387
        44.700          34.700
 114374022.638 7  89122627.25745  21764653.305                    21764656.711
        47.800          35.700
 109594782.802 8  85398545.21846  20855194.766                    20855197.289
        48.800          36.900
 18  3 11 10 26 18.0000000  0 17R02G20R03R11R12R13R20R21R04G27G07G21
                                G30G28G08G15G13
                  95027850.848 6  22896230.820                    22896233.773
                        38.300
 114913817.577 7  89543310.19045  21867389.188                    21867391.672
        46.200          32.200
                  82850370.729 7  19899189.023                    19899191.008
                        43.300
                  91200277.908 7  21943141.422                    21943144.313
                        43.100
                                  19502872.430

                  89119449.108 6  21457556.664                    21457556.602
                        39.600
                  87417676.932 7  21018292.320                    21018295.500
                        43.600
                  89113333.855 7  21410944.828                    21410946.516
                        43.500
                  86849944.958 7  20852507.359                    20852508.121
                        44.200
 119728500.151 7  93294956.58945  22783576.789                    22783582.539
        44.200          31.900
 120310943.366 8  93748800.33545  22894412.477                    22894415.766
        48.000          33.800
 126107185.688 6  98265351.81244  23997399.930                    23997403.727
        41.600          26.900
 112771254.578 8  87873728.95646  21459656.633                    21459662.195
        50.200          38.000
 117121197.877 7  91263274.60744  22287422.859                    22287425.285
        42.600          28.400
 117406565.739 7  91485656.18845  22341726.477                    22341732.266
        45.600          35.400
 114372475.100 8  89121421.39745  21764358.820                    21764361.898
        48.100          35.500
 109594912.045 8  85398645.92646  20855218.938                    20855221.852
        48.100          37.100
 18  3 11 10 26 19.0000000  0 17R02G20R03R11R12R13R20R21R04G27G07G21
                                G30G28G08G15G13
                  95031630.687 6  22897142.086                    22897144.555
                        38.400
 114915514.014 7  89544632.10345  21867712.023                    21867714.680
        46.600          31.800
                  82851855.749 7  19899545.758                    19899547.660
                        43.400
                  91203617.429 7  21943944.648                    21943948.156
                        43.200
                                  19503072.586

                  89116731.688 6  21456900.383                    21456902.617
                        39.100
                  87419185.599 7  21018655.000                    21018658.746
                        43.800
                  89111446.703 7  21410491.891                    21410493.371
                        43.600
                  86847941.095 7  20852025.453                    20852027.254
                        44.100
 119730890.963 7  93296819.56345  22784031.578                    22784037.559
        44.100          33.000
 120314345.267 8  93751451.17345  22895059.883                    22895063.219
        48.000          33.600
 126109447.200 6  98267114.03644  23997829.867                    23997833.891
        41.600          26.400
 112773429.629 8  87875423.81046  21460071.336                    21460076.828
        50.900          38.300
 117119332.088 7  91261820.74044  22287067.219                    22287070.180
        42.800          28.200
 117406229.088 7  91485393.86445  22341662.688                    22341668.488
        45.900          35.500
 114370928.191 8  89120216.01746  21764064.773                    21764067.418
        48.100          36.000
 109595042.049 8  85398747.22946  20855243.391                    20855246.473
        48.100          37.500
 18  3 11 10 26 20.0000000  0 17R02G20R03R11R12R13R20R21R04G27G07G21
                                G30G28G08G15G13
                  95035410.701 6  22898052.320                    22898054.930
                        38.800
 114917211.117 7  89545954.53145  21868034.656                    21868037.578
        46.200          31.700
                  82853341.442 7  19899902.750                    19899905.008
                        43.600
                  91206957.211 7  21944747.969                    21944750.871
                        42.800
                                  19503272.320

                  89114014.630 6  21456244.531                    21456247.887
                        38.300
                  87420694.907 7  21019018.250                    21019021.750
                        44.000
                  89109560.148 7  21410039.000                    21410040.031
                        43.500
                  86845937.781 7  20851545.703                    20851547.008
                        44.100
 119733282.392 7  93298683.01845  22784486.273                    22784492.781
        43.700          32.200
 120317747.518 8  93754102.28145  22895707.813                    22895710.723
        48.000          33.500
 126111709.091 6  98268876.52844  23998260.688                    23998264.773
        40.200          26.800
 112775605.203 8  87877119.06746  21460484.891                    21460490.547
        50.200          38.200
 117117466.779 7  91260367.25344  22286712.906                    22286715.055
        43.600          28.000
 117405893.174 7  91485132.11745  22341598.734                    22341604.414
        45.400          35.000
 114369381.880 8  89119011.09245  21763770.516                    21763773.340
        48.300          35.700
 109595172.744 7  85398849.07746  20855268.148                    20855272.141
        47.700          37.700
 18  3 11 10 26 21.0000000  0 17R02G20R03R11R12R13R20R21R04G27G07G21
                                G30G28G08G15G13
                  95039190.924 6  22898963.695                    22898965.801
                        38.700
 114918908.897 7  89547277.48145  21868357.539                    21868360.953
        46.200          32.300
                  82854827.872 7  19900259.648                    19900261.027
                        43.600
                  91210297.342 7  21945552.742                    21945555.055
                        43.600
                                  19503473.727

                  89111297.940 6  21455590.852                    21455593.441
                        38.100
                  87422204.945 7  21019381.523                    21019384.254
                        44.100
                  89107674.187 7  21409585.781                    21409586.828
                        43.300
                  86843934.976 7  20851063.781                    20851064.625
                        44.000
 119735674.450 7  93300546.96045  22784940.820                    22784947.559
        43.000          31.800
 120321150.137 7  93756753.68145  22896354.508                    22896358.129
        47.800          33.600
 126113971.497 6  98270639.42744  23998691.242                    23998695.094
        39.900          27.300
 112777781.396 8  87878814.80346  21460898.852                    21460904.629
        50.000          38.100
 117115601.964 7  91258914.14544  22286357.297                    22286360.555
        43.200          28.100
 117405557.932 7  91484870.89645  22341535.266                    22341540.559
        45.600          35.900
 114367836.198 8  89117806.65645  21763475.922                    21763479.324
        48.100          35.800
 109595304.186 7  85398951.49946  20855293.523                    20855296.742
        47.800          37.700
 18  3 11 10 26 22.0000000  0 17R02G20R03R11R12R13R20R21R04G27G07G21
                                G30G28G08G15G13
                  95042971.347 6  22899875.477                    22899876.664
                        39.600
 114920607.387 7  89548600.98545  21868680.227                    21868684.234
        45.200          31.400
                  82856314.995 7  19900616.906                    19900618.516
                        43.600
                  91213637.779 7  21946356.992                    21946358.805
                        43.400
                                  19503674.602

                  89108581.650 6  21454937.273                    21454938.680
                        37.600
                  87423715.743 7  21019744.359                    21019747.906
                        44.000
                  89105788.817 7  21409131.563                    21409134.629
                        43.200
                  86841932.744 7  20850584.320                    20850584.719
                        44.000
 119738067.190 7  93302411.42445  22785396.750                    22785403.559
        42.600          32.100
 120324553.180 7  93759405.40845  22897001.766                    22897005.969
        47.000          32.800
 126116234.364 6  98272402.68444  23999122.344                    23999125.828
        40.700          27.200
 112779958.198 8  87880511.02146  21461312.766                    21461318.723
        49.800          37.300
 117113737.690 7  91257461.46444  22286003.398                    22286005.484
        42.900          28.900
 117405223.448 7  91484610.27045  22341471.664                    22341477.008
        45.800          35.800
 114366291.155 7  89116602.72245  21763181.992                    21763185.199
        47.800          35.800
 109595436.371 8  85399054.50846  20855318.523                    20855322.023
        48.000          37.900
 18  3 11 10 26 23.0000000  0 17R02G20R03R11R12R13R20R21R04G27G07G21
                                G30G28G08G15G13
                  95046752.002 6  22900786.820                    22900787.789
                        39.600
 114922306.563 7  89549925.01845  21869003.766                    21869007.602
        44.700          32.200
                  82857802.759 7  19900975.477                    19900976.570
                        43.700
                  91216978.507 7  21947162.156                    21947162.453
                        43.300
                                  19503875.867

                  89105865.696 6  21454285.656                    21454284.469
                        38.200
                  87425227.265 7  21020107.531                    21020111.230
                        43.900
                  89103904.080 7  21408680.008                    21408681.137
                        43.400
                  86839931.019 7  20850102.406                    20850104.344
                        44.000
 119740460.548 7  93304276.37245  22785852.164                    22785858.777
        42.600          32.600
 120327956.612 7  93762057.42845  22897649.258                    22897653.664
        45.600          34.000
 126118497.701 6  98274166.31244  23999552.906                    23999556.234
        41.200          27.100
 112782135.598 8  87882207.69346  21461727.117                    21461733.059
        49.500          37.700
 117111873.902 7  91256009.15844  22285647.609                    22285651.008
        42.300          28.500
 117404889.701 7  91484350.21146  22341407.797                    22341413.430
        46.300          36.300
 114364746.740 7  89115399.27746  21762887.922                    21762891.363
        47.500          36.000
 109595569.257 8  85399158.05546  20855344.188                    20855347.348
        48.000          37.600
 18  3 11 10 26 24.0000000  0 17R02G20R03R11R12R13R20R21R04G27G07G21
                                G30G28G08G15G13
                  95050532.860 6  22901697.961                    22901698.773
                        40.200
 114924006.439 7  89551249.59445  21869326.531                    21869330.992
        44.100          32.000
                  82859291.237 7  19901331.828                    19901333.785
                        43.700
                  91220319.641 7  21947965.797                    21947966.824
                        43.500
                                  19504075.953

                  89103150.109 6  21453633.367                    21453630.699
                        39.100
                  87426739.521 7  21020471.203                    21020474.641
                        43.700
                  89102019.952 7  21408226.477                    21408228.434
                        43.600
                  86837929.941 7  20849623.266                    20849623.434
                        44.000
 119742854.579 7  93306141.85445  22786307.813                    22786314.285
        43.000          32.600
 120331360.458 7  93764709.75645  22898297.758                    22898301.273
        46.000          33.400
 126120761.556 6  98275930.35144  23999984.461                    23999986.922
        41.700          27.600
 112784313.615 8  87883904.84546  21462141.781                    21462147.426
        49.800          37.900
 117110010.603 7  91254557.23544  22285293.047                    22285296.617
        42.500          27.200
 117404556.689 7  91484090.72446  22341344.875                    22341349.957
        46.000          36.200
 114363202.970 7  89114196.34246  21762594.422                    21762597.418
        47.300          36.000
 109595702.911 8  85399262.19746  20855369.586                    20855372.617
        48.200          37.600
 18  3 11 10 26 25.0000000  0 17R02G20R03R11R12R13R20R21R04G27G07G21
                                G30G28G08G15G13
                  95054313.931 6  22902609.797                    22902610.320
                        40.200
 114925707.028 7  89552574.72045  21869650.906                    21869654.164
        43.600          32.200
                  82860780.409 7  19901689.336                    19901690.992
                        44.000
                  91223661.138 7  21948770.578                    21948770.426
                        43.500
                                  19504277.375

                  89100434.908 6  21452978.820                    21452977.133
                        39.800
                  87428252.503 7  21020835.586                    21020838.773
                        43.700
                  89100136.445 7  21407774.617                    21407775.926
                        43.800
                  86835929.355 7  20849141.867                    20849143.535
                        44.400
 119745249.233 7  93308007.81845  22786763.633                    22786769.848
        43.400          32.400
 120334764.666 7  93767362.35645  22898947.156                    22898949.348
        47.600          34.200
 126123025.858 6  98277694.74344  24000415.891                    24000417.965
        41.600          29.300
 112786492.250 8  87885602.47946  21462556.461                    21462562.484
        49.800          37.600
 117108147.813 7  91253105.72544  22284938.961                    22284942.645
        42.600          27.700
 117404224.405 7  91483831.80046  22341280.930                    22341286.609
        46.000          36.000
 114361659.846 7  89112993.91245  21762300.398                    21762303.703
        47.100          35.700
 109595837.287 8  85399366.90546  20855395.313                    20855398.141
        48.500          37.300
 18  3 11 10 26 26.0000000  0 17R02G20R03R11R12R13R20R21R04G27G07G21
                                G30G28G08G15G13
                  95058095.157 6  22903521.000                    22903521.445
                        40.000
 114927408.320 7  89553900.39145  21869974.773                    21869977.973
        42.700          32.900
                  82862270.273 7  19902046.984                    19902049.371
                        43.600
                  91227002.959 7  21949573.266                    21949575.086
                        43.300
                                  19504479.656

                  89097720.087 6  21452325.766                    21452324.043
                        40.100
                  87429766.229 7  21021198.789                    21021202.414
                        43.500
                  89098253.548 7  21407320.992                    21407323.629
                        43.600
                  86833929.314 7  20848661.727                    20848663.391
                        44.400
 119747644.558 7  93309874.30945  22787219.758                    22787226.336
        43.500          32.900
 120338169.275 8  93770015.29545  22899594.516                    22899597.098
        48.200          32.800
 126125290.665 6  98279459.50444  24000846.711                    24000848.652
        40.900          28.200
 112788671.482 8  87887300.58346  21462971.297                    21462976.711
        50.300          38.300
 117106285.534 7  91251654.61444  22284584.250                    22284587.660
        43.000          27.700
 117403892.886 7  91483573.47646  22341218.320                    22341223.598
        46.500          36.200
 114360117.364 7  89111791.98145  21762006.758                    21762009.965
        47.200          35.400
 109595972.424 8  85399472.21046  20855421.352                    20855424.027
        48.300          37.200
 18  3 11 10 26 27.0000000  0 17R02G20R03R11R12R13R20R21R04G27G07G21
                                G30G28G08G15G13
                  95061876.649 6  22904432.055                    22904432.332
                        40.000
 114929110.383 7  89555226.64845  21870299.375                    21870302.129
        42.900          32.200
                  82863760.875 7  19902404.688                    19902407.047
                        43.800
                  91230345.131 7  21950376.555                    21950379.383
                        43.200
                                  19504680.625

                  89095005.681 6  21451671.828                    21451671.824
                        40.100
                  87431280.753 7  21021563.313                    21021566.410
                        43.100
                  89096371.306 7  21406869.695                    21406871.723
                        43.400
                  86831929.824 7  20848181.516                    20848183.426
                        44.100
 119750040.563 7  93311741.33845  22787675.609                    22787681.926
        43.800          32.800
 120341574.336 8  93772668.60245  22900241.469                    22900245.707
        48.100          34.100
 126127556.012 6  98281224.69744  24001277.523                    24001280.230
        41.300          27.000
 112790851.386 8  87888999.20946  21463386.750                    21463391.953
        50.600          38.000
 117104423.868 7  91250203.98344  22284231.273                    22284233.758
        43.900          28.100
 117403562.161 7  91483315.76746  22341155.180                    22341160.520
        47.200          36.100
 114358575.573 7  89110590.59445  21761713.320                    21761716.613
        47.500          35.000
 109596108.351 8  85399578.12646  20855447.016                    20855449.551
        48.400          37.500
 18  3 11 10 26 28.0000000  0 17R02G20R03R11R12R13R20R21R04G27G07G21
                                G30G28G08G15G13
                  95065658.391 6  22905342.859                    22905344.223
                        40.200
 114930813.097 7  89556553.42145  21870624.117                    21870625.523
        43.800          32.000
                  82865252.162 7  19902762.922                    19902764.859
                        43.500
                  91233687.633 7  21951180.156                    21951183.258
                        43.200
                                  19504883.297

                  89092291.664 6  21451015.352                    21451018.590
                        39.400
                  87432795.992 7  21021927.281                    21021930.852
                        43.600
                  89094489.675 7  21406417.234                    21406419.160
                        43.600
                  86829930.893 7  20847701.938                    20847702.715
                        43.600
 119752437.202 7  93313608.84845  22788131.258                    22788137.738
        43.400          32.900
 120344979.785 7  93775322.21445  22900888.844                    22900893.309
        47.300          34.000
 126129821.790 6  98282990.24444  24001708.797                    24001711.051
        41.700          27.200
 112793031.868 8  87890698.29546  21463800.867                    21463806.742
        50.700          37.900
 117102562.635 7  91248753.68044  22283876.359                    22283879.371
        43.700          27.500
 117403232.142 7  91483058.60245  22341092.086                    22341097.758
        47.300          35.500
 114357034.410 7  89109389.68445  21761419.898                    21761423.660
        47.500          35.500
 109596245.007 8  85399684.61546  20855473.078                    20855475.672
        48.100          37.100
 18  3 11 10 26 29.0000000  0 17R02G20R03R11R12R13R20R21R04G27G07G21
                                G30G28G08G15G13
                  95069440.362 6  22906253.227                    22906255.414
                        40.200
 114932516.496 7  89557880.73145  21870948.805                    21870950.305
        44.500          31.600
                  82866744.130 7  19903121.695                    19903123.414
                        43.700
                  91237030.461 7  21951983.617                    21951987.703
                        43.200
                                  19505084.422

                  89089578.016 6  21450360.000                    21450364.648
                        39.300
                  87434311.953 7  21022291.781                    21022295.422
                        43.800
                  89092608.641 7  21405965.938                    21405967.375
                        43.500
                  86827932.497 7  20847221.773                    20847223.750
                        43.700
 119754834.467 7  93315476.84345  22788587.633                    22788594.324
        43.500          32.500
 120348385.625 7  93777976.12645  22901536.953                    22901541.258
        47.200          34.200
 126132088.043 7  98284756.15444  24002139.313                    24002142.785
        42.300          27.200
 112795212.964 8  87892397.85346  21464215.586                    21464221.652
        50.200          38.100
 117100701.931 7  91247303.78744  22283522.945                    22283524.734
        44.300          28.300
 117402902.837 7  91482802.00546  22341029.688                    22341035.668
        47.800          36.800
 114355493.855 8  89108189.24945  21761127.602                    21761130.379
        48.100          35.800
 109596382.355 8  85399791.64846  20855499.313                    20855501.805
        48.600          37.300
 18  3 11 10 26 30.0000000  0 17R02G20R03R11R12R13R20R21R04G27G07G21
                                G30G28G08G15G13
                  95073222.535 6  22907164.766                    22907166.688
                        40.400
 114934220.582 7  89559208.59345  21871272.930                    21871274.305
        45.400          32.100
                  82868236.796 7  19903480.867                    19903482.129
                        43.700
                  91240373.658 7  21952788.648                    21952791.914
                        43.300
                                  19505286.719

                  89086864.810 6  21449707.891                    21449711.387
                        38.800
                  87435828.630 7  21022656.641                    21022660.273
                        43.500
                  89090728.232 7  21405515.063                    21405515.633
                        43.200
                  86825934.653 7  20846742.125                    20846743.301
                        43.900
 119757232.362 7  93317345.33245  22789044.117                    22789050.715
        42.700          32.300
 120351791.842 8  93780630.30545  22902186.313                    22902189.555
        48.300          33.900
 126134354.798 7  98286522.45344  24002571.313                    24002573.746
        42.500          27.600
 112797394.638 8  87894097.86246  21464631.320                    21464637.059
        49.900          37.900
 117098841.726 7  91245854.26744  22283168.953                    22283171.375
        43.500          27.900
 117402574.251 7  91482545.96046  22340966.883                    22340972.402
        47.500          36.200
 114353953.967 7  89106989.33245  21760834.117                    21760837.449
        47.500          35.800
 109596520.458 8  85399899.25646  20855525.555                    20855528.430
        48.400          36.900
 18  3 11 10 26 31.0000000  0 17R02G20R03R11R12R13R20R21R04G27G07G21
                                G30G28G08G15G13
                  95077004.899 6  22908076.031                    22908077.988
                        40.400
 114935925.346 7  89560536.99145  21871597.813                    21871598.730
        46.400          32.800
                  82869730.177 7  19903839.016                    19903840.395
                        43.800
                  91243717.175 7  21953593.367                    21953595.844
                        43.100
                                  19505488.242

                  89084151.993 6  21449056.484                    21449056.676
                        38.100
                  87437346.060 7  21023021.391                    21023024.754
                        43.600
                  89088848.420 7  21405062.781                    21405063.332
                        43.100
                  86823937.376 7  20846262.992                    20846263.523
                        43.900
 119759630.948 7  93319214.33445  22789500.906                    22789506.750
        43.300          31.800
 120355198.467 8  93783284.80145  22902834.836                    22902837.605
        49.300          33.300
 126136622.029 7  98288289.13344  24003001.969                    24003005.277
        42.700          27.100
 112799576.956 8  87895798.37446  21465046.039                    21465051.719
        50.000          38.500
 117096982.061 7  91244405.16744  22282815.133                    22282817.496
        43.500          28.100
 117402246.439 7  91482290.52646  22340904.820                    22340910.078
        47.400          36.300
 114352414.718 7  89105789.92046  21760540.781                    21760544.488
        47.300          36.400
 109596659.305 8  85400007.44346  20855552.031                    20855554.832
        48.400          37.200
 18  3 11 10 26 32.0000000  0 17R02G20R03R11R12R13R20R21R04G27G07G21
                                G30G28G08G15G13
                  95080787.472 6  22908987.242                    22908989.512
                        40.400
 114937630.839 7  89561865.95645  21871921.672                    21871923.293
        46.700          32.400
                  82871224.272 7  19904197.406                    19904199.473
                        43.600
                  91247061.037 7  21954398.320                    21954399.801
                        43.000
                                  19505691.469

                  89081439.527 6  21448405.258                    21448403.637
                        37.700
                  87438864.241 7  21023387.289                    21023390.406
                        43.500
                  89086969.225 7  21404610.070                    21404611.875
                        43.300
                  86821940.620 7  20845783.555                    20845784.828
                        43.700
 119762030.172 7  93321083.84445  22789957.484                    22789963.371
        43.200          32.400
 120358605.471 8  93785939.60945  22903482.883                    22903486.164
        49.100          33.400
 126138889.734 7  98290056.19344  24003433.602                    24003437.137
        43.000          28.400
 112801759.918 8  87897499.38346  21465461.445                    21465467.707
        49.800          38.400
 117095122.893 7  91242956.45344  22282460.586                    22282463.539
        42.700          28.500
 117401919.370 7  91482035.67046  22340842.266                    22340848.215
        47.200          36.900
 114350876.122 7  89104591.01945  21760248.453                    21760251.738
        47.000          35.900
 109596798.927 8  85400116.23546  20855578.703                    20855581.508
        48.300          37.100
 18  3 11 10 26 33.0000000  0 17R02G20R03R11R12R13R20R21R04G27G07G21
                                G30G28G08G15G13
                  95084570.230 6  22909897.703                    22909900.836
                        39.900
 114939337.024 7  89563195.46445  21872245.703                    21872247.984
        46.400          33.200
                  82872719.039 7  19904557.008                    19904557.969
                        43.500
                  91250405.193 7  21955203.828                    21955204.941
                        43.200
                                  19505894.016

                  89078727.388 6  21447752.273                    21447750.168
                        38.200
                  87440383.145 7  21023752.148                    21023754.641
                        43.500
                  89085090.581 7  21404159.211                    21404160.953
                        43.200
                  86819944.394 7  20845305.344                    20845305.391
                        43.800
 119764430.034 7  93322953.86645  22790414.656                    22790420.047
        43.700          31.500
 120362012.870 7  93788594.74245  22904130.250                    22904135.023
        47.900          33.300
 126141157.935 7  98291823.62544  24003865.547                    24003868.641
        42.200          27.100
 112803943.450 8  87899200.84046  21465877.180                    21465883.445
        49.700          38.300
 117093264.219 7  91241508.14444  22282106.594                    22282109.563
        42.200          27.600
 117401593.021 7  91481781.38246  22340780.313                    22340785.777
        47.500          37.000
 114349338.169 7  89103392.61245  21759955.992                    21759959.301
        47.300          35.500
 109596939.256 8  85400225.58646  20855605.234                    20855607.773
        48.600          36.800
 18  3 11 10 26 34.0000000  0 17R02G20R03R11R12R13R20R21R04G27G07G21
                                G30G28G08G15G13
                  95088353.203 6  22910809.719                    22910812.426
                        39.600
 114941043.896 7  89564525.50845  21872570.234                    21872573.230
        46.300          32.300
                  82874214.479 7  19904917.172                    19904917.848
                        43.600
                  91253749.728 7  21956009.688                    21956009.785
                        43.000
                                  19506096.563

                  89076015.650 6  21447099.586                    21447097.535
                        38.600
                  87441902.794 7  21024118.203                    21024120.613
                        43.300
                  89083212.595 7  21403707.727                    21403709.543
                        43.000
                  86817948.732 7  20844825.188                    20844826.465
                        43.800
 119766830.560 7  93324824.41245  22790871.398                    22790876.680
        44.400          32.200
 120365420.709 7  93791250.21445  22904778.203                    22904782.969
        47.500          33.000
 126143426.656 7  98293591.45244  24004297.016                    24004300.301
        42.300          27.300
 112806127.600 8  87900902.76646  21466293.523                    21466298.645
        50.300          38.300
 117091406.070 7  91240060.25444  22281753.141                    22281756.270
        42.500          28.500
 117401267.410 7  91481527.65646  22340718.117                    22340723.840
        47.800          36.300
 114347800.851 7  89102194.70545  21759663.430                    21759666.754
        47.100          35.300
 109597080.353 8  85400335.53246  20855632.000                    20855634.785
        48.900          37.100
 18  3 11 10 26 35.0000000  0 17R02G20R03R11R12R13R20R21R04G27G07G21
                                G30G28G08G15G13
                  95092136.387 6  22911721.492                    22911723.547
                        39.300
 114942751.461 7  89565856.08945  21872893.914                    21872897.641
        46.200          32.100
                  82875710.586 7  19905276.813                    19905276.941
                        43.500
                  91257094.560 7  21956814.461                    21956814.355
                        43.400
                                  19506299.484

                  89073304.271 6  21446446.008                    21446444.898
                        39.200
                  87443423.166 7  21024482.711                    21024485.859
                        43.600
                  89081335.240 7  21403257.031                    21403257.918
                        43.300
                  86815953.616 7  20844346.039                    20844346.582
                        44.000
 119769231.679 7  93326695.42345  22791327.250                    22791333.789
        44.300          31.500
 120368828.905 7  93793905.94745  22905426.648                    22905431.344
        46.700          32.300
 126145695.803 7  98295359.60444  24004728.992                    24004732.109
        42.100          27.100
 112808312.323 8  87902605.14646  21466708.727                    21466714.289
        50.500          38.100
 117089548.434 7  91238612.75244  22281399.117                    22281402.500
        42.400          27.800
 117400942.544 8  91481274.51746  22340656.375                    22340662.020
        48.400          36.300
 114346264.164 7  89100997.28845  21759371.008                    21759373.980
        47.800          35.500
 109597222.143 8  85400446.01546  20855659.078                    20855661.813
        49.000          37.400
 18  3 11 10 26 36.0000000  0 17R02G20R03R11R12R13R20R21R04G27G07G21
                                G30G28G08G15G13
                  95095919.812 6  22912631.906                    22912635.328
                        39.200
 114944459.754 7  89567187.23545  21873219.234                    21873222.992
        45.600          32.400
                  82877207.424 7  19905634.992                    19905636.414
                        43.600
                  91260439.760 7  21957618.898                    21957619.086
                        43.100
                                  19506503.086

                  89070593.294 6  21445791.781                    21445793.203
                        39.300
                  87444944.262 7  21024848.258                    21024852.066
                        43.800
                  89079458.504 7  21402806.352                    21402807.180
                        43.400
                  86813959.059 7  20843867.523                    20843868.605
                        43.800
 119771633.473 7  93328566.96245  22791784.305                    22791790.617
        43.800          31.600
 120372237.524 7  93796561.99745  22906075.867                    22906079.633
        46.700          32.700
 126147965.452 7  98297128.15744  24005160.586                    24005164.102
        42.000          27.300
 112810497.672 8  87904308.01946  21467124.320                    21467130.066
        50.900          38.300
 117087691.253 7  91237165.61244  22281046.867                    22281049.289
        43.500          27.900
 117400618.398 7  91481021.93746  22340594.688                    22340600.355
        47.900          36.800
 114344728.111 8  89099800.36645  21759079.141                    21759082.121
        48.200          35.400
 109597364.699 8  85400557.10246  20855685.859                    20855689.004
        49.400          37.400
 18  3 11 10 26 37.0000000  0 17R02G20R03R11R12R13R20R21R04G27G07G21
                                G30G28G08G15G13
                  95099703.450 6  22913542.273                    22913546.918
                        39.700
 114946168.739 7  89568518.91845  21873544.219                    21873548.031
        44.600          32.500
                  82878704.992 7  19905994.891                    19905995.980
                        43.400
                  91263785.312 7  21958422.852                    21958424.223
                        43.300
                                  19506706.070

                  89067882.741 6  21445138.102                    21445141.016
                        39.700
                  87446466.094 7  21025214.852                    21025217.602
                        43.900
                  89077582.365 7  21402355.242                    21402356.371
                        43.200
                  86811965.074 7  20843388.273                    20843389.691
                        44.000
 119774035.950 7  93330439.02545  22792241.914                    22792247.727
        43.500          31.700
 120375646.535 7  93799218.35845  22906725.742                    22906728.551
        47.400          32.600
 126150235.640 7  98298897.13144  24005592.234                    24005595.398
        42.000          27.100
 112812683.675 8  87906011.40346  21467540.727                    21467546.020
        50.300          38.100
 117085834.654 7  91235718.90944  22280693.234                    22280695.723
        43.800          28.700
 117400295.020 8  91480769.94946  22340533.109                    22340538.832
        48.000          36.600
 114343192.736 8  89098603.97045  21758786.469                    21758789.754
        48.500          35.500
 109597508.001 8  85400668.76946  20855713.305                    20855716.273
        48.600          37.000
 18  3 11 10 26 38.0000000  0 17R02G20R03R11R12R13R20R21R04G27G07G21
                                G30G28G08G15G13
                  95103487.344 6  22914454.781                    22914458.484
                        39.400
 114947878.495 7  89569851.19045  21873869.445                    21873873.184
        43.100          32.700
                  82880203.275 7  19906355.414                    19906356.313
                        43.400
                  91267131.235 7  21959227.023                    21959229.559
                        43.300
                                  19506909.156

                  89065172.617 6  21444485.070                    21444488.746
                        39.400
                  87447988.679 7  21025580.883                    21025583.504
                        43.600
                  89075706.881 7  21401905.094                    21401905.746
                        43.200
                  86809971.663 7  20842910.109                    20842910.566
                        44.000
 119776439.089 7  93332311.59645  22792699.148                    22792704.699
        43.400          31.700
 120379055.966 7  93801875.05345  22907374.313                    22907377.477
        46.900          33.300
 126152506.286 7  98300666.46144  24006024.891                    24006027.688
        42.200          27.300
 112814870.290 8  87907715.26746  21467956.297                    21467962.871
        50.100          38.200
 117083978.584 7  91234272.62244  22280339.875                    22280342.566
        43.300          28.300
 117399972.401 7  91480518.55445  22340471.625                    22340477.430
        47.900          35.800
 114341658.031 8  89097408.09645  21758494.375                    21758497.914
        48.100          35.700
 109597652.086 8  85400781.03946  20855740.953                    20855743.762
        48.200          37.100
 18  3 11 10 26 39.0000000  0 17R02G20R03R11R12R13R20R21R04G27G07G21
                                G30G28G08G15G13
                  95107271.418 6  22915367.586                    22915370.191
                        39.800
 114949588.928 7  89571183.98245  21874194.852                    21874198.789
        42.800          32.300
                  82881702.225 7  19906714.398                    19906715.992
                        43.100
                  91270477.479 7  21960031.445                    21960034.734
                        43.200
                                  19507112.633

                  89062462.905 6  21443833.844                    21443835.945
                        39.000
                  87449511.993 7  21025946.336                    21025949.492
                        43.300
                  89073832.008 7  21401454.898                    21401455.531
                        43.100
                  86807978.760 7  20842430.258                    20842432.215
                        44.100
 119778842.830 7  93334184.63845  22793156.781                    22793162.238
        43.800          31.700
 120382465.797 7  93804532.05545  22908023.656                    22908026.180
        47.600          32.600
 126154777.410 6  98302436.16144  24006457.359                    24006460.070
        41.900          26.300
 112817057.518 8  87909419.60046  21468372.320                    21468378.563
        50.100          38.600
 117082123.043 7  91232826.75144  22279987.344                    22279989.785
        43.800          28.800
 117399650.493 8  91480267.70946  22340410.141                    22340416.281
        48.100          36.300
 114340123.959 8  89096212.70545  21758202.273                    21758205.441
        48.100          35.900
 109597796.901 8  85400893.88546  20855768.344                    20855771.285
        48.400          37.200
 18  3 11 10 26 40.0000000  0 17R02G20R03R11R12R13R20R21R04G27G07G21
                                G30G28G08G15G13
                  95111055.675 6  22916279.906                    22916281.965
                        39.600
 114951300.024 7  89572517.27645  21874521.586                    21874524.109
        43.200          32.400
                  82883201.849 7  19907073.211                    19907076.918
                        43.300
                  91273823.999 7  21960836.836                    21960839.570
                        42.700
                                  19507316.969

                  89059753.537 6  21443182.273                    21443183.895
                        38.700
                  87451036.016 7  21026312.898                    21026316.367
                        43.400
                  89071957.768 7  21401004.164                    21401005.293
                        43.600
                  86805986.399 7  20841953.938                    20841954.094
                        43.800
 119781247.215 7  93336058.18245  22793614.328                    22793619.941
        44.000          32.600
 120385875.953 8  93807189.32245  22908672.867                    22908675.172
        48.800          33.100
 126157048.994 6  98304206.23144  24006889.000                    24006892.484
        41.200          27.000
 112819245.340 8  87911124.39546  21468788.898                    21468794.598
        50.000          38.400
 117080267.947 7  91231381.22244  22279633.711                    22279636.098
        43.400          28.300
 117399329.298 7  91480017.43246  22340349.094                    22340354.887
        47.800          36.100
 114338590.501 8  89095017.80245  21757910.539                    21757913.746
        48.000          35.700
 109597942.424 8  85401007.28046  20855796.039                    20855799.039
        48.700          37.300
 18  3 11 10 26 41.0000000  0 17R02G20R03R11R12R13R20R21R04G27G07G21
                                G30G28G08G15G13
                  95114840.131 6  22917190.688                    22917193.539
                        39.700
 114953011.858 7  89573851.14945  21874848.398                    21874850.031
        44.300          32.000
                  82884702.210 7  19907433.289                    19907436.676
                        43.300
                  91277170.907 7  21961641.930                    21961644.906
                        42.400
                                  19507520.484

                  89057044.551 6  21442531.070                    21442530.797
                        38.000
                  87452560.807 7  21026679.828                    21026683.109
                        43.600
                  89070084.124 7  21400553.813                    21400555.484
                        43.600
                  86803994.605 7  20841474.352                    20841475.824
                        44.000
 119783652.285 7  93337932.26445  22794071.180                    22794077.105
        43.700          32.100
 120389286.549 8  93809846.94345  22909320.594                    22909324.512
        48.200          32.800
 126159321.132 6  98305976.72644  24007321.031                    24007324.457
        40.500          26.800
 112821433.772 8  87912829.66646  21469205.680                    21469211.078
        50.200          38.700
 117078413.411 7  91229936.12844  22279281.469                    22279283.457
        43.800          28.900
 117399008.884 8  91479767.75346  22340288.164                    22340294.270
        48.000          36.800
 114337057.717 8  89093823.41845  21757618.961                    21757622.133
        48.300          35.500
 109598088.713 8  85401121.27246  20855823.813                    20855826.895
        48.600          37.100
 18  3 11 10 26 42.0000000  0 17R02G20R03R11R12R13R20R21R04G27G07G21
                                G30G28G08G15G13
                  95118624.813 6  22918102.797                    22918104.684
                        39.900
 114954724.347 7  89575185.53845  21875174.703                    21875176.184
        45.300          32.400
                  82886203.235 7  19907795.367                    19907797.309
                        43.400
                  91280518.122 7  21962448.570                    21962449.813
                        42.100
                                  19507724.852

                  89054335.900 6  21441877.992                    21441878.746
                        37.700
                  87454086.350 7  21027046.500                    21027050.027
                        43.200
                  89068211.039 7  21400103.313                    21400105.621
                        43.400
                  86802003.370 7  20840997.133                    20840997.668
                        43.800
 119786057.944 7  93339806.80245  22794529.242                    22794535.305
        43.500          31.800
 120392697.570 7  93812504.89845  22909969.039                    22909973.262
        47.300          32.700
 126161593.723 6  98307747.56544  24007755.000                    24007757.008
        40.300          27.600
 112823622.817 8  87914535.41346  21469622.344                    21469627.684
        50.400          38.100
 117076559.381 7  91228491.42744  22278927.766                    22278930.816
        42.700          28.200
 117398689.199 7  91479518.65046  22340226.539                    22340232.832
        47.800          36.100
 114335525.554 8  89092629.53445  21757327.609                    21757330.504
        48.600          35.600
 109598235.741 8  85401235.83846  20855851.586                    20855855.105
        48.700          37.000
 18  3 11 10 26 43.0000000  0 17R02G20R03R11R12R13R20R21R04G27G07G21
                                G30G28G08G15G13
                  95122409.691 6  22919015.898                    22919017.051
                        39.900
 114956437.506 7  89576520.46945  21875501.094                    21875502.203
        45.600          32.300
                  82887704.910 7  19908156.617                    19908157.477
                        43.800
                  91283865.691 7  21963254.625                    21963255.250
                        42.300
                                  19507929.531

                  89051627.642 6  21441226.531                    21441225.633
                        37.900
                  87455612.629 7  21027413.313                    21027416.738
                        43.300
                  89066338.590 7  21399653.367                    21399655.719
                        42.900
                  86800012.635 7  20840518.781                    20840519.949
                        44.200
 119788464.298 7  93341681.88045  22794987.352                    22794992.887
        43.400          31.800
 120396108.981 7  93815163.14545  22910618.938                    22910622.551
        47.500          33.600
 126163866.774 6  98309518.76944  24008187.648                    24008189.840
        40.900          27.700
 112825812.494 8  87916241.65346  21470038.945                    21470044.406
        51.200          38.100
 117074705.803 7  91227047.07944  22278575.063                    22278578.258
        42.700          29.000
 117398370.258 7  91479270.13346  22340166.164                    22340172.242
        47.200          36.500
 114333994.045 8  89091436.14745  21757035.992                    21757039.215
        48.300          35.700
 109598383.499 8  85401350.97846  20855879.602                    20855882.875
        49.300          37.000
 18  3 11 10 26 44.0000000  0 17R02G20R03R11R12R13R20R21R04G27G07G21
                                G30G28G08G15G13
                  95126194.817 6  22919927.992                    22919929.457
                        39.500
 114958151.381 7  89577855.96845  21875826.781                    21875828.172
        46.800          31.800
                  82889207.299 7  19908517.141                    19908519.203
                        43.700
                  91287213.586 7  21964060.758                    21964061.027
                        42.700
                                  19508133.992

                  89048919.705 6  21440574.188                    21440574.832
                        38.500
                  87457139.625 7  21027780.922                    21027784.238
                        43.400
                  89064466.784 7  21399203.766                    21399206.586
                        43.200
                  86798022.450 7  20840041.383                    20840042.156
                        44.200
 119790871.285 7  93343557.44745  22795445.852                    22795451.148
        43.700          31.900
 120399520.776 8  93817821.67945  22911269.086                    22911271.656
        48.400          33.400
 126166140.313 6  98311290.35844  24008620.102                    24008622.340
        41.800          27.400
 112828002.730 8  87917948.33246  21470455.844                    21470461.254
        51.200          38.000
 117072852.792 7  91225603.18844  22278222.734                    22278225.781
        42.900          28.100
 117398052.023 7  91479022.15745  22340105.781                    22340111.758
        47.000          35.500
 114332463.142 7  89090243.24046  21756744.516                    21756748.020
        47.800          36.200
 109598531.994 8  85401466.69046  20855908.000                    20855910.438
        48.900          37.300
 18  3 11 10 26 45.0000000  0 17R02G20R03R11R12R13R20R21R04G27G07G21
                                G30G28G08G15G13
                  95129980.151 6  22920840.625                    22920841.461
                        39.800
 114959865.965 7  89579192.01845  21876153.016                    21876154.656
        47.300          32.400
                  82890710.432 7  19908877.914                    19908879.504
                        43.700
                  91290561.852 7  21964865.906                    21964865.957
                        42.100
                                  19508338.758

                  89046212.245 6  21439920.398                    21439922.504
                        38.600
                  87458667.329 7  21028147.680                    21028151.168
                        43.600
                  89062595.622 7  21398754.438                    21398756.641
                        43.300
                  86796032.839 7  20839563.063                    20839564.602
                        44.000
 119793278.931 7  93345433.52445  22795903.891                    22795909.270
        44.100          32.500
 120402932.951 8  93820480.50445  22911918.781                    22911921.063
        49.100          33.600
 126168414.344 6  98313062.34044  24009053.102                    24009054.840
        41.500          27.500
 112830193.609 8  87919655.52046  21470872.789                    21470878.324
        50.800          38.000
 117071000.294 7  91224159.69944  22277869.922                    22277872.699
        43.000          28.900
 117397734.541 7  91478774.77146  22340045.750                    22340051.367
        47.600          36.300
 114330932.937 7  89089050.86945  21756453.289                    21756456.777
        47.300          35.600
 109598681.249 8  85401583.00046  20855936.242                    20855939.285
        49.400          37.100
 18  3 11 10 26 46.0000000  0 17R02G20R03R11R12R13R20R21R04G27G07G21
                                G30G28G08G15G13
                  95133765.704 6  22921752.563                    22921753.418
                        39.800
 114961581.212 7  89580528.58945  21876478.914                    21876480.961
        46.800          32.500
                  82892214.237 7  19909241.125                    19909240.328
                        43.800
                  91293910.438 7  21965671.867                    21965671.824
                        42.700
                                  19508543.500

                  89043505.143 6  21439268.133                    21439270.430
                        38.400
                  87460195.829 7  21028515.820                    21028518.902
                        43.600
                  89060725.040 7  21398305.023                    21398306.559
                        43.500
                  86794043.735 7  20839085.773                    20839086.668
                        44.100
 119795687.173 7  93347310.07845  22796362.297                    22796367.723
        44.000          32.700
 120406345.491 8  93823139.63445  22912567.422                    22912570.898
        48.600          33.600
 126170688.825 7  98314834.68244  24009485.289                    24009487.938
        42.200          28.000
 112832385.090 8  87921363.16846  21471289.234                    21471295.684
        50.500          38.400
 117069148.302 7  91222716.59544  22277517.820                    22277520.414
        43.700          28.100
 117397417.803 7  91478527.96046  22339985.688                    22339991.152
        47.400          36.500
 114329403.336 7  89087858.97346  21756162.156                    21756165.652
        47.100          36.000
 109598831.234 8  85401699.87546  20855965.234                    20855967.715
        49.300          37.300
 18  3 11 10 26 47.0000000  0 17R02G20R03R11R12R13R20R21R04G27G07G21
                                G30G28G08G15G13
                  95137551.456 6  22922664.367                    22922665.176
                        39.400
 114963297.193 7  89581865.72645  21876805.000                    21876807.738
        46.400          32.400
                  82893718.734 7  19909603.313                    19909601.867
                        43.700
                  91297259.342 7  21966476.508                    21966477.793
                        43.000
                                  19508748.703

                  89040798.494 6  21438616.742                    21438618.430
                        38.900
                  87461725.016 7  21028882.320                    21028886.629
                        44.000
                  89058855.056 7  21397855.586                    21397857.320
                        43.400
                  86792055.205 7  20838608.109                    20838609.461
                        44.000
 119798096.088 7  93349187.15545  22796820.820                    22796825.957
        43.800          32.300
 120409758.461 7  93825799.10745  22913215.211                    22913220.309
        47.000          32.800
 126172963.835 6  98316607.43444  24009918.164                    24009921.219
        41.600          27.600
 112834577.188 8  87923071.29946  21471706.313                    21471712.293
        50.200          38.100
 117067296.812 7  91221273.88144  22277165.047                    22277168.109
        43.200          28.300
 117397101.806 7  91478281.73546  22339925.664                    22339931.145
        47.400          36.000
 114327874.399 7  89086667.59445  21755871.234                    21755874.852
        47.200          35.400
 109598981.965 8  85401817.33246  20855994.266                    20855996.742
        49.500          37.900
 18  3 11 10 26 48.0000000  0 17R02G20R03R11R12R13R20R21R04G27G07G21
                                G30G28G08G15G13
                  95141337.432 6  22923576.648                    22923577.891
                        39.400
 114965013.928 7  89583203.45045  21877131.414                    21877134.344
        45.900          32.600
                  82895223.955 7  19909963.633                    19909963.859
                        43.700
                  91300608.650 7  21967282.297                    21967283.621
                        43.700
                                  19508954.266

                  89038092.233 6  21437965.438                    21437967.695
                        38.500
                  87463254.984 7  21029250.242                    21029254.035
                        43.700
                  89056985.731 7  21397406.648                    21397408.137
                        42.900
                  86790067.293 7  20838130.781                    20838131.625
                        43.600
 119800505.725 7  93351064.80245  22797278.828                    22797284.754
        43.700          31.800
 120413171.918 7  93828458.94545  22913864.742                    22913869.305
        46.400          33.500
 126175239.333 6  98318380.55144  24010350.750                    24010353.879
        41.900          28.500
 112836769.950 8  87924779.93846  21472123.875                    21472129.852
        49.800          38.000
 117065445.886 7  91219831.59144  22276813.320                    22276815.516
        43.300          28.300
 117396786.586 7  91478036.10846  22339865.906                    22339870.926
        47.800          36.300
 114326346.130 7  89085476.73245  21755580.578                    21755583.961
        47.800          35.200
 109599133.479 8  85401935.39246  20856023.164                    20856025.496
        49.400          37.900
 18  3 11 10 26 49.0000000  0 17R02G20R03R11R12R13R20R21R04G27G07G21
                                G30G28G08G15G13
                  95145123.643 6  22924488.953                    22924490.082
                        39.700
 114966731.342 7  89584541.70445  21877457.625                    21877460.828
        44.900          32.700
                  82896729.899 7  19910323.172                    19910325.691
                        43.600
                  91303958.298 7  21968087.992                    21968090.383
                        44.000
                                  19509158.859

                  89035386.361 6  21437315.109                    21437315.645
                        38.200
                  87464785.683 7  21029619.633                    21029622.191
                        43.600
                  89055117.021 7  21396958.063                    21396958.730
                        43.400
                  86788079.947 7  20837654.313                    20837654.926
                        43.800
 119802915.974 7  93352942.92645  22797736.742                    22797742.953
        42.800          32.300
 120416585.731 7  93831119.03945  22914516.156                    22914518.922
        47.600          33.100
 126177515.330 6  98320154.06344  24010783.664                    24010787.484
        41.800          27.900
 112838963.300 8  87926489.03146  21472541.492                    21472546.824
        50.200          38.600
 117063595.460 7  91218389.69444  22276460.844                    22276463.371
        42.600          28.500
 117396472.101 7  91477791.05446  22339805.313                    22339810.992
        47.600          36.100
 114324818.514 7  89084286.38145  21755289.977                    21755293.363
        47.900          35.700
 109599285.751 8  85402054.04046  20856051.805                    20856054.344
        49.700          37.300
 18  3 11 10 26 50.0000000  0 17R02G20R03R11R12R13R20R21R04G27G07G21
                                G30G28G08G15G13
                  95148910.079 6  22925401.414                    22925402.555
                        39.400
 114968449.463 7  89585880.49645  21877784.039                    21877787.996
        44.100          32.800
                  82898236.540 7  19910684.547                    19910688.008
                        43.600
                  91307308.272 7  21968894.094                    21968896.199
                        44.000
                                  19509364.719

                  89032680.860 6  21436664.641                    21436664.793
                        38.000
                  87466317.111 7  21029986.898                    21029990.906
                        43.000
                  89053248.937 7  21396508.930                    21396510.594
                        43.700
                  86786093.123 7  20837176.570                    20837177.859
                        43.800
 119805326.888 7  93354821.56345  22798195.852                    22798201.758
        42.400          33.100
 120419999.929 8  93833779.43945  22915165.523                    22915168.906
        48.100          33.500
 126179791.815 6  98321927.95044  24011216.953                    24011220.418
        41.800          27.400
 112841157.263 8  87928198.61646  21472958.750                    21472964.543
        50.700          38.100
 117061745.579 7  91216948.22844  22276109.305                    22276111.605
        43.200          28.200
 117396158.349 8  91477546.56646  22339745.664                    22339751.199
        48.000          36.900
 114323291.556 7  89083096.54245  21754999.141                    21755002.691
        47.800          35.600
 109599438.761 8  85402173.27146  20856080.820                    20856083.285
        49.600          37.800
 18  3 11 10 26 51.0000000  0 17R02G20R03R11R12R13R20R21R04G27G07G21
                                G30G28G08G15G13
                  95152696.728 6  22926313.172                    22926314.746
                        39.400
 114970168.257 7  89587219.81745  21878111.352                    21878115.059
        43.900          32.600
                  82899743.804 7  19911046.930                    19911049.469
                        43.800
                  91310658.512 7  21969700.531                    21969702.938
                        43.800
                                  19509570.414

                  89029975.680 6  21436012.086                    21436013.102
                        38.200
                  87467849.292 7  21030355.219                    21030359.102
                        43.600
                  89051381.424 7  21396060.969                    21396061.426
                        43.600
                  86784106.819 7  20836700.078                    20836700.250
                        44.000
 119807738.407 7  93356700.66445  22798654.539                    22798660.816
        42.600          32.500
 120423414.488 7  93836440.13145  22915815.461                    22915818.832
        47.500          33.600
 126182068.733 7  98323702.17144  24011649.984                    24011653.609
        42.200          27.100
 112843351.782 8  87929908.62746  21473376.648                    21473382.008
        50.700          38.000
 117059896.149 7  91215507.12044  22275757.000                    22275759.809
        43.200          28.400
 117395845.334 7  91477302.65646  22339686.438                    22339691.664
        47.900          36.100
 114321765.211 8  89081907.18146  21754708.836                    21754712.254
        48.000          36.300
 109599592.457 8  85402293.02946  20856109.711                    20856113.055
        49.400          37.600
 18  3 11 10 26 52.0000000  0 17R02G20R03R11R12R13R20R21R04G27G07G21
                                G30G28G08G15G13
                  95156483.581 6  22927225.961                    22927227.680
                        40.500
 114971887.764 7  89588559.68845  21878438.484                    21878442.203
        43.900          32.200
                  82901251.751 7  19911409.883                    19911411.891
                        43.800
                  91314009.103 7  21970506.875                    21970509.543
                        43.800
                                  19509776.523

                  89027270.916 6  21435361.180                    21435361.879
                        38.400
                  87469382.182 7  21030723.992                    21030727.820
                        43.100
                  89049514.530 7  21395612.398                    21395613.352
                        43.700
                  86782121.076 7  20836223.258                    20836223.637
                        44.000
 119810150.596 7  93358580.28045  22799114.375                    22799120.004
        42.100          32.200
 120426829.447 8  93839101.14045  22916465.648                    22916468.766
        48.000          34.000
 126184346.168 7  98325476.80044  24012083.117                    24012086.883
        42.100          27.900
 112845546.943 8  87931619.14946  21473794.305                    21473799.887
        51.100          38.200
 117058047.237 7  91214066.41044  22275405.000                    22275407.520
        43.900          28.800
 117395533.054 7  91477059.32446  22339626.539                    22339632.168
        47.900          36.300
 114320239.497 7  89080718.30845  21754418.484                    21754421.797
        47.800          35.600
 109599746.920 8  85402413.38546  20856139.266                    20856142.188
        49.400          37.200
 18  3 11 10 26 53.0000000  0 17R02G20R03R11R12R13R20R21R04G27G07G21
                                G30G28G08G15G13
                  95160270.637 6  22928136.828                    22928139.512
                        40.200
 114973608.009 7  89589900.12645  21878766.242                    21878768.988
        43.900          32.700
                  82902760.428 7  19911770.992                    19911773.789
                        43.900
                  91317360.046 7  21971313.602                    21971315.895
                        44.200
                                  19509981.680

                  89024566.557 6  21434709.875                    21434711.113
                        38.700
                  87470915.839 7  21031092.555                    21031095.801
                        43.300
                  89047648.277 7  21395162.992                    21395165.266
                        43.900
                  86780135.884 7  20835746.266                    20835747.199
                        44.000
 119812563.469 7  93360460.43845  22799573.492                    22799578.840
        42.500          31.800
 120430244.833 7  93841762.49045  22917114.570                    22917118.621
        47.400          33.900
 126186624.100 6  98327251.81744  24012516.984                    24012520.367
        41.100          26.200
 112847742.737 8  87933330.16646  21474211.898                    21474217.840
        50.700          38.300
 117056198.892 7  91212626.14844  22275053.664                    22275056.262
        43.600          28.900
 117395221.534 8  91476816.58346  22339567.297                    22339572.973
        48.300          36.000
 114318714.466 8  89079529.97745  21754128.313                    21754131.746
        48.000          35.900
 109599902.150 8  85402534.34346  20856168.578                    20856171.555
        49.500          36.900
 18  3 11 10 26 55.0000000  0 17R02G20R03R11R12R13R20R21R04G27G07G21
                                G30G28G08G15G13
                  95167845.289 6  22929962.172                    22929964.742
                        40.200
 114977050.510 7  89592582.55945  21879422.492                    21879424.664
        44.700          32.100
                  82905779.898 7  19912498.477                    19912499.395
                        43.500
                  91324062.914 7  21972926.570                    21972928.332
                        43.400
                                  19510394.813

                  89019159.042 6  21433408.078                    21433409.355
                        39.000
                  87473985.289 7  21031831.867                    21031834.543
                        43.500
                  89043917.649 7  21394266.219                    21394268.969
                        43.600
                  86776167.107 7  20834792.648                    20834794.262
                        43.600
 119817391.101 7  93364222.22945  22800491.969                    22800497.602
        42.200          32.800
 120437076.823 7  93847086.12545  22918414.805                    22918419.008
        46.800          33.600
 126191181.383 6  98330802.94244  24013383.336                    24013387.684
        39.900          27.400
 112852136.146 8  87936753.59946  21475047.750                    21475053.633
        49.900          38.400
 117052503.691 7  91209746.78644  22274350.398                    22274353.121
        44.200          27.900
 117394600.688 8  91476332.81346  22339449.125                    22339455.000
        48.200          36.700
 114315666.335 8  89077154.80645  21753548.008                    21753551.809
        48.000          35.700
 109600214.847 8  85402778.00346  20856228.227                    20856231.012
        49.000          36.700
 18  3 11 10 26 56.0000000  0 17R02G20R03R11R12R13R20R21R04G27G07G21
                                G30G28G08G15G13
                  95171632.971 6  22930874.406                    22930877.742
                        40.200
 114978772.854 7  89593924.64845  21879750.359                    21879752.578
        45.400          32.100
                  82907290.706 7  19912861.609                    19912862.172
                        43.500
                  91327414.927 7  21973733.367                    21973734.949
                        42.800
                                  19510600.727

                  89016455.896 6  21432756.961                    21432758.547
                        38.600
                  87475521.144 7  21032200.672                    21032203.734
                        44.000
                  89042053.298 7  21393818.617                    21393820.879
                        43.700
                  86774183.562 7  20834317.430                    20834317.805
                        44.000
 119819805.924 7  93366103.91245  22800951.359                    22800957.656
        42.200          32.700
 120440493.429 7  93849748.40745  22919065.164                    22919069.000
        47.100          33.100
 126193460.805 6  98332579.10044  24013817.789                    24013821.324
        40.900          27.900
 112854333.795 8  87938466.05246  21475465.977                    21475471.578
        50.100          38.500
 117050656.891 7  91208307.71444  22273998.906                    22274001.359
        44.400          27.700
 117394291.400 8  91476091.80646  22339390.445                    22339396.289
        48.300          36.200
 114314143.264 8  89075967.99446  21753258.586                    21753261.961
        48.200          36.100
 109600372.343 8  85402900.72746  20856258.031                    20856261.508
        48.900          37.300
 18  3 11 10 26 57.0000000  0 17R02G20R03R11R12R13R20R21R04G27G07G21
                                G30G28G08G15G13
                  95175420.873 6  22931788.578                    22931790.453
                        40.400
 114980495.882 7  89595267.27245  21880078.172                    21880080.391
        45.700          32.300
                  82908802.207 7  19913223.797                    19913225.191
                        43.500
                  91330767.255 7  21974539.133                    21974541.355
                        42.700
                                  19510807.734

                  89013753.130 6  21432105.922                    21432107.836
                        38.300
                  87477057.728 7  21032569.969                    21032572.820
                        43.900
                  89040189.540 7  21393371.180                    21393373.141
                        43.600
                  86772200.560 7  20833840.063                    20833841.887
                        43.900
 119822221.375 7  93367986.08145  22801410.703                    22801417.031
        43.000          32.600
 120443910.438 8  93852410.99445  22919716.203                    22919719.445
        48.600          34.400
 126195740.653 6  98334355.59544  24014251.750                    24014255.074
        41.200          28.500
 112856532.063 8  87940178.98946  21475884.859                    21475890.199
        50.800          38.400
 117048810.618 7  91206869.05844  22273648.445                    22273650.594
        44.700          28.100
 117393982.856 8  91475851.38346  22339331.711                    22339337.348
        48.600          36.100
 114312620.858 8  89074781.70146  21752968.961                    21752972.207
        48.200          36.100
 109600530.546 8  85403024.00246  20856288.305                    20856291.383
        48.900          37.100
 18  3 11 10 26 58.0000000  0 17R02G20R03R11R12R13R20R21R04G27G07G21
                                G30G28G08G15G13
                  95179209.036 6  22932700.531                    22932703.258
                        40.600
 114982219.627 7  89596610.46545  21880406.516                    21880408.441
        46.200          32.400
                  82910314.425 7  19913587.359                    19913588.145
                        43.500
                  91334119.956 7  21975345.133                    21975347.668
                        42.900
                                  19511014.555

                  89011050.767 6  21431454.859                    21431456.855
                        37.900
                  87478595.073 7  21032939.313                    21032942.859
                        43.700
                  89038326.439 7  21392923.250                    21392925.371
                        43.300
                  86770218.139 7  20833365.523                    20833366.086
                        43.600
 119824637.492 7  93369868.77445  22801871.563                    22801877.453
        42.800          32.100
 120447327.852 8  93855073.90945  22920366.422                    22920369.625
        48.500          33.500
 126198021.039 6  98336132.50444  24014685.898                    24014689.367
        40.300          27.800
 112858730.956 8  87941892.40346  21476303.344                    21476308.703
        50.800          38.500
 117046964.857 7  91205430.79244  22273296.531                    22273299.750
        43.700          28.300
 117393675.074 8  91475611.54545  22339272.984                    22339278.801
        48.800          35.500
 114311099.117 8  89073595.92246  21752679.063                    21752682.766
        48.100          36.400
 109600689.562 8  85403147.91146  20856318.414                    20856321.930
        48.800          37.500
 18  3 11 10 26 59.0000000  0 17R02G20R03R11R12R13R20R21R04G27G07G21
                                G30G28G08G15G13
                  95182997.418 6  22933613.164                    22933616.008
                        40.800
 114983944.061 7  89597954.18845  21880734.594                    21880736.238
        46.200          33.000
                  82911827.332 7  19913951.625                    19913951.430
                        43.900
                  91337472.968 7  21976151.047                    21976153.324
                        42.700
                                  19511222.039

                  89008348.805 6  21430804.805                    21430805.719
                        37.700
                  87480133.154 7  21033308.688                    21033312.664
                        43.500
                  89036463.956 7  21392475.789                    21392477.422
                        43.500
                  86768236.284 7  20832888.922                    20832890.371
                        43.900
 119827054.294 7  93371751.99145  22802331.305                    22802336.809
        43.200          32.300
 120450745.652 8  93857737.14145  22921016.242                    22921019.754
        48.000          33.500
 126200301.905 6  98337909.80244  24015119.945                    24015123.176
        40.600          27.400
 112860930.454 8  87943606.29646  21476721.984                    21476727.395
        51.200          38.700
 117045119.613 7  91203992.92644  22272944.805                    22272948.063
        43.800          27.600
 117393368.045 8  91475372.30945  22339214.703                    22339220.801
        48.800          35.800
 114309578.011 7  89072410.63845  21752389.453                    21752393.445
        47.700          35.700
 109600849.277 8  85403272.36346  20856348.555                    20856351.953
        48.400          37.400
 18  3 11 10 27  0.0000000  0 17R02G20R03R11R12R13R20R21R04G27G07G21
                                G30G28G08G15G13
                  95186786.008 6  22934526.297                    22934528.621
                        41.000
 114985669.223 7  89599298.47845  21881062.211                    21881064.543
        46.300          33.100
                  82913340.936 7  19914315.281                    19914315.410
                        43.800
                  91340826.315 7  21976958.328                    21976960.109
                        42.700
                                  19511429.711

                  89005647.222 6  21430154.406                    21430155.055
                        37.600
                  87481671.975 7  21033679.492                    21033682.570
                        43.100
                  89034602.055 7  21392028.453                    21392030.152
                        43.100
                  86766255.032 7  20832413.688                    20832414.938
                        44.100
 119829471.740 7  93373635.71045  22802791.953                    22802796.770
        43.400          30.900
 120454163.869 8  93860400.69645  22921666.219                    22921669.992
        48.400          33.700
 126202583.244 6  98339687.46744  24015554.078                    24015557.785
        40.600          27.300
 112863130.568 8  87945320.67846  21477140.438                    21477146.035
        50.800          38.500
 117043274.905 7  91202555.48944  22272593.703                    22272596.641
        43.600          28.200
 117393061.731 8  91475133.62645  22339156.219                    22339162.488
        48.500          35.900
 114308057.573 7  89071225.88646  21752100.188                    21752103.762
        47.500          36.000
 109601009.746 8  85403397.39746  20856378.859                    20856382.512
        48.200          36.700
 18  3 11 10 27  1.0000000  0 17R02G20R03R11R12R13R20R21R04G27G07G21
                                G30G28G08G15G13
                  95190574.779 6  22935439.492                    22935441.781
                        40.700
 114987395.033 7  89600643.26845  21881390.766                    21881392.762
        46.200          33.400
                  82914855.268 7  19914677.352                    19914678.520
                        44.200
                  91344180.023 7  21977765.156                    21977766.809
                        42.600
                                  19511636.570

                  89002946.007 6  21429504.406                    21429504.828
                        37.600
                  87483211.547 7  21034049.320                    21034052.582
                        43.200
                  89032740.771 7  21391581.477                    21391582.637
                        42.900
                  86764274.273 7  20831937.438                    20831938.957
                        44.200
 119831889.807 7  93375519.92845  22803251.906                    22803257.324
        43.700          32.600
 120457582.464 8  93863064.54845  22922316.461                    22922320.949
        48.200          33.300
 126204865.051 6  98341465.51044  24015987.898                    24015991.715
        40.800          27.200
 112865331.288 8  87947035.52446  21477558.766                    21477564.676
        50.800          38.000
 117041430.665 7  91201118.42344  22272243.195                    22272246.051
        43.200          28.400
 117392756.183 8  91474895.53745  22339097.867                    22339103.953
        48.100          35.600
 114306537.785 7  89070041.63745  21751810.898                    21751814.906
        47.600          35.800
 109601170.959 7  85403523.02746  20856409.875                    20856412.914
        47.900          36.900
 18  3 11 10 27  2.0000000  0 17R02G20R03R11R12R13R20R21R04G27G07G21
                                G30G28G08G15G13
                  95194363.810 6  22936352.242                    22936354.848
                        40.200
 114989121.611 7  89601988.66045  21881718.711                    21881721.684
        46.000          32.800
                  82916370.323 7  19915040.289                    19915042.516
                        43.700
                  91347534.078 7  21978572.508                    21978573.527
                        43.000
                                  19511844.320

                  89000245.229 6  21428854.102                    21428854.445
                        38.200
                  87484751.827 7  21034419.773                    21034422.914
                        43.300
                  89030880.114 7  21391134.000                    21391135.398
                        43.100
                  86762294.109 7  20831462.969                    20831463.809
                        43.500
 119834308.563 7  93377404.67545  22803711.414                    22803717.293
        43.600          32.600
 120461001.494 7  93865728.72945  22922967.234                    22922971.344
        47.800          34.000
 126207147.358 6  98343243.93844  24016422.625                    24016426.262
        41.400          28.100
 112867532.643 8  87948750.87046  21477977.609                    21477983.488
        50.300          38.100
 117039587.021 7  91199681.83444  22271892.008                    22271895.566
        42.600          28.500
 117392451.383 8  91474658.03145  22339040.031                    22339046.188
        48.000          35.700
 114305018.659 7  89068857.90645  21751521.977                    21751525.578
        47.600          35.700
 109601332.947 8  85403649.26146  20856440.633                    20856444.000
        48.000          37.000
 18  3 11 10 27  3.0000000  0 17R02G20R03R11R12R13R20R21R04G27G07G21
                                G30G28G08G15G13
                  95198152.981 6  22937265.219                    22937267.379
                        40.200
 114990848.852 7  89603334.56445  21882047.313                    21882050.074
        46.000          32.600
                  82917886.041 7  19915405.328                    19915406.633
                        43.900
                  91350888.439 7  21979380.055                    21979381.273
                        43.400
                                  19512051.891

                  88997544.797 6  21428204.031                    21428203.754
                        38.600
                  87486292.874 7  21034789.625                    21034793.340
                        43.200
                  89029020.113 7  21390687.063                    21390688.230
                        43.500
                  86760314.490 7  20830987.406                    20830988.504
                        43.700
 119836727.961 7  93379289.93345  22804172.297                    22804177.758
        43.200          32.300
 120464420.911 8  93868393.20145  22923618.461                    22923621.938
        48.300          33.600
 126209430.194 6  98345022.79244  24016856.625                    24016860.234
        40.500          27.200
 112869734.605 8  87950466.69046  21478397.031                    21478402.566
        50.500          38.500
 117037743.840 7  91198245.59944  22271541.281                    22271544.340
        43.000          27.800
 117392147.331 7  91474421.10946  22338982.344                    22338987.707
        47.900          36.000
 114303500.153 7  89067674.66246  21751233.180                    21751236.777
        47.200          36.000
 109601495.666 8  85403776.06146  20856472.258                    20856475.098
        48.400          37.600
 18  3 11 10 27  4.0000000  0 17R02G20R03R11R12R13R20R21R04G27G07G21
                                G30G28G08G15G13
                  95201942.410 6  22938178.117                    22938180.730
                        40.200
 114992576.801 7  89604681.01845  21882375.523                    21882378.980
        44.900          32.600
                  82919402.392 7  19915769.742                    19915770.617
                        43.600
                  91354243.099 7  21980187.758                    21980188.367
                        43.300
                                  19512259.648

                  88994844.757 6  21427554.969                    21427554.469
                        39.100
                  87487834.593 7  21035160.734                    21035164.398
                        43.700
                  89027160.671 7  21390240.586                    21390241.523
                        42.900
                  86758335.377 7  20830512.078                    20830513.086
                        43.800
 119839147.978 7  93381175.66145  22804632.414                    22804638.227
        43.400          32.400
 120467840.681 8  93871057.94545  22924269.914                    22924272.434
        49.000          34.400
 126211713.445 6  98346801.95544  24017291.477                    24017294.758
        40.600          26.900
 112871937.150 8  87952182.95146  21478815.758                    21478821.918
        50.600          38.100
 117035901.166 7  91196809.74944  22271191.047                    22271194.055
        43.500          27.900
 117391843.972 7  91474184.71945  22338924.461                    22338930.746
        47.700          35.400
 114301982.279 7  89066491.90945  21750944.367                    21750947.953
        47.200          35.800
 109601659.100 8  85403903.41146  20856503.313                    20856506.137
        48.800          37.000
 18  3 11 10 27  5.0000000  0 17R02G20R03R11R12R13R20R21R04G27G07G21
                                G30G28G08G15G13
                  95205732.017 6  22939091.063                    22939093.699
                        39.400
 114994305.444 7  89606028.01845  21882704.500                    21882708.449
        44.500          32.200
                  82920919.438 7  19916132.391                    19916135.477
                        43.900
                  91357598.103 7  21980994.750                    21980996.250
                        43.600
                                  19512468.688

                  88992145.120 6  21426904.414                    21426904.875
                        39.400
                  87489377.077 7  21035532.758                    21035535.102
                        43.800
                  89025301.882 7  21389793.625                    21389795.574
                        43.000
                  86756356.831 7  20830036.742                    20830037.793
                        43.200
 119841568.634 7  93383061.88345  22805092.813                    22805099.094
        43.600          31.800
 120471260.862 8  93873723.02145  22924919.961                    22924923.137
        48.500          33.600
 126213997.214 6  98348581.52544  24017726.289                    24017729.402
        41.000          28.300
 112874140.327 8  87953899.71046  21479235.305                    21479241.477
        50.700          38.600
 117034059.004 7  91195374.30844  22270840.703                    22270843.324
        44.000          27.800
 117391541.381 7  91473948.93045  22338866.828                    22338872.809
        47.500          35.400
 114300465.069 8  89065309.67046  21750655.852                    21750659.008
        48.300          36.100
 109601823.309 8  85404031.36546  20856534.688                    20856537.547
        48.900          37.300
 18  3 11 10 27  6.0000000  0 17R02G20R03R11R12R13R20R21R04G27G07G21
                                G30G28G08G15G13
                  95209521.855 6  22940004.172                    22940007.078
                        39.300
 114996034.771 7  89607375.54245  21883033.563                    21883037.250
        43.900          33.000
                  82922437.220 7  19916496.859                    19916500.066
                        43.500
                  91360953.457 7  21981802.172                    21981803.453
                        43.500
                                  19512676.227

                  88989445.841 6  21426252.609                    21426255.059
                        39.200
                  87490920.286 7  21035902.789                    21035906.141
                        43.000
                  89023443.692 7  21389347.344                    21389349.563
                        42.800
                  86754378.835 7  20829561.648                    20829563.129
                        43.900
 119843989.909 7  93384948.58245  22805554.023                    22805559.582
        44.100          31.900
 120474681.438 8  93876388.41245  22925570.852                    22925574.508
        48.100          33.900
 126216281.459 6  98350361.44844  24018160.875                    24018163.797
        41.200          28.400
 112876344.079 8  87955616.91746  21479655.133                    21479660.605
        51.000          38.700
 117032217.352 7  91193939.24244  22270490.156                    22270493.133
        43.900          27.100
 117391239.507 7  91473713.70245  22338809.570                    22338815.668
        47.600          35.800
 114298948.477 8  89064127.90646  21750367.117                    21750370.422
        48.100          36.200
 109601988.218 8  85404159.86446  20856566.234                    20856569.176
        48.900          37.000
 18  3 11 10 27  7.0000000  0 17R02G20R03R11R12R13R20R21R04G27G07G21
                                G30G28G08G15G13
                  95213311.879 6  22940917.992                    22940919.848
                        40.000
 114997764.808 7  89608723.60345  21883362.852                    21883366.582
        44.100          32.600
                  82923955.663 7  19916864.344                    19916864.531
                        44.000
                  91364309.134 7  21982609.570                    21982611.387
                        43.900
                                  19512884.539

                  88986746.993 6  21425603.297                    21425605.418
                        39.100
                  87492464.224 7  21036275.086                    21036277.035
                        43.200
                  89021586.112 7  21388900.438                    21388902.961
                        42.800
                  86752401.384 7  20829087.180                    20829088.207
                        43.800
 119846411.830 7  93386835.79545  22806014.492                    22806020.250
        43.400          32.400
 120478102.364 7  93879054.07445  22926221.453                    22926225.969
        47.100          34.100
 126218566.129 6  98352141.69144  24018595.336                    24018599.004
        40.800          28.000
 112878548.421 8  87957334.58846  21480074.422                    21480079.691
        51.000          38.400
 117030376.205 7  91192504.57044  22270139.914                    22270142.309
        43.300          27.900
 117390938.356 7  91473479.04046  22338752.281                    22338758.102
        47.900          36.000
 114297432.540 7  89062946.65745  21750078.523                    21750081.949
        46.800          35.800
 109602153.871 8  85404288.93746  20856597.398                    20856600.188
        49.100          37.200
 18  3 11 10 27  8.0000000  0 17R02G20R03R11R12R13R20R21R04G27G07G21
                                G30G28G08G15G13
                  95217102.128 6  22941831.180                    22941833.035
                        39.600
 114999495.522 7  89610072.20045  21883693.242                    21883695.477
        44.500          32.600
                  82925474.765 7  19917229.891                    19917229.398
                        43.500
                  91367665.142 7  21983417.172                    21983419.449
                        43.900
                                  19513093.492

                  88984048.512 6  21424953.125                    21424955.668
                        38.600
                  87494008.900 7  21036645.234                    21036648.285
                        43.000
                  89019729.172 7  21388455.070                    21388456.887
                        43.000
                  86750424.528 7  20828612.445                    20828613.750
                        44.200
 119848834.424 7  93388723.52945  22806475.938                    22806481.566
        43.000          31.800
 120481523.751 7  93881720.09245  22926871.992                    22926876.301
        46.700          33.300
 126220851.324 6  98353922.35044  24019030.000                    24019033.672
        41.100          27.400
 112880753.394 8  87959052.74846  21480493.648                    21480499.598
        50.800          38.300
 117028535.570 7  91191070.30644  22269789.031                    22269792.188
        43.000          28.400
 117390637.950 8  91473244.95446  22338694.961                    22338700.902
        48.200          36.700
 114295917.229 7  89061765.89645  21749790.016                    21749793.387
        47.300          35.600
 109602320.293 8  85404418.61146  20856629.156                    20856631.797
        49.300          36.900
 18  3 11 10 27  9.0000000  0 17R02G20R03R11R12R13R20R21R04G27G07G21
                                G30G28G08G15G13
                  95220892.606 6  22942743.445                    22942746.008
                        39.300
 115001226.979 7  89611421.37645  21884022.930                    21884025.207
        45.200          32.800
                  82926994.625 7  19917593.430                    19917594.488
                        43.300
                  91371021.539 7  21984223.953                    21984226.340
                        44.000
                                  19513302.094

                  88981350.446 6  21424304.734                    21424305.730
                        38.500
                  87495554.336 7  21037017.602                    21037019.719
                        43.800
                  89017872.880 7  21388008.945                    21388010.633
                        43.200
                  86748448.210 7  20828137.828                    20828138.809
                        43.900
 119851257.711 7  93390611.80645  22806936.867                    22806942.289
        43.800          32.400
 120484945.526 8  93884386.39645  22927525.000                    22927527.656
        48.500          34.100
 126223137.018 6  98355703.41144  24019465.031                    24019468.617
        40.800          26.800
 112882959.016 8  87960771.41646  21480913.211                    21480919.113
        50.900          38.100
 117026695.467 7  91189636.46844  22269438.672                    22269441.949
        43.000          27.300
 117390338.321 8  91473011.47946  22338638.070                    22338643.840
        48.000          36.600
 114294402.604 7  89060585.66945  21749501.953                    21749505.656
        47.700          35.800
 109602487.452 8  85404548.85446  20856660.797                    20856663.930
        48.800          37.500
 18  3 11 10 27 10.0000000  0 17R02G20R03R11R12R13R20R21R04G27G07G21
                                G30G28G08G15G13
                  95224683.258 6  22943657.875                    22943659.805
                        39.100
 115002959.128 7  89612771.09645  21884352.805                    21884355.254
        45.300          33.300
                  82928515.224 7  19917957.586                    19917959.766
                        43.600
                  91374378.234 7  21985031.094                    21985033.793
                        43.500
                                  19513510.672

                  88978652.769 6  21423654.828                    21423656.203
                        38.100
                  87497100.510 7  21037388.117                    21037391.934
                        43.800
                  89016017.171 7  21387563.578                    21387564.691
                        43.600
                  86746472.427 7  20827664.273                    20827664.801
                        44.000
 119853681.613 7  93392500.56545  22807398.344                    22807403.785
        43.800          32.500
 120488367.688 8  93887053.01845  22928175.789                    22928179.242
        48.400          34.600
 126225423.196 6  98357484.85444  24019899.969                    24019903.824
        40.000          26.700
 112885165.248 8  87962490.56046  21481333.172                    21481338.645
        51.000          37.700
 117024855.915 7  91188203.04744  22269089.016                    22269091.891
        43.300          27.500
 117390039.426 8  91472778.57645  22338581.273                    22338587.223
        48.400          35.700
 114292888.642 8  89059405.96145  21749214.031                    21749217.313
        48.000          35.600
 109602655.371 8  85404679.69946  20856692.594                    20856696.039
        48.900          37.200
 18  3 11 10 27 11.0000000  0 17R02G20R03R11R12R13R20R21R04G27G07G21
                                G30G28G08G15G13
                  95228474.141 6  22944570.781                    22944572.949
                        38.900
 115004691.986 7  89614121.37545  21884682.438                    21884684.707
        45.800          32.600
                  82930036.500 7  19918323.992                    19918325.305
                        43.600
                  91377735.291 7  21985839.617                    21985842.047
                        43.400
                                  19513720.188

                  88975955.502 6  21423005.664                    21423006.742
                        38.300
                  87498647.420 7  21037760.641                    21037763.965
                        43.300
                  89014162.109 7  21387118.203                    21387119.469
                        43.200
                  86744497.233 7  20827189.469                    20827190.352
                        43.900
 119856106.165 7  93394389.83045  22807859.438                    22807865.016
        43.800          32.100
 120491790.270 8  93889719.97645  22928826.273                    22928830.285
        48.100          34.700
 126227709.886 6  98359266.70844  24020335.617                    24020338.527
        40.200          26.900
 112887372.077 8  87964210.16646  21481753.445                    21481758.832
        50.900          38.300
 117023016.824 7  91186769.99344  22268738.789                    22268741.910
        43.200          28.300
 117389741.263 7  91472546.24646  22338524.406                    22338530.141
        47.600          36.800
 114291375.314 8  89058226.74045  21748925.789                    21748929.477
        48.300          35.900
 109602824.050 8  85404811.14046  20856724.984                    20856727.832
        49.000          37.200
 18  3 11 10 27 12.0000000  0 17R02G20R03R11R12R13R20R21R04G27G07G21
                                G30G28G08G15G13
                  95232265.254 6  22945484.555                    22945485.855
                        38.900
 115006425.563 7  89615472.22245  21885012.438                    21885014.574
        45.600          32.700
                  82931558.469 7  19918690.391                    19918690.992
                        43.400
                  91381092.717 7  21986647.313                    21986649.422
                        43.500
                                  19513929.695

                  88973258.638 6  21422355.430                    21422357.250
                        38.200
                  87500195.091 7  21038132.734                    21038135.594
                        43.600
                  89012307.702 7  21386672.891                    21386674.148
                        43.600
                  86742522.576 7  20826715.039                    20826716.297
                        44.000
 119858531.377 7  93396279.61345  22808320.859                    22808326.199
        43.800          32.400
 120495213.308 7  93892387.28245  22929477.828                    22929481.883
        47.600          34.600
 126229997.136 6  98361048.97444  24020771.234                    24020774.125
        39.800          26.400
 112889579.590 8  87965930.30746  21482173.094                    21482179.102
        50.800          37.900
 117021178.334 7  91185337.41244  22268389.133                    22268392.211
        42.800          28.900
 117389443.882 7  91472314.52246  22338467.852                    22338473.566
        47.500          36.700
 114289862.669 7  89057048.05545  21748637.961                    21748641.590
        47.900          35.500
 109602993.504 8  85404943.18546  20856757.117                    20856760.004
        49.100          37.100
 18  3 11 10 27 13.0000000  0 17R02G20R03R11R12R13R20R21R04G27G07G21
                                G30G28G08G15G13
                  95236056.594 6  22946397.828                    22946399.586
                        39.300
 115008159.835 7  89616823.61145  21885342.047                    21885344.426
        45.800          32.400
                  82933081.108 7  19919054.258                    19919056.660
                        43.400
                  91384450.452 7  21987455.070                    21987457.051
                        43.300
                                  19514139.070

                  88970562.137 6  21421706.453                    21421707.535
                        38.200
                  87501743.455 7  21038505.656                    21038507.766
                        43.800
                  89010453.884 7  21386226.477                    21386228.766
                        43.600
                  86740548.447 7  20826241.211                    20826242.387
                        43.800
 119860957.280 7  93398169.93645  22808782.906                    22808788.480
        44.200          32.100
 120498636.710 7  93895054.86945  22930129.516                    22930133.238
        47.600          34.300
 126232284.813 6  98362831.56844  24021207.180                    24021209.352
        40.200          27.700
 112891787.670 8  87967650.89046  21482593.625                    21482599.148
        50.200          38.100
 117019340.328 7  91183905.20344  22268039.391                    22268042.203
        43.300          28.300
 117389147.238 7  91472083.37246  22338411.766                    22338417.219
        47.900          36.400
 114288350.668 7  89055869.87745  21748350.102                    21748353.953
        47.700          35.600
 109603163.665 8  85405075.78146  20856789.484                    20856792.137
        48.300          37.300
 18  3 11 10 27 14.0000000  0 17R02G20R03R11R12R13R20R21R04G27G07G21
                                G30G28G08G15G13
                  95239848.169 6  22947311.742                    22947313.051
                        38.900
 115009894.818 7  89618175.55445  21885671.844                    21885674.594
        46.100          32.600
                  82934604.508 7  19919418.109                    19919422.770
                        43.400
                  91387808.538 7  21988263.359                    21988264.789
                        43.500
                                  19514349.156

                  88967866.083 6  21421058.094                    21421058.480
                        38.100
                  87503292.572 7  21038878.578                    21038880.555
                        43.700
                  89008600.664 7  21385780.336                    21385783.188
                        43.600
                  86738574.907 7  20825767.422                    20825768.504
                        44.000
 119863383.801 7  93400060.72945  22809244.898                    22809249.746
        44.500          32.600
 120502060.530 7  93897722.77545  22930781.188                    22930784.688
        47.900          33.600
 126234573.003 6  98364614.55844  24021642.852                    24021644.621
        40.900          27.000
 112893996.393 8  87969371.96446  21483014.203                    21483019.527
        51.200          39.000
 117017502.894 7  91182473.43144  22267690.172                    22267692.918
        43.600          28.300
 117388851.362 7  91471852.82346  22338355.633                    22338360.996
        47.800          36.000
 114286839.320 7  89054692.20445  21748062.766                    21748065.977
        47.700          35.900
 109603334.624 8  85405208.99546  20856822.078                    20856824.691
        48.300          37.200
 18  3 11 10 27 15.0000000  0 17R02G20R03R11R12R13R20R21R04G27G07G21
                                G30G28G08G15G13
                  95243639.960 6  22948225.477                    22948226.539
                        39.400
 115011630.524 7  89619528.05645  21886001.445                    21886004.594
        45.400          32.300
                  82936128.601 7  19919786.070                    19919788.191
                        43.400
                  91391166.968 7  21989071.602                    21989073.359
                        43.300
                                  19514558.336

                  88965170.410 6  21420408.703                    21420409.551
                        38.600
                  87504842.455 7  21039249.977                    21039253.117
                        43.800
                  89006748.112 7  21385334.969                    21385338.488
                        43.600
                  86736601.956 7  20825293.664                    20825294.156
                        44.100
 119865810.978 7  93401952.04045  22809706.461                    22809712.051
        44.200          32.700
 120505484.735 7  93900390.98045  22931432.508                    22931436.203
        47.400          34.000
 126236861.658 6  98366397.93744  24022077.938                    24022080.102
        41.600          28.300
 112896205.718 8  87971093.51546  21483434.289                    21483439.762
        50.800          38.600
 117015665.947 7  91181042.03644  22267339.914                    22267343.137
        42.800          28.300
 117388556.225 8  91471622.84346  22338299.391                    22338304.641
        48.100          36.400
 114285328.651 7  89053515.06946  21747775.117                    21747778.762
        47.300          36.400
 109603506.306 8  85405342.77646  20856854.305                    20856857.441
        48.200          37.500
 18  3 11 10 27 16.0000000  0 17R02G20R03R11R12R13R20R21R04G27G07G21
                                G30G28G08G15G13
                  95247431.960 6  22949139.500                    22949139.602
                        39.600
 115013366.921 7  89620881.09045  21886332.266                    21886335.000
        45.300          32.600
                  82937653.326 7  19920155.195                    19920154.590
                        43.200
                  91394525.742 7  21989878.938                    21989880.793
                        43.000
                                  19514768.063

                  88962475.160 6  21419761.008                    21419759.840
                        38.500
                  87506393.076 7  21039622.539                    21039626.488
                        43.700
                  89004896.196 7  21384890.461                    21384893.133
                        44.100
                  86734629.557 7  20824820.078                    20824821.086
                        43.700
 119868238.812 7  93403843.87345  22810168.188                    22810173.695
        43.800          33.000
 120508909.371 7  93903059.52845  22932084.203                    22932088.102
        47.200          34.300
 126239150.784 7  98368181.68344  24022513.844                    24022516.023
        42.700          28.300
 112898415.667 8  87972815.55746  21483854.703                    21483860.316
        51.000          38.600
 117013829.533 7  91179611.06244  22266991.266                    22266993.781
        43.400          28.700
 117388261.846 8  91471393.46145  22338243.500                    22338248.680
        48.300          35.900
 114283818.607 7  89052338.41145  21747488.023                    21747491.453
        47.200          35.800
 109603678.762 8  85405477.15346  20856887.281                    20856890.516
        48.500          37.200
 18  3 11 10 27 17.0000000  0 17R02G20R03R11R12R13R20R21R04G27G07G21
                                G30G28G08G15G13
                  95251224.134 6  22950053.117                    22950053.445
                        39.700
 115015104.015 7  89622234.66545  21886662.820                    21886665.777
        44.100          32.200
                  82939178.736 7  19920520.883                    19920521.531
                        43.600
                  91397884.819 7  21990688.305                    21990689.648
                        43.400
                                  19514978.477

                  88959780.248 6  21419113.164                    21419111.684
                        38.700
                  87507944.406 7  21039995.414                    21039999.551
                        43.600
                  89003044.909 7  21384446.008                    21384448.410
                        43.600
                  86732657.730 7  20824346.727                    20824347.746
                        43.600
 119870667.278 7  93405736.18545  22810629.711                    22810635.887
        43.000          32.700
 120512334.373 7  93905728.35345  22932736.391                    22932739.477
        47.700          33.900
 126241440.383 7  98369965.80944  24022949.422                    24022951.652
        43.100          27.900
 112900626.200 8  87974538.04746  21484275.602                    21484281.059
        51.200          37.700
 117011993.601 7  91178180.46244  22266641.961                    22266644.473
        43.400          27.600
 117387968.153 8  91471164.61346  22338187.086                    22338192.363
        48.000          36.200
 114282309.199 7  89051162.25246  21747200.938                    21747203.977
        47.500          36.200
 109603851.919 8  85405612.08146  20856919.891                    20856923.367
        48.300          37.200
 18  3 11 10 27 18.0000000  0 17R02G20R03R11R12R13R20R21R04G27G07G21
                                G30G28G08G15G13
                  95255016.499 6  22950966.398                    22950967.391
                        39.300
 115016841.803 7  89623588.78045  21886993.742                    21886996.688
        44.300          32.400
                  82940704.887 7  19920885.539                    19920888.246
                        43.200
                  91401244.263 7  21991496.469                    21991497.383
                        43.400
                                  19515188.664

                  88957085.708 6  21418465.117                    21418463.445
                        38.400
                  87509496.495 7  21040369.125                    21040372.332
                        43.300
                  89001194.221 7  21384001.477                    21384004.113
                        43.600
                  86730686.389 7  20823873.797                    20823874.266
                        43.800
 119873096.385 7  93407628.99845  22811092.305                    22811098.359
        42.900          32.300
 120515759.758 8  93908397.47745  22933388.563                    22933391.613
        48.200          33.300
 126243730.453 7  98371750.31044  24023384.508                    24023387.695
        42.300          27.600
 112902837.363 8  87976261.02746  21484696.164                    21484702.152
        51.200          37.900
 117010158.213 7  91176750.28544  22266292.500                    22266295.309
        43.300          27.500
 117387675.237 8  91470936.37046  22338131.531                    22338136.961
        48.000          36.200
 114280800.452 7  89049986.60546  21746913.586                    21746916.598
        47.300          36.300
 109604025.835 8  85405747.60546  20856953.734                    20856956.586
        48.800          37.300
 18  3 11 10 27 19.0000000  0 17R02G20R03R11R12R13R20R21R04G27G07G21
                                G30G28G08G15G13
                  95258809.076 6  22951881.102                    22951881.977
                        39.200
 115018580.294 7  89624943.44145  21887324.641                    21887327.902
        44.900          32.600
                  82942231.780 7  19921251.469                    19921254.434
                        43.300
                  91404604.033 7  21992304.633                    21992306.078
                        43.500
                                  19515399.844

                  88954391.554 6  21417814.766                    21417815.227
                        38.900
                  87511049.329 7  21040742.156                    21040745.598
                        43.300
                  88999344.121 7  21383556.906                    21383559.508
                        43.800
                  86728715.649 7  20823400.344                    20823401.066
                        44.000
 119875526.184 7  93409522.34845  22811554.313                    22811560.055
        42.800          32.400
 120519185.538 7  93911066.93145  22934039.563                    22934043.414
        47.800          33.800
 126246021.043 6  98373535.21444  24023819.789                    24023823.250
        41.600          28.000
 112905049.125 8  87977984.48546  21485116.664                    21485122.992
        50.500          37.700
 117008323.311 7  91175320.48544  22265942.609                    22265945.680
        42.800          28.300
 117387383.055 8  91470708.70346  22338075.695                    22338081.602
        48.000          36.100
 114279292.332 7  89048811.44545  21746626.555                    21746629.996
        47.200          35.900
 109604200.489 8  85405883.70446  20856986.742                    20856989.746
        49.100          37.300
 18  3 11 10 27 20.0000000  0 17R02G20R03R11R12R13R20R21R04G27G07G21
                                G30G28G08G15G13
                  95262601.933 6  22952794.039                    22952795.434
                        39.300
 115020319.493 7  89626298.66145  21887655.820                    21887658.508
        45.300          33.400
                  82943759.359 7  19921620.344                    19921621.039
                        43.700
                  91407964.141 7  21993113.063                    21993114.672
                        43.600
                                  19515609.992

                  88951697.854 6  21417164.031                    21417166.707
                        39.100
                  87512602.901 7  21041115.648                    21041119.012
                        43.300
                  88997494.699 7  21383112.313                    21383114.973
                        43.500
                  86726745.492 7  20822926.922                    20822927.574
                        43.900
 119877956.625 7  93411416.19445  22812016.664                    22812022.875
        43.100          32.400
 120522611.787 7  93913736.74045  22934691.094                    22934695.289
        47.100          34.100
 126248312.104 6  98375320.47944  24024255.375                    24024259.555
        41.100          26.700
 112907261.533 8  87979708.43646  21485537.867                    21485543.930
        50.700          37.600
 117006488.974 7  91173891.14644  22265593.430                    22265596.445
        42.900          27.800
 117387091.664 7  91470481.64845  22338020.086                    22338026.316
        47.500          35.600
 114277784.910 7  89047636.82645  21746339.320                    21746343.195
        47.200          35.700
 109604375.934 8  85406020.42046  20857020.320                    20857023.145
        49.700          37.100
 18  3 11 10 27 21.0000000  0 17R02G20R03R11R12R13R20R21R04G27G07G21
                                G30G28G08G15G13
                  95266394.996 6  22953708.414                    22953709.895
                        39.800
 115022059.409 7  89627654.43945  21887987.297                    21887989.758
        45.500          33.100
                  82945287.587 7  19921988.141                    19921988.422
                        43.600
                  91411324.588 7  21993921.648                    21993923.012
                        43.600
                                  19515821.117

                  88949004.484 6  21416514.539                    21416518.063
                        38.900
                  87514157.174 7  21041489.250                    21041492.590
                        43.600
                  88995645.904 7  21382669.078                    21382670.969
                        44.000
                  86724775.887 7  20822454.500                    20822455.246
                        44.000
 119880387.716 7  93413310.54545  22812479.398                    22812485.344
        42.600          31.600
 120526038.387 8  93916406.80645  22935345.297                    22935347.172
        48.800          33.500
 126250603.679 6  98377106.11344  24024691.672                    24024695.020
        40.600          28.000
 112909474.531 8  87981432.84746  21485959.586                    21485965.004
        50.800          37.800
 117004655.112 7  91172462.16744  22265245.336                    22265247.598
        43.300          28.300
 117386800.991 7  91470255.14246  22337964.391                    22337970.996
        47.900          36.400
 114276278.102 7  89046462.69545  21746052.938                    21746056.461
        46.700          35.800
 109604552.093 8  85406157.69446  20857054.305                    20857056.953
        50.200          37.000
 18  3 11 10 27 22.0000000  0 17R02G20R03R11R12R13R20R21R04G27G07G21
                                G30G28G08G15G13
                  95270188.268 6  22954621.820                    22954623.617
                        39.800
 115023799.992 7  89629010.73945  21888318.273                    21888320.695
        45.300          32.800
                  82946816.509 7  19922353.148                    19922355.586
                        43.900
                  91414685.372 7  21994730.570                    21994731.773
                        43.200
                                  19516031.539

                  88946311.590 6  21415866.773                    21415869.156
                        38.900
                  87515712.213 7  21041862.984                    21041866.711
                        43.700
                  88993797.704 7  21382224.531                    21382227.293
                        43.600
                  86722806.795 7  20821981.547                    20821982.328
                        43.900
 119882819.434 7  93415205.38245  22812942.711                    22812948.160
        43.000          32.100
 120529465.358 8  93919077.16645  22935996.781                    22935999.820
        49.700          33.100
 126252895.739 6  98378892.12044  24025127.570                    24025131.543
        39.500          27.900
 112911688.141 8  87983157.72946  21486380.641                    21486386.152
        50.500          38.200
 117002821.811 7  91171033.62744  22264896.195                    22264898.836
        43.500          28.500
 117386511.073 7  91470029.23246  22337909.430                    22337915.832
        47.600          36.000
 114274771.947 7  89045289.06945  21745765.898                    21745769.980
        46.800          35.700
 109604728.997 8  85406295.53646  20857087.750                    20857090.277
        49.900          37.100
 18  3 11 10 27 23.0000000  0 17R02G20R03R11R12R13R20R21R04G27G07G21
                                G30G28G08G15G13
                  95273981.765 6  22955535.992                    22955537.414
                        40.200
 115025541.308 7  89630367.61245  21888649.727                    21888652.109
        45.700          32.500
                  82948346.129 7  19922720.070                    19922723.242
                        44.000
                  91418046.481 7  21995537.453                    21995540.746
                        43.500
                                  19516243.102

                  88943619.099 6  21415219.313                    21415220.957
                        38.400
                  87517267.982 7  21042238.328                    21042241.055
                        43.500
                  88991950.122 7  21381780.883                    21381782.320
                        43.100
                  86720838.254 7  20821509.219                    20821509.867
                        44.100
 119885251.827 7  93417100.74845  22813405.711                    22813410.715
        43.600          32.400
 120532892.747 8  93921747.86745  22936648.484                    22936651.727
        48.800          32.800
 126255188.254 6  98380678.46544  24025563.844                    24025567.242
        39.300          26.400
 112913902.376 8  87984883.10946  21486801.766                    21486807.531
        50.600          38.100
 117000989.042 7  91169605.49444  22264547.789                    22264550.301
        43.200          26.500
 117386221.896 7  91469803.90146  22337854.867                    22337860.383
        47.900          36.500
 114273266.465 7  89044115.97345  21745479.695                    21745483.340
        46.600          35.800
 109604906.691 8  85406433.99646  20857121.617                    20857124.191
        50.000          37.100
 18  3 11 10 27 24.0000000  0 17R02G20R03R11R12R13R20R21R04G27G07G21
                                G30G28G08G15G13
                  95277775.434 6  22956449.781                    22956452.223
                        40.400
 115027283.295 7  89631725.01045  21888981.438                    21888983.605
        46.000          32.700
                  82949876.441 7  19923089.273                    19923090.328
                        43.500
                  91421407.939 7  21996346.789                    21996349.355
                        43.200
                                  19516454.352

                  88940926.949 6  21414573.273                    21414572.734
                        38.300
                  87518824.453 7  21042612.766                    21042615.141
                        44.000
                  88990103.145 7  21381335.586                    21381337.871
                        43.200
                  86718870.287 7  20821036.734                    20821036.672
                        44.000
 119887684.791 7  93418996.55845  22813869.367                    22813874.113
        44.100          31.900
 120536320.517 8  93924418.87745  22937300.141                    22937304.027
        48.100          33.200
 126257481.257 6  98382465.20944  24026000.203                    24026003.660
        40.100          27.300
 112916117.198 8  87986608.94346  21487223.086                    21487228.824
        49.900          37.500
 116999156.790 7  91168177.76444  22264199.273                    22264201.445
        42.900          27.600
 117385933.448 7  91469579.13646  22337799.789                    22337805.836
        47.300          36.100
 114271761.621 7  89042943.37246  21745193.133                    21745196.758
        47.000          36.100
 109605085.094 8  85406573.00046  20857155.125                    20857157.965
        49.400          37.700
 18  3 11 10 27 25.0000000  0 17R02G20R03R11R12R13R20R21R04G27G07G21
                                G30G28G08G15G13
                  95281569.287 6  22957363.555                    22957366.324
                        40.400
 115029025.996 7  89633082.96345  21889312.203                    21889315.141
        45.900          32.800
                  82951407.420 7  19923456.930                    19923457.828
                        43.600
                  91424769.744 7  21997155.563                    21997158.184
                        43.200
                                  19516666.438

                  88938235.187 6  21413926.148                    21413924.465
                        38.200
                  87520381.690 7  21042986.766                    21042989.500
                        44.000
                  88988256.799 7  21380892.164                    21380894.688
                        42.600
                  86716902.895 7  20820563.945                    20820565.086
                        44.000
 119890118.479 7  93420892.94445  22814331.953                    22814336.871
        44.000          32.100
 120539748.703 7  93927090.19645  22937951.813                    22937956.664
        47.600          33.100
 126259774.774 6  98384252.35944  24026436.633                    24026439.984
        40.300          27.600
 112918332.634 8  87988335.25746  21487644.898                    21487650.449
        49.900          38.700
 116997325.050 7  91166750.42744  22263849.711                    22263852.547
        42.700          28.200
 117385645.760 7  91469354.95746  22337745.227                    22337750.984
        47.500          36.200
 114270257.441 7  89041771.28846  21744907.430                    21744910.711
        47.500          36.200
 109605264.255 8  85406712.60046  20857189.109                    20857192.566
        49.000          37.100
 18  3 11 10 27 26.0000000  0 17R02G20R03R11R12R13R20R21R04G27G07G21
                                G30G28G08G15G13
                  95285363.363 6  22958277.969                    22958281.242
                        40.700
 115030769.396 7  89634441.46045  21889644.008                    21889646.863
        45.500          33.400
                  82952939.148 7  19923824.227                    19923826.367
                        43.700
                  91428131.875 7  21997964.773                    21997966.953
                        42.900
                                  19516878.336

                  88935543.791 6  21413278.336                    21413276.090
                        38.700
                  87521939.644 7  21043361.078                    21043364.047
                        43.600
                  88986411.117 7  21380450.203                    21380450.848
                        42.600
                  86714936.067 7  20820092.711                    20820092.465
                        44.000
 119892552.793 7  93422789.81145  22814795.922                    22814800.453
        42.900          32.000
 120543177.310 7  93929761.83145  22938604.570                    22938608.824
        47.000          33.600
 126262068.770 6  98386039.89744  24026872.375                    24026876.844
        40.400          27.500
 112920548.715 8  87990062.08046  21488066.508                    21488072.152
        49.900          38.100
 116995493.803 7  91165323.47944  22263502.172                    22263504.164
        42.800          28.300
 117385358.782 7  91469131.34046  22337690.953                    22337696.563
        47.500          36.400
 114268753.882 7  89040599.68446  21744621.094                    21744624.832
        47.000          36.200
 109605444.170 8  85406852.79646  20857222.922                    20857226.734
        48.900          37.000
 18  3 11 10 27 27.0000000  0 17R02G20R03R11R12R13R20R21R04G27G07G21
                                G30G28G08G15G13
                  95289157.668 6  22959191.070                    22959194.547
                        40.600
 115032513.491 7  89635800.49545  21889976.016                    21889978.914
        45.500          32.900
                  82954471.578 7  19924191.563                    19924193.902
                        44.000
                  91431494.345 7  21998773.727                    21998775.926
                        43.200
                                  19517089.695

                  88932852.774 6  21412629.430                    21412628.148
                        38.900
                  87523498.349 7  21043736.117                    21043738.895
                        43.500
                  88984566.025 7  21380006.617                    21380007.559
                        43.000
                  86712969.770 7  20819620.375                    20819620.914
                        44.100
 119894987.697 7  93424687.13745  22815258.734                    22815263.801
        43.200          32.600
 120546606.285 7  93932433.74745  22939257.219                    22939261.168
        47.200          33.500
 126264363.247 6  98387827.81444  24027309.688                    24027313.223
        39.400          27.200
 112922765.379 8  87991789.35446  21488488.336                    21488493.992
        49.500          38.000
 116993663.072 7  91163896.92844  22263153.508                    22263156.090
        42.900          27.300
 117385072.567 7  91468908.31546  22337635.984                    22337641.758
        47.400          36.300
 114267250.998 7  89039428.60446  21744335.133                    21744338.840
        47.300          36.000
 109605624.807 8  85406993.55846  20857257.656                    20857260.898
        48.500          37.300
 18  3 11 10 27 28.0000000  0 17R02G20R03R11R12R13R20R21R04G27G07G21
                                G30G28G08G15G13
                  95292952.159 6  22960105.391                    22960109.254
                        40.200
 115034258.272 7  89637160.05945  21890308.203                    21890311.129
        45.700          32.600
                  82956004.723 7  19924560.195                    19924561.941
                        43.900
                  91434857.117 7  21999583.539                    21999585.078
                        42.800
                                  19517301.688

                  88930162.153 6  21411979.766                    21411980.570
                        38.400
                  87525057.725 7  21044110.477                    21044114.324
                        43.800
                  88982721.507 7  21379563.508                    21379564.020
                        43.100
                  86711003.993 7  20819147.984                    20819148.918
                        43.600
 119897423.305 7  93426585.00145  22815721.156                    22815727.297
        43.200          32.400
 120550035.651 7  93935105.96545  22939909.961                    22939913.957
        47.300          33.200
 126266658.184 6  98389616.06744  24027747.289                    24027749.988
        39.700          26.900
 112924982.646 8  87993517.09046  21488910.227                    21488915.938
        49.700          38.100
 116991832.889 7  91162470.81044  22262804.438                    22262807.523
        42.700          28.300
 117384787.085 7  91468685.86546  22337581.609                    22337587.434
        47.600          36.000
 114265748.740 7  89038258.01046  21744049.555                    21744052.527
        47.700          36.100
 109605806.196 8  85407134.90846  20857291.828                    20857295.348
        48.400          37.400
 18  3 11 10 27 29.0000000  0 17R02G20R03R11R12R13R20R21R04G27G07G21
                                G30G28G08G15G13
                  95296746.894 6  22961018.984                    22961023.629
                        40.300
 115036003.774 7  89638520.18245  21890640.117                    21890642.969
        45.700          33.300
                  82957538.577 7  19924929.711                    19924930.438
                        43.800
                  91438220.256 7  22000393.523                    22000393.988
                        43.600
                                  19517514.070

                  88927471.927 6  21411331.281                    21411333.242
                        39.300
                  87526617.890 7  21044486.227                    21044488.898
                        43.300
                  88980877.671 7  21379120.625                    21379121.352
                        43.300
                  86709038.769 7  20818676.203                    20818676.246
                        43.700
 119899859.558 7  93428483.38345  22816185.211                    22816191.480
        43.000          32.700
 120553465.427 7  93937778.51445  22940563.031                    22940566.691
        47.400          33.200
 126268953.646 6  98391404.74144  24028185.125                    24028187.070
        40.800          27.700
 112927200.575 8  87995245.34546  21489332.500                    21489338.230
        50.000          38.100
 116990003.196 7  91161045.08244  22262456.953                    22262459.633
        43.000          28.500
 117384502.393 7  91468464.03446  22337527.516                    22337533.547
        47.800          36.200
 114264247.176 8  89037087.95945  21743763.828                    21743767.027
        48.200          35.800
 109605988.339 8  85407276.84046  20857326.750                    20857330.109
        49.000          37.700
 18  3 11 10 27 30.0000000  0 17R02G20R03R11R12R13R20R21R04G27G07G21
                                G30G28G08G15G13
                  95300541.817 6  22961933.281                    22961937.527
                        40.200
 115037749.969 7  89639880.85345  21890972.992                    21890975.672
        46.100          33.000
                  82959073.122 7  19925298.008                    19925299.582
                        43.800
                  91441583.715 7  22001203.258                    22001203.445
                        43.800
                                  19517725.867

                  88924782.155 6  21410682.602                    21410685.457
                        38.900
                  87528178.815 7  21044860.875                    21044864.160
                        43.700
                  88979034.442 7  21378677.211                    21378678.355
                        43.300
                  86707074.140 7  20818204.430                    20818205.238
                        43.800
 119902296.450 7  93430382.26945  22816648.992                    22816654.648
        43.100          33.300
 120556895.588 8  93940451.36345  22941216.156                    22941219.629
        48.000          33.400
 126271249.521 6  98393193.73544  24028621.125                    24028623.836
        41.300          27.900
 112929419.058 8  87996974.02646  21489754.938                    21489760.152
        50.800          37.600
 116988174.014 7  91159619.75344  22262108.352                    22262111.453
        42.800          27.300
 117384218.396 7  91468242.73545  22337473.117                    22337479.461
        47.800          35.700
 114262746.245 8  89035918.40346  21743477.977                    21743481.379
        48.000          36.400
 109606171.240 8  85407419.36046  20857361.844                    20857365.020
        48.900          37.600
 18  3 11 10 27 31.0000000  0 17R02G20R03R11R12R13R20R21R04G27G07G21
                                G30G28G08G15G13
                  95304336.972 6  22962848.680                    22962852.223
                        39.900
 115039496.903 7  89641242.10345  21891304.938                    21891307.645
        45.700          32.400
                  82960608.354 7  19925667.078                    19925668.004
                        43.800
                  91444947.523 7  22002012.211                    22002013.160
                        44.100
                                  19517939.445

                  88922092.836 6  21410035.164                    21410038.227
                        38.700
                  87529740.456 7  21045236.375                    21045239.902
                        43.600
                  88977191.896 7  21378235.164                    21378236.711
                        43.800
                  86705110.129 7  20817732.273                    20817733.527
                        43.900
 119904734.041 7  93432281.69245  22817113.547                    22817118.879
        43.000          32.800
 120560326.192 7  93943124.57245  22941868.430                    22941872.633
        47.300          33.700
 126273545.938 6  98394983.14044  24029058.125                    24029060.875
        41.400          27.700
 112931638.203 8  87998703.22946  21490177.094                    21490182.379
        50.800          38.400
 116986345.402 7  91158194.88244  22261760.898                    22261763.613
        44.000          28.100
 117383935.184 7  91468022.05946  22337419.258                    22337425.184
        47.500          36.400
 114261245.993 8  89034749.36746  21743192.508                    21743195.973
        48.100          36.200
 109606354.910 8  85407562.48346  20857396.883                    20857399.898
        49.400          37.200
 18  3 11 10 27 32.0000000  0 17R02G20R03R11R12R13R20R21R04G27G07G21
                                G30G28G08G15G13
                  95308132.316 6  22963763.250                    22963766.816
                        39.600
 115041244.477 7  89642603.85445  21891637.844                    21891640.516
        45.400          33.100
                  82962144.188 7  19926035.531                    19926036.605
                        43.600
                  91448311.624 7  22002821.578                    22002822.629
                        44.000
                                  19518151.781

                  88919403.824 6  21409389.148                    21409391.109
                        39.100
                  87531302.791 7  21045611.563                    21045615.516
                        43.300
                  88975349.911 7  21377792.336                    21377793.988
                        44.200
                  86703146.625 7  20817261.336                    20817261.449
                        44.000
 119907172.167 7  93434181.53745  22817576.789                    22817582.469
        42.800          33.000
 120563757.136 7  93945798.03345  22942521.281                    22942525.355
        47.400          33.400
 126275842.736 6  98396772.85344  24029494.961                    24029498.277
        41.400          27.500
 112933857.913 8  88000432.87846  21490599.180                    21490605.113
        50.800          38.400
 116984517.269 7  91156770.36844  22261412.883                    22261415.867
        43.300          26.700
 117383652.666 7  91467801.91846  22337365.813                    22337371.727
        47.800          37.100
 114259746.321 8  89033580.79145  21742907.023                    21742910.789
        48.500          35.900
 109606539.272 8  85407706.14446  20857431.703                    20857434.867
        49.500          37.100
 18  3 11 10 27 33.0000000  0 17R02G20R03R11R12R13R20R21R04G27G07G21
                                G30G28G08G15G13
                  95311927.831 6  22964678.117                    22964681.434
                        39.700
 115042992.700 7  89643966.10445  21891970.234                    21891972.914
        44.700          33.500
                  82963680.707 7  19926404.617                    19926406.074
                        43.600
                  91451676.052 7  22003630.875                    22003632.176
                        43.600
                                  19518364.367

                  88916715.177 6  21408743.336                    21408743.617
                        39.100
                  87532865.854 7  21045988.086                    21045990.949
                        43.400
                  88973508.499 7  21377350.094                    21377352.320
                        44.100
                  86701183.635 7  20816789.867                    20816791.129
                        44.000
 119909610.956 7  93436081.88845  22818040.344                    22818046.449
        42.400          32.600
 120567188.444 7  93948471.77145  22943175.023                    22943177.859
        47.500          32.700
 126278140.020 6  98398562.94944  24029931.414                    24029935.125
        41.000          28.000
 112936078.196 8  88002162.96646  21491021.547                    21491027.371
        50.700          38.000
 116982689.607 7  91155346.21644  22261065.680                    22261067.391
        43.600          28.000
 117383370.854 7  91467582.32546  22337312.625                    22337318.070
        47.500          36.700
 114258247.268 8  89032412.69445  21742622.000                    21742625.289
        48.500          35.800
 109606724.335 8  85407850.34946  20857466.719                    20857470.258
        49.300          37.300
 18  3 11 10 27 34.0000000  0 17R02G20R03R11R12R13R20R21R04G27G07G21
                                G30G28G08G15G13
                  95315723.572 6  22965592.453                    22965595.113
                        39.300
 115044741.673 7  89645328.94245  21892302.938                    21892306.199
        44.900          32.700
                  82965217.937 7  19926773.234                    19926775.039
                        43.400
                  91455040.807 7  22004439.117                    22004441.844
                        43.600
                                  19518577.477

                  88914026.916 6  21408096.086                    21408096.273
                        38.300
                  87534429.670 7  21046364.445                    21046367.590
                        43.500
                  88971667.712 7  21376907.422                    21376909.926
                        44.000
                  86699221.219 7  20816319.000                    20816319.465
                        43.800
 119912050.361 7  93437982.72045  22818504.836                    22818510.598
        42.800          32.600
 120570620.154 8  93951145.82745  22943827.828                    22943831.281
        48.100          33.300
 126280437.820 6  98400353.43444  24030368.203                    24030371.949
        39.900          27.400
 112938299.116 8  88003893.55646  21491444.586                    21491450.168
        50.600          37.700
 116980862.501 7  91153922.48844  22260717.977                    22260719.949
        43.500          27.800
 117383089.815 7  91467363.33646  22337258.750                    22337264.527
        47.300          36.300
 114256748.892 8  89031245.12645  21742336.766                    21742340.371
        48.600          35.900
 109606910.158 8  85407995.14846  20857502.086                    20857505.762
        49.300          37.300
 18  3 11 10 27 35.0000000  0 17R02G20R03R11R12R13R20R21R04G27G07G21
                                G30G28G08G15G13
                  95319519.509 6  22966507.898                    22966510.008
                        39.100
 115046491.326 7  89646692.30745  21892636.742                    21892638.773
        45.100          32.500
                  82966755.880 7  19927141.836                    19927144.520
                        43.600
                  91458405.935 7  22005248.500                    22005251.492
                        43.800
                                  19518790.492

                  88911339.015 6  21407449.375                    21407448.969
                        38.100
                  87535994.232 7  21046739.781                    21046743.355
                        43.100
                  88969827.603 7  21376464.820                    21376467.684
                        44.400
                  86697259.347 7  20815847.633                    20815848.523
                        44.000
 119914490.435 6  93439884.06045  22818969.156                    22818975.094
        41.700          32.400
 120574052.260 8  93953820.20145  22944481.117                    22944484.344
        48.500          33.800
 126282736.107 6  98402144.29844  24030805.992                    24030809.574
        39.600          27.500
 112940520.621 8  88005624.59846  21491866.875                    21491872.539
        50.500          37.800
 116979035.878 7  91152499.14144  22260369.766                    22260372.367
        43.100          28.000
 117382809.548 7  91467144.94846  22337205.617                    22337211.020
        47.600          36.700
 114255251.150 8  89030078.04945  21742051.734                    21742054.895
        48.500          35.900
 109607096.748 8  85408140.54546  20857537.414                    20857541.051
        49.100          37.500
 18  3 11 10 27 36.0000000  0 17R02G20R03R11R12R13R20R21R04G27G07G21
                                G30G28G08G15G13
                  95323315.683 6  22967423.055                    22967424.344
                        38.700
 115048241.701 7  89648056.23545  21892969.359                    21892971.824
        45.300          33.100
                  82968294.560 7  19927511.969                    19927514.156
                        43.400
                  91461771.410 7  22006058.164                    22006061.227
                        43.400
                                  19519003.875

                  88908651.530 6  21406800.133                    21406801.352
                        37.700
                  87537559.538 7  21047116.906                    21047119.887
                        43.300
                  88967988.112 7  21376023.680                    21376026.215
                        44.100
                  86695298.070 7  20815377.977                    20815378.000
                        43.800
 119916931.200 7  93441785.92045  22819433.953                    22819439.820
        42.600          33.400
 120577484.777 8  93956494.89245  22945134.594                    22945137.254
        49.000          33.600
 126285034.888 6  98403935.54244  24031244.383                    24031247.117
        39.600          28.400
 112942742.776 8  88007356.14746  21492289.695                    21492294.996
        50.900          37.600
 116977209.824 7  91151076.23344  22260022.250                    22260025.055
        43.000          28.600
 117382529.981 7  91466927.09746  22337152.391                    22337158.090
        47.600          36.900
 114253754.094 7  89028911.51545  21741766.734                    21741770.730
        47.500          35.400
 109607284.075 8  85408286.51546  20857572.969                    20857576.676
        48.900          36.900
 18  3 11 10 27 37.0000000  0 17R02G20R03R11R12R13R20R21R04G27G07G21
                                G30G28G08G15G13
                  95327112.044 6  22968338.438                    22968338.934
                        39.000
 115049992.711 7  89649420.65045  21893302.414                    21893305.215
        45.700          32.600
                  82969833.895 7  19927881.570                    19927883.449
                        43.400
                  91465137.158 7  22006866.914                    22006870.523
                        43.100
                                  19519217.297

                  88905964.402 6  21406152.805                    21406154.352
                        38.500
                  87539125.522 7  21047492.617                    21047495.730
                        43.400
                  88966149.232 7  21375580.875                    21375583.965
                        44.100
                  86693337.271 7  20814906.508                    20814906.117
                        43.600
 119919372.555 7  93443688.25645  22819899.234                    22819904.414
        43.600          33.900
 120580917.625 8  93959169.85445  22945786.828                    22945790.484
        48.100          33.100
 126287334.099 6  98405727.12644  24031681.781                    24031684.348
        41.100          27.800
 112944965.505 8  88009088.13846  21492712.758                    21492718.398
        51.400          37.300
 116975384.232 7  91149653.69844  22259674.766                    22259677.383
        42.400          28.500
 117382251.146 7  91466709.81746  22337099.602                    22337105.063
        47.500          36.400
 114252257.617 7  89027745.42846  21741481.867                    21741485.637
        47.100          36.000
 109607472.111 8  85408433.03646  20857609.234                    20857612.352
        49.200          37.200
 18  3 11 10 27 38.0000000  0 17R02G20R03R11R12R13R20R21R04G27G07G21
                                G30G28G08G15G13
                  95330908.659 6  22969253.063                    22969253.449
                        38.800
 115051744.499 7  89650785.67945  21893635.680                    21893638.484
        46.100          33.200
                  82971373.954 7  19928251.891                    19928253.891
                        43.400
                  91468503.284 7  22007677.031                    22007680.656
                        43.500
                                  19519431.664

                  88903277.767 6  21405506.664                    21405506.914
                        38.800
                  87540692.282 7  21047869.742                    21047872.238
                        43.100
                  88964310.987 7  21375139.430                    21375142.266
                        43.400
                  86691377.075 7  20814435.758                    20814436.090
                        43.600
 119921814.619 7  93445591.15245  22820364.188                    22820368.883
        44.400          33.100
 120584350.945 8  93961845.17545  22946440.055                    22946443.609
        48.100          33.600
 126289633.896 7  98407519.16344  24032120.180                    24032121.910
        42.100          27.700
 112947188.882 8  88010820.64246  21493136.008                    21493141.637
        51.000          37.600
 116973559.178 7  91148231.58544  22259327.734                    22259330.145
        42.300          27.900
 117381973.084 7  91466493.14446  22337046.484                    22337052.207
        47.500          36.300
 114250761.855 7  89026579.89945  21741197.023                    21741201.109
        47.200          35.600
 109607660.959 8  85408580.19046  20857645.320                    20857648.570
        49.000          37.100
 18  3 11 10 27 39.0000000  0 17R02G20R03R11R12R13R20R21R04G27G07G21
                                G30G28G08G15G13
                  95334705.509 6  22970168.563                    22970167.945
                        39.400
 115053496.982 7  89652151.24845  21893969.688                    21893972.020
        46.300          33.300
                  82972914.700 7  19928622.875                    19928623.426
                        43.600
                  91471869.730 7  22008487.383                    22008490.063
                        43.600
                                  19519644.859

                  88900591.512 6  21404860.359                    21404860.324
                        38.700
                  87542259.750 7  21048247.148                    21048249.422
                        43.500
                  88962473.359 7  21374698.156                    21374700.457
                        43.300
                  86689417.453 7  20813965.445                    20813966.020
                        43.600
 119924257.332 7  93447494.57245  22820829.367                    22820834.262
        45.000          33.700
 120587784.667 7  93964520.80845  22947093.586                    22947097.488
        47.600          33.800
 126291934.123 7  98409311.53044  24032558.281                    24032559.773
        43.000          27.500
 112949412.883 8  88012553.63446  21493559.141                    21493564.621
        50.700          38.100
 116971734.696 6  91146809.91244  22258980.195                    22258983.020
        41.600          27.900
 117381695.805 7  91466277.07946  22336993.703                    22336999.551
        47.300          36.200
 114249266.767 7  89025414.89545  21740912.766                    21740916.270
        47.000          35.700
 109607850.566 8  85408727.93446  20857681.664                    20857684.320
        49.300          37.400
 18  3 11 10 27 40.0000000  0 17R02G20R03R11R12R13R20R21R04G27G07G21
                                G30G28G08G15G13
                  95338502.570 6  22971082.555                    22971083.457
                        39.400
 115055250.138 7  89653517.34745  21894303.078                    21894305.707
        46.500          33.000
                  82974456.145 7  19928992.297                    19928993.625
                        44.000
                  91475236.521 7  22009299.305                    22009300.016
                        43.300
                                  19519859.578

                  88897905.666 6  21404213.156                    21404214.672
                        38.900
                  87543827.962 7  21048623.883                    21048626.691
                        43.600
                  88960636.381 7  21374256.633                    21374258.434
                        43.500
                  86687458.435 7  20813495.656                    20813495.328
                        43.600
 119926700.684 7  93449398.50245  22821293.672                    22821299.305
        45.000          33.200
 120591218.821 7  93967196.77645  22947746.227                    22947751.039
        46.300          33.700
 126294234.853 7  98411104.30644  24032995.797                    24032997.859
        43.500          28.600
 112951637.488 8  88014287.09146  21493982.742                    21493988.332
        50.900          37.800
 116969910.727 7  91145388.63344  22258633.094                    22258635.594
        42.100          28.300
 117381419.226 7  91466061.56546  22336940.867                    22336946.652
        47.200          36.400
 114247772.325 7  89024250.39645  21740628.352                    21740632.402
        46.800          35.700
 109608040.941 8  85408876.27346  20857717.648                    20857720.633
        49.100          37.700
 18  3 11 10 27 41.0000000  0 17R02G20R03R11R12R13R20R21R04G27G07G21
                                G30G28G08G15G13
                  95342299.848 6  22971996.758                    22971997.941
                        39.900
 115057004.060 7  89654884.03345  21894636.797                    21894639.320
        46.500          33.200
                  82975998.313 7  19929363.195                    19929363.797
                        43.600
                  91478603.696 7  22010109.453                    22010110.793
                        43.700
                                  19520073.891

                  88895220.251 6  21403567.750                    21403568.352
                        38.800
                  87545396.963 7  21049001.031                    21049003.801
                        43.400
                  88958800.042 7  21373816.422                    21373817.191
                        43.600
                  86685499.968 7  20813024.016                    20813025.410
                        43.500
 119929144.721 7  93451302.96145  22821758.781                    22821764.156
        45.000          33.500
 120594653.397 7  93969873.06345  22948400.523                    22948404.465
        46.500          33.300
 126296536.048 7  98412897.46144  24033432.727                    24033436.145
        43.200          27.600
 112953862.721 8  88016021.04746  21494405.914                    21494411.566
        50.700          38.100
 116968087.294 7  91143967.78444  22258286.875                    22258288.520
        42.500          27.400
 117381143.414 7  91465846.64946  22336888.594                    22336894.402
        47.200          36.300
 114246278.555 7  89023086.42546  21740343.898                    21740347.480
        47.000          36.100
 109608232.069 8  85409025.19346  20857753.938                    20857756.992
        49.100          37.500
 18  3 11 10 27 42.0000000  0 17R02G20R03R11R12R13R20R21R04G27G07G21
                                G30G28G08G15G13
                  95346097.310 6  22972912.102                    22972913.023
                        40.000
 115058758.653 7  89656251.24945  21894970.492                    21894973.293
        46.600          32.800
                  82977541.136 7  19929733.461                    19929735.332
                        43.400
                  91481971.157 7  22010920.523                    22010921.148
                        44.100
                                  19520288.242

                  88892535.210 6  21402920.797                    21402921.160
                        38.800
                  87546966.629 7  21049378.094                    21049381.547
                        43.100
                  88956964.291 7  21373375.336                    21373376.383
                        43.600
                  86683542.014 7  20812554.273                    20812555.539
                        43.200
 119931589.383 7  93453207.90345  22822223.531                    22822229.398
        45.000          33.800
 120598088.300 8  93972549.58845  22949055.680                    22949057.855
        48.500          33.100
 126298837.775 7  98414691.04444  24033870.820                    24033874.039
        43.000          27.000
 112956088.570 8  88017755.47946  21494829.156                    21494835.301
        50.500          38.400
 116966264.379 7  91142547.33744  22257939.281                    22257942.203
        43.200          27.300
 117380868.370 7  91465632.33046  22336836.102                    22336842.094
        47.300          36.900
 114244785.439 7  89021922.95545  21740059.930                    21740063.797
        47.000          35.300
 109608423.919 8  85409174.68046  20857790.258                    20857793.742
        48.400          37.300
 18  3 11 10 27 43.0000000  0 17R02G20R03R11R12R13R20R21R04G27G07G21
                                G30G28G08G15G13
                  95349894.957 6  22973826.484                    22973828.004
                        40.900
 115060513.959 7  89657619.02845  21895304.406                    21895307.625
        46.400          32.400
                  82979084.682 7  19930104.438                    19930105.914
                        43.800
                  91485338.987 7  22011730.641                    22011732.035
                        44.100
                                  19520502.461

                  88889850.571 6  21402273.563                    21402275.027
                        38.700
                  87548537.091 7  21049755.594                    21049759.520
                        43.300
                  88955129.182 7  21372934.078                    21372935.414
                        43.700
                  86681584.635 7  20812083.758                    20812084.891
                        43.600
 119934034.706 7  93455113.35545  22822688.805                    22822694.957
        45.200          32.700
 120601523.631 8  93975226.46645  22949708.984                    22949712.074
        48.800          34.000
 126301139.986 6  98416485.00344  24034308.266                    24034312.129
        41.700          26.700
 112958315.061 8  88019490.41146  21495253.344                    21495258.914
        50.500          38.600
 116964441.985 7  91141127.29044  22257592.836                    22257595.406
        43.300          27.200
 117380594.069 7  91465418.59346  22336783.586                    22336789.715
        46.800          36.300
 114243292.994 7  89020760.01345  21739776.555                    21739779.875
        47.100          35.400
 109608616.545 8  85409324.77746  20857827.023                    20857830.520
        48.200          37.500
 18  3 11 10 27 44.0000000  0 17R02G20R03R11R12R13R20R21R04G27G07G21
                                G30G28G08G15G13
                  95353692.821 6  22974741.875                    22974743.219
                        40.500
 115062269.953 7  89658987.34145  21895637.836                    21895641.582
        45.500          32.400
                  82980628.957 7  19930475.156                    19930476.578
                        43.700
                  91488707.142 7  22012539.836                    22012541.531
                        43.800
                                  19520717.219

                  88887166.334 6  21401626.258                    21401628.512
                        38.900
                  87550108.275 7  21050134.727                    21050137.207
                        43.500
                  88953294.736 7  21372493.406                    21372494.691
                        43.600
                  86679627.813 7  20811614.969                    20811615.617
                        43.500
 119936480.688 7  93457019.31845  22823154.398                    22823160.191
        45.000          33.100
 120604959.353 7  93977903.66645  22950361.461                    22950365.840
        47.800          33.200
 126303442.680 6  98418279.32544  24034745.570                    24034750.422
        41.000          28.000
 112960542.141 8  88021225.79146  21495676.922                    21495682.613
        50.500          38.300
 116962620.144 7  91139707.67844  22257246.266                    22257248.578
        43.400          28.600
 117380320.517 7  91465205.43846  22336731.797                    22336738.195
        46.800          36.600
 114241801.191 7  89019597.57045  21739492.836                    21739495.973
        47.600          35.400
 109608809.915 8  85409475.44946  20857863.297                    20857867.215
        48.200          37.100
 18  3 11 10 27 45.0000000  0 17R02G20R03R11R12R13R20R21R04G27G07G21
                                G30G28G08G15G13
                  95357490.886 6  22975656.438                    22975658.613
                        40.700
 115064026.675 7  89660356.22345  21895971.922                    21895975.676
        44.900          32.100
                  82982173.936 7  19930845.195                    19930848.055
                        43.600
                  91492075.648 7  22013350.227                    22013352.191
                        43.600
                                  19520932.148

                  88884482.464 6  21400981.555                    21400982.730
                        39.500
                  87551680.243 7  21050511.086                    21050515.484
                        43.400
                  88951460.909 7  21372051.875                    21372054.043
                        43.600
                  86677671.574 7  20811145.516                    20811145.473
                        43.700
 119938927.305 7  93458925.77945  22823619.750                    22823626.293
        44.700          33.800
 120608395.523 7  93980581.21945  22951015.133                    22951019.570
        47.000          33.600
 126305745.879 6  98420074.02044  24035183.945                    24035188.867
        40.200          27.000
 112962769.854 8  88022961.66246  21496101.047                    21496106.781
        50.900          38.300
 116960798.807 7  91138288.44844  22256899.930                    22256902.113
        43.400          29.100
 117380047.700 7  91464992.85446  22336679.469                    22336686.102
        46.400          36.100
 114240310.044 7  89018435.63445  21739208.695                    21739211.602
        47.800          35.200
 109609004.022 8  85409626.70946  20857900.273                    20857903.949
        48.100          37.500
 18  3 11 10 27 46.0000000  0 17R02G20R03R11R12R13R20R21R04G27G07G21
                                G30G28G08G15G13
                  95361289.169 6  22976570.781                    22976573.723
                        40.500
 115065784.069 7  89661725.61545  21896306.422                    21896310.285
        44.400          33.000
                  82983719.574 7  19931216.836                    19931218.746
                        43.800
                  91495444.431 7  22014160.469                    22014163.277
                        43.900
                                  19521147.344

                  88881798.973 6  21400335.180                    21400336.270
                        39.500
                  87553252.889 7  21050888.844                    21050893.512
                        43.700
                  88949627.677 7  21371612.273                    21371613.637
                        43.700
                  86675715.900 7  20810675.734                    20810676.430
                        44.000
 119941374.532 7  93460832.71145  22824084.938                    22824091.559
        44.100          32.900
 120611832.037 7  93983259.00645  22951669.945                    22951673.316
        47.300          33.900
 126308049.536 6  98421869.06344  24035622.984                    24035627.102
        39.800          27.600
 112964998.133 8  88024697.98046  21496525.148                    21496530.344
        50.500          38.100
 116958977.942 7  91136869.58844  22256552.086                    22256555.586
        43.100          27.700
 117379775.587 7  91464780.81446  22336628.016                    22336634.172
        46.600          36.300
 114238819.520 8  89017274.18845  21738925.195                    21738927.969
        48.000          35.400
 109609198.854 7  85409778.52746  20857937.602                    20857940.879
        47.500          37.500
 18  3 11 10 27 47.0000000  0 17R02G20R03R11R12R13R20R21R04G27G07G21
                                G30G28G08G15G13
                  95365087.639 6  22977486.313                    22977489.496
                        40.900
 115067542.163 7  89663095.54345  21896641.531                    21896644.293
        44.500          32.900
                  82985265.914 7  19931587.469                    19931590.316
                        43.600
                  91498813.581 7  22014970.555                    22014973.766
                        44.000
                                  19521363.102

                  88879115.868 6  21399689.227                    21399690.828
                        39.300
                  87554826.265 7  21051267.672                    21051271.836
                        43.600
                  88947795.079 7  21371171.805                    21371173.469
                        43.600
                  86673760.764 7  20810206.031                    20810206.359
                        44.000
 119943822.424 7  93462740.16345  22824550.875                    22824557.223
        43.100          32.600
 120615268.936 8  93985937.09345  22952324.672                    22952327.160
        48.800          33.900
 126310353.672 6  98423664.47344  24036061.672                    24036064.871
        39.400          27.100
 112967227.008 8  88026434.76746  21496949.594                    21496954.711
        50.500          38.400
 116957157.616 7  91135451.16144  22256206.977                    22256209.133
        43.900          28.500
 117379504.221 7  91464569.35946  22336576.328                    22336582.621
        46.700          36.100
 114237329.646 8  89016113.23645  21738641.500                    21738644.797
        48.400          35.800
 109609394.436 8  85409930.93546  20857975.336                    20857978.234
        48.000          37.100
 18  3 11 10 27 48.0000000  0 17R02G20R03R11R12R13R20R21R04G27G07G21
                                G30G28G08G15G13
                  95368886.352 6  22978400.586                    22978404.230
                        40.300
 115069300.974 7  89664466.02845  21896976.844                    21896979.180
        45.000          33.000
                  82986812.961 7  19931959.242                    19931961.875
                        43.400
                  91502183.067 7  22015781.617                    22015783.777
                        43.800
                                  19521578.641

                  88876433.182 6  21399043.844                    21399044.828
                        39.400
                  87556400.384 7  21051646.641                    21051649.902
                        43.600
                  88945963.106 7  21370731.086                    21370733.102
                        43.700
                  86671806.179 7  20809737.039                    20809737.355
                        43.700
 119946270.973 7  93464648.13145  22825016.148                    22825023.152
        43.400          33.100
 120618706.219 8  93988615.49045  22952979.039                    22952981.590
        49.300          34.000
 126312658.293 6  98425460.25844  24036501.234                    24036503.754
        40.000          27.200
 112969456.516 8  88028172.05346  21497373.563                    21497379.008
        50.700          38.700
 116955337.808 7  91134033.14444  22255860.891                    22255862.871
        44.000          28.900
 117379233.642 7  91464358.52046  22336524.766                    22336531.047
        47.000          36.100
 114235840.442 8  89014952.81346  21738357.859                    21738361.277
        48.800          36.000
 109609590.778 8  85410083.93146  20858012.523                    20858015.621
        48.600          37.000
 18  3 11 10 27 49.0000000  0 17R02G20R03R11R12R13R20R21R04G27G07G21
                                G30G28G08G15G13
                  95372685.278 6  22979315.266                    22979320.195
                        40.000
 115071060.503 7  89665837.07845  21897312.188                    21897314.227
        45.700          33.400
                  82988360.702 7  19932331.406                    19932334.078
                        43.500
                  91505552.903 7  22016592.539                    22016594.797
                        43.400
                                  19521793.891

                  88873750.912 6  21398396.570                    21398398.820
                        39.000
                  87557975.242 7  21052024.500                    21052028.387
                        43.700
                  88944131.796 7  21370292.000                    21370292.656
                        43.500
                  86669852.159 7  20809267.641                    20809268.305
                        43.700
 119948720.190 7  93466556.61545  22825482.195                    22825489.063
        43.100          33.200
 120622143.942 8  93991294.24145  22953631.734                    22953636.199
        48.500          33.600
 126314963.427 6  98427256.43844  24036940.211                    24036942.477
        41.000          27.800
 112971686.664 8  88029909.83846  21497797.805                    21497803.734
        50.300          38.300
 116953518.573 7  91132615.56344  22255514.375                    22255516.957
        44.100          27.800
 117378963.806 7  91464148.26146  22336473.930                    22336479.566
        47.000          36.300
 114234351.896 8  89013792.90245  21738074.703                    21738078.328
        48.600          35.200
 109609787.882 8  85410237.51546  20858050.219                    20858053.168
        49.100          37.400
 18  3 11 10 27 50.0000000  0 17R02G20R03R11R12R13R20R21R04G27G07G21
                                G30G28G08G15G13
                  95376484.437 6  22980231.188                    22980235.387
                        40.900
 115072820.728 7  89667208.67545  21897647.141                    21897649.242
        46.000          33.800
                  82989909.121 7  19932704.672                    19932705.617
                        43.900
                  91508923.090 7  22017403.297                    22017405.223
                        43.400
                                  19522009.133

                  88871069.051 6  21397750.664                    21397753.547
                        39.000
                  87559550.860 7  21052404.539                    21052407.527
                        43.500
                  88942301.083 7  21369852.031                    21369852.680
                        43.500
                  86667898.691 7  20808798.695                    20808799.070
                        43.700
 119951170.075 7  93468465.60445  22825948.711                    22825955.109
        42.700          33.900
 120625582.103 8  93993973.33345  22954286.523                    22954290.313
        49.100          33.800
 126317269.077 7  98429053.01844  24037379.813                    24037381.023
        42.000          27.700
 112973917.439 8  88031648.10246  21498222.109                    21498227.668
        50.300          38.100
 116951699.859 7  91131198.39044  22255167.680                    22255170.887
        43.700          29.000
 117378694.760 7  91463938.62046  22336422.516                    22336428.227
        47.100          36.100
 114232864.047 8  89012633.53045  21737791.219                    21737795.180
        48.300          35.400
 109609985.752 8  85410391.69546  20858088.086                    20858090.383
        49.300          37.100
 18  3 11 10 27 51.0000000  0 17R02G20R03R11R12R13R20R21R04G27G07G21
                                G30G28G08G15G13
                  95380283.795 6  22981147.000                    22981150.613
                        40.500
 115074581.667 7  89668580.84445  21897982.031                    21897984.406
        46.200          33.400
                  82991458.248 7  19933077.203                    19933077.941
                        44.000
                  91512293.592 7  22018214.938                    22018216.078
                        43.700
                                  19522226.344

                  88868387.586 6  21397104.922                    21397107.203
                        38.400
                  87561127.216 7  21052783.234                    21052786.566
                        43.500
                  88940470.973 7  21369412.711                    21369412.840
                        43.500
                  86665945.789 7  20808329.789                    20808330.582
                        44.000
 119953620.604 6  93470375.09745  22826415.266                    22826421.625
        41.600          33.300
 120629020.585 8  93996652.67745  22954941.180                    22954944.098
        49.500          34.100
 126319575.151 7  98430849.93544  24037818.180                    24037820.203
        42.300          27.800
 112976148.817 8  88033386.84046  21498646.164                    21498652.641
        50.200          37.800
 116949881.623 7  91129781.58444  22254822.188                    22254824.668
        43.700          27.900
 117378426.441 7  91463729.54946  22336371.547                    22336377.313
        47.400          36.800
 114231376.840 8  89011474.66445  21737508.344                    21737512.168
        48.200          35.700
 109610184.345 8  85410546.43546  20858125.836                    20858128.656
        49.600          37.300
 18  3 11 10 27 52.0000000  0 17R02G20R03R11R12R13R20R21R04G27G07G21
                                G30G28G08G15G13
                  95384083.340 6  22982062.430                    22982066.168
                        40.500
 115076343.279 7  89669953.52845  21898317.375                    21898319.789
        46.000          33.000
                  82993008.097 7  19933447.844                    19933449.348
                        43.900
                  91515664.491 7  22019026.094                    22019027.145
                        43.600
                                  19522442.102

                  88865706.510 6  21396460.414                    21396461.332
                        38.300
                  87562704.302 7  21053162.227                    21053165.473
                        43.600
                  88938641.527 7  21368972.250                    21368973.352
                        43.600
                  86663993.477 7  20807860.797                    20807861.781
                        43.900
 119956071.764 7  93472285.08345  22826882.492                    22826887.598
        42.000          33.700
 120632459.522 7  93999332.38145  22955593.883                    22955599.066
        47.700          34.000
 126321881.723 7  98432647.27444  24038257.266                    24038258.777
        42.900          28.100
 112978380.808 8  88035126.05646  21499071.727                    21499077.055
        50.300          37.900
 116948063.981 7  91128365.22544  22254476.273                    22254478.520
        43.000          27.900
 117378158.893 7  91463521.07146  22336320.609                    22336326.402
        46.900          36.700
 114229890.271 7  89010316.30245  21737225.094                    21737229.086
        47.600          35.200
 109610383.698 8  85410701.77046  20858163.578                    20858166.676
        49.200          37.000
